[{"id":68019,"name":"Abelardo L. Rodríguez","stateId":3475,"stateCode":"CAM","stateName":"Campeche","countryId":142,"countryCode":"MX","countryName":"Mexico","latitude":"18.72842000","longitude":"-90.90456000","wikiDataId":"Q5654722"},{"id":68197,"name":"Alfredo V. Bonfil","stateId":3475,"stateCode":"CAM","stateName":"Campeche","countryId":142,"countryCode":"MX","countryName":"Mexico","latitude":"19.53032000","longitude":"-90.18214000","wikiDataId":"Q20134299"},{"id":68223,"name":"Altamira de Zináparo","stateId":3475,"stateCode":"CAM","stateName":"Campeche","countryId":142,"countryCode":"MX","countryName":"Mexico","latitude":"18.58208000","longitude":"-90.25610000","wikiDataId":"Q434225"},{"id":68393,"name":"Atasta","stateId":3475,"stateCode":"CAM","stateName":"Campeche","countryId":142,"countryCode":"MX","countryName":"Mexico","latitude":"18.61954000","longitude":"-92.10326000","wikiDataId":"Q2651750"},{"id":68481,"name":"Bacabchén","stateId":3475,"stateCode":"CAM","stateName":"Campeche","countryId":142,"countryCode":"MX","countryName":"Mexico","latitude":"20.28903000","longitude":"-90.05602000","wikiDataId":"Q28051226"},{"id":68696,"name":"Bécal","stateId":3475,"stateCode":"CAM","stateName":"Campeche","countryId":142,"countryCode":"MX","countryName":"Mexico","latitude":"20.44172000","longitude":"-90.02738000","wikiDataId":"Q20143370"},{"id":68606,"name":"Benito Juárez Uno","stateId":3475,"stateCode":"CAM","stateName":"Campeche","countryId":142,"countryCode":"MX","countryName":"Mexico","latitude":"18.27695000","longitude":"-91.09914000","wikiDataId":"Q20261660"},{"id":68630,"name":"Bolonchén de Rejón","stateId":3475,"stateCode":"CAM","stateName":"Campeche","countryId":142,"countryCode":"MX","countryName":"Mexico","latitude":"20.00386000","longitude":"-89.74663000","wikiDataId":"Q2576175"},{"id":68726,"name":"Calakmul","stateId":3475,"stateCode":"CAM","stateName":"Campeche","countryId":142,"countryCode":"MX","countryName":"Mexico","latitude":"18.00000000","longitude":"-89.75000000","wikiDataId":"Q2605348"},{"id":68741,"name":"Calkiní","stateId":3475,"stateCode":"CAM","stateName":"Campeche","countryId":142,"countryCode":"MX","countryName":"Mexico","latitude":"20.38583000","longitude":"-89.98764000","wikiDataId":"Q2605401"},{"id":68770,"name":"Campeche","stateId":3475,"stateCode":"CAM","stateName":"Campeche","countryId":142,"countryCode":"MX","countryName":"Mexico","latitude":"19.84386000","longitude":"-90.52554000","wikiDataId":"Q61301"},{"id":68789,"name":"Candelaria","stateId":3475,"stateCode":"CAM","stateName":"Campeche","countryId":142,"countryCode":"MX","countryName":"Mexico","latitude":"18.00000000","longitude":"-90.75000000","wikiDataId":"Q2312662"},{"id":68827,"name":"Carmen","stateId":3475,"stateCode":"CAM","stateName":"Campeche","countryId":142,"countryCode":"MX","countryName":"Mexico","latitude":"18.63000000","longitude":"-91.83000000","wikiDataId":"Q2720137"},{"id":68838,"name":"Carrillo Puerto","stateId":3475,"stateCode":"CAM","stateName":"Campeche","countryId":142,"countryCode":"MX","countryName":"Mexico","latitude":"19.09400000","longitude":"-90.52279000","wikiDataId":"Q5095723"},{"id":68858,"name":"Castamay","stateId":3475,"stateCode":"CAM","stateName":"Campeche","countryId":142,"countryCode":"MX","countryName":"Mexico","latitude":"19.83782000","longitude":"-90.43181000","wikiDataId":"Q20275318"},{"id":68968,"name":"Champotón","stateId":3475,"stateCode":"CAM","stateName":"Campeche","countryId":142,"countryCode":"MX","countryName":"Mexico","latitude":"19.35042000","longitude":"-90.70991000","wikiDataId":"Q2543920"},{"id":69019,"name":"Chicbul","stateId":3475,"stateCode":"CAM","stateName":"Campeche","countryId":142,"countryCode":"MX","countryName":"Mexico","latitude":"18.77558000","longitude":"-90.92429000","wikiDataId":"Q30279483"},{"id":69087,"name":"Chiná","stateId":3475,"stateCode":"CAM","stateName":"Campeche","countryId":142,"countryCode":"MX","countryName":"Mexico","latitude":"19.76993000","longitude":"-90.49595000","wikiDataId":"Q20275642"},{"id":69117,"name":"Chunchintok","stateId":3475,"stateCode":"CAM","stateName":"Campeche","countryId":142,"countryCode":"MX","countryName":"Mexico","latitude":"19.36145000","longitude":"-89.58218000","wikiDataId":"Q5768491"},{"id":69195,"name":"Ciudad del Carmen","stateId":3475,"stateCode":"CAM","stateName":"Campeche","countryId":142,"countryCode":"MX","countryName":"Mexico","latitude":"18.64592000","longitude":"-91.82991000","wikiDataId":"Q991435"},{"id":69294,"name":"Colonia Emiliano Zapata","stateId":3475,"stateCode":"CAM","stateName":"Campeche","countryId":142,"countryCode":"MX","countryName":"Mexico","latitude":"18.66504000","longitude":"-92.31088000","wikiDataId":"Q20246210"},{"id":69463,"name":"Constitución","stateId":3475,"stateCode":"CAM","stateName":"Campeche","countryId":142,"countryCode":"MX","countryName":"Mexico","latitude":"18.62675000","longitude":"-90.13584000","wikiDataId":"Q20235793"},{"id":69636,"name":"Cumpich","stateId":3475,"stateCode":"CAM","stateName":"Campeche","countryId":142,"countryCode":"MX","countryName":"Mexico","latitude":"20.18612000","longitude":"-89.97081000","wikiDataId":"Q3844664"},{"id":69689,"name":"División del Norte","stateId":3475,"stateCode":"CAM","stateName":"Campeche","countryId":142,"countryCode":"MX","countryName":"Mexico","latitude":"18.52946000","longitude":"-90.76416000","wikiDataId":"Q20237772"},{"id":69712,"name":"Don Samuel","stateId":3475,"stateCode":"CAM","stateName":"Campeche","countryId":142,"countryCode":"MX","countryName":"Mexico","latitude":"18.36000000","longitude":"-90.85722000","wikiDataId":"Q20258219"},{"id":69735,"name":"Dzibalchén","stateId":3475,"stateCode":"CAM","stateName":"Campeche","countryId":142,"countryCode":"MX","countryName":"Mexico","latitude":"19.45847000","longitude":"-89.73111000","wikiDataId":"Q20258224"},{"id":69741,"name":"Dzitbalché","stateId":3475,"stateCode":"CAM","stateName":"Campeche","countryId":142,"countryCode":"MX","countryName":"Mexico","latitude":"20.31857000","longitude":"-90.05611000","wikiDataId":"Q4505924"},{"id":69824,"name":"El Aguacatal","stateId":3475,"stateCode":"CAM","stateName":"Campeche","countryId":142,"countryCode":"MX","countryName":"Mexico","latitude":"18.21361000","longitude":"-91.51095000","wikiDataId":"Q1144317"},{"id":70058,"name":"El Naranjo","stateId":3475,"stateCode":"CAM","stateName":"Campeche","countryId":142,"countryCode":"MX","countryName":"Mexico","latitude":"18.02193000","longitude":"-91.12654000","wikiDataId":"Q20206594"},{"id":70324,"name":"Escárcega","stateId":3475,"stateCode":"CAM","stateName":"Campeche","countryId":142,"countryCode":"MX","countryName":"Mexico","latitude":"18.61404000","longitude":"-90.72870000","wikiDataId":"Q2541910"},{"id":70662,"name":"Hampolol","stateId":3475,"stateCode":"CAM","stateName":"Campeche","countryId":142,"countryCode":"MX","countryName":"Mexico","latitude":"19.92716000","longitude":"-90.38924000","wikiDataId":"Q4494984"},{"id":70663,"name":"Haro","stateId":3475,"stateCode":"CAM","stateName":"Campeche","countryId":142,"countryCode":"MX","countryName":"Mexico","latitude":"18.44418000","longitude":"-90.79153000","wikiDataId":"Q20258358"},{"id":70664,"name":"Hecelchakán","stateId":3475,"stateCode":"CAM","stateName":"Campeche","countryId":142,"countryCode":"MX","countryName":"Mexico","latitude":"20.16667000","longitude":"-90.13333000","wikiDataId":"Q2284273"},{"id":70707,"name":"Hool","stateId":3475,"stateCode":"CAM","stateName":"Campeche","countryId":142,"countryCode":"MX","countryName":"Mexico","latitude":"19.51294000","longitude":"-90.44631000","wikiDataId":"Q1998711"},{"id":70708,"name":"Hopelchén","stateId":3475,"stateCode":"CAM","stateName":"Campeche","countryId":142,"countryCode":"MX","countryName":"Mexico","latitude":"19.74671000","longitude":"-89.84437000","wikiDataId":"Q2748569"},{"id":70883,"name":"Isla Aguada","stateId":3475,"stateCode":"CAM","stateName":"Campeche","countryId":142,"countryCode":"MX","countryName":"Mexico","latitude":"18.78714000","longitude":"-91.49277000","wikiDataId":"Q20258362"},{"id":70892,"name":"Iturbide","stateId":3475,"stateCode":"CAM","stateName":"Campeche","countryId":142,"countryCode":"MX","countryName":"Mexico","latitude":"19.57903000","longitude":"-89.60222000","wikiDataId":"Q20147819"},{"id":71331,"name":"La Joya","stateId":3475,"stateCode":"CAM","stateName":"Campeche","countryId":142,"countryCode":"MX","countryName":"Mexico","latitude":"19.48028000","longitude":"-90.67333000","wikiDataId":"Q20251416"},{"id":71354,"name":"La Libertad","stateId":3475,"stateCode":"CAM","stateName":"Campeche","countryId":142,"countryCode":"MX","countryName":"Mexico","latitude":"18.57042000","longitude":"-90.51399000","wikiDataId":"Q20216167"},{"id":71663,"name":"Lerma","stateId":3475,"stateCode":"CAM","stateName":"Campeche","countryId":142,"countryCode":"MX","countryName":"Mexico","latitude":"19.80404000","longitude":"-90.60088000","wikiDataId":"Q22941041"},{"id":71677,"name":"Licenciado Gustavo Díaz Ordaz (18 de Marzo)","stateId":3475,"stateCode":"CAM","stateName":"Campeche","countryId":142,"countryCode":"MX","countryName":"Mexico","latitude":"18.63222000","longitude":"-91.00278000","wikiDataId":"Q20258442"},{"id":71808,"name":"Los Laureles","stateId":3475,"stateCode":"CAM","stateName":"Campeche","countryId":142,"countryCode":"MX","countryName":"Mexico","latitude":"19.48778000","longitude":"-89.99444000","wikiDataId":"Q20136843"},{"id":71951,"name":"Mamantel","stateId":3475,"stateCode":"CAM","stateName":"Campeche","countryId":142,"countryCode":"MX","countryName":"Mexico","latitude":"18.52512000","longitude":"-91.08885000","wikiDataId":"Q20144341"},{"id":72016,"name":"Matamoros","stateId":3475,"stateCode":"CAM","stateName":"Campeche","countryId":142,"countryCode":"MX","countryName":"Mexico","latitude":"18.58414000","longitude":"-90.64669000","wikiDataId":"Q4937"},{"id":72030,"name":"Maya Tecún I","stateId":3475,"stateCode":"CAM","stateName":"Campeche","countryId":142,"countryCode":"MX","countryName":"Mexico","latitude":"19.15292000","longitude":"-90.50641000","wikiDataId":"Q20251618"},{"id":72405,"name":"Nuevo Progreso","stateId":3475,"stateCode":"CAM","stateName":"Campeche","countryId":142,"countryCode":"MX","countryName":"Mexico","latitude":"18.62294000","longitude":"-92.29124000","wikiDataId":"Q6046933"},{"id":72426,"name":"Nunkiní","stateId":3475,"stateCode":"CAM","stateName":"Campeche","countryId":142,"countryCode":"MX","countryName":"Mexico","latitude":"20.40046000","longitude":"-90.14803000","wikiDataId":"Q20258461"},{"id":72584,"name":"Palizada","stateId":3475,"stateCode":"CAM","stateName":"Campeche","countryId":142,"countryCode":"MX","countryName":"Mexico","latitude":"18.25261000","longitude":"-92.07779000","wikiDataId":"Q2605317"},{"id":72759,"name":"Pich","stateId":3475,"stateCode":"CAM","stateName":"Campeche","countryId":142,"countryCode":"MX","countryName":"Mexico","latitude":"19.48568000","longitude":"-90.11795000","wikiDataId":"Q20294483"},{"id":72830,"name":"Pocboc","stateId":3475,"stateCode":"CAM","stateName":"Campeche","countryId":142,"countryCode":"MX","countryName":"Mexico","latitude":"20.23541000","longitude":"-90.10219000","wikiDataId":"Q20260344"},{"id":72847,"name":"Pomuch","stateId":3475,"stateCode":"CAM","stateName":"Campeche","countryId":142,"countryCode":"MX","countryName":"Mexico","latitude":"20.13727000","longitude":"-90.17488000","wikiDataId":"Q4371792"},{"id":73190,"name":"Sabancuy","stateId":3475,"stateCode":"CAM","stateName":"Campeche","countryId":142,"countryCode":"MX","countryName":"Mexico","latitude":"18.97270000","longitude":"-91.17783000","wikiDataId":"Q20247219"},{"id":73331,"name":"San Antonio Cárdenas","stateId":3475,"stateCode":"CAM","stateName":"Campeche","countryId":142,"countryCode":"MX","countryName":"Mexico","latitude":"18.61399000","longitude":"-92.22341000","wikiDataId":"Q20133984"},{"id":73347,"name":"San Antonio Sahcabchén","stateId":3475,"stateCode":"CAM","stateName":"Campeche","countryId":142,"countryCode":"MX","countryName":"Mexico","latitude":"20.30696000","longitude":"-90.13778000","wikiDataId":"Q20231554"},{"id":73573,"name":"San Francisco Kobén","stateId":3475,"stateCode":"CAM","stateName":"Campeche","countryId":142,"countryCode":"MX","countryName":"Mexico","latitude":"19.91516000","longitude":"-90.41709000","wikiDataId":"Q20289239"},{"id":74299,"name":"San Pablo Pixtún","stateId":3475,"stateCode":"CAM","stateName":"Campeche","countryId":142,"countryCode":"MX","countryName":"Mexico","latitude":"19.13361000","longitude":"-90.73194000","wikiDataId":"Q20148099"},{"id":74608,"name":"Santa Cruz","stateId":3475,"stateCode":"CAM","stateName":"Campeche","countryId":142,"countryCode":"MX","countryName":"Mexico","latitude":"20.20339000","longitude":"-90.11771000","wikiDataId":"Q50028020"},{"id":74624,"name":"Santa Cruz Ex-Hacienda","stateId":3475,"stateCode":"CAM","stateName":"Campeche","countryId":142,"countryCode":"MX","countryName":"Mexico","latitude":"20.39684000","longitude":"-90.24068000","wikiDataId":"Q20240491"},{"id":74636,"name":"Santa Cruz Pueblo","stateId":3475,"stateCode":"CAM","stateName":"Campeche","countryId":142,"countryCode":"MX","countryName":"Mexico","latitude":"20.33359000","longitude":"-90.10342000","wikiDataId":"Q20224832"},{"id":75003,"name":"Santo Domingo Kesté","stateId":3475,"stateCode":"CAM","stateName":"Campeche","countryId":142,"countryCode":"MX","countryName":"Mexico","latitude":"19.49972000","longitude":"-90.51139000","wikiDataId":"Q20247394"},{"id":75065,"name":"Seybaplaya","stateId":3475,"stateCode":"CAM","stateName":"Campeche","countryId":142,"countryCode":"MX","countryName":"Mexico","latitude":"19.63994000","longitude":"-90.68706000","wikiDataId":"Q4413098"},{"id":75076,"name":"Sihochac","stateId":3475,"stateCode":"CAM","stateName":"Campeche","countryId":142,"countryCode":"MX","countryName":"Mexico","latitude":"19.50120000","longitude":"-90.58472000","wikiDataId":"Q20240472"},{"id":75137,"name":"Suc-Tuc","stateId":3475,"stateCode":"CAM","stateName":"Campeche","countryId":142,"countryCode":"MX","countryName":"Mexico","latitude":"19.71259000","longitude":"-90.03768000","wikiDataId":"Q3311962"},{"id":75215,"name":"Tankuché","stateId":3475,"stateCode":"CAM","stateName":"Campeche","countryId":142,"countryCode":"MX","countryName":"Mexico","latitude":"20.50743000","longitude":"-90.24164000","wikiDataId":"Q20286338"},{"id":75345,"name":"Tenabo","stateId":3475,"stateCode":"CAM","stateName":"Campeche","countryId":142,"countryCode":"MX","countryName":"Mexico","latitude":"19.83333000","longitude":"-90.00000000","wikiDataId":"Q2476938"},{"id":75390,"name":"Tepakán","stateId":3475,"stateCode":"CAM","stateName":"Campeche","countryId":142,"countryCode":"MX","countryName":"Mexico","latitude":"20.39716000","longitude":"-90.04075000","wikiDataId":"Q6142087"},{"id":75563,"name":"Tikinmul","stateId":3475,"stateCode":"CAM","stateName":"Campeche","countryId":142,"countryCode":"MX","countryName":"Mexico","latitude":"19.76611000","longitude":"-90.22306000","wikiDataId":"Q20288745"},{"id":75865,"name":"Ukúm","stateId":3475,"stateCode":"CAM","stateName":"Campeche","countryId":142,"countryCode":"MX","countryName":"Mexico","latitude":"19.24197000","longitude":"-89.33529000","wikiDataId":"Q6155214"},{"id":76029,"name":"Villa Madero","stateId":3475,"stateCode":"CAM","stateName":"Campeche","countryId":142,"countryCode":"MX","countryName":"Mexico","latitude":"19.52833000","longitude":"-90.69917000","wikiDataId":"Q20258589"},{"id":76130,"name":"Xbacab","stateId":3475,"stateCode":"CAM","stateName":"Campeche","countryId":142,"countryCode":"MX","countryName":"Mexico","latitude":"18.94139000","longitude":"-90.72194000","wikiDataId":"Q20247502"},{"id":76151,"name":"Xmabén","stateId":3475,"stateCode":"CAM","stateName":"Campeche","countryId":142,"countryCode":"MX","countryName":"Mexico","latitude":"19.23530000","longitude":"-89.31426000","wikiDataId":"Q1997999"},{"id":76204,"name":"Xpujil","stateId":3475,"stateCode":"CAM","stateName":"Campeche","countryId":142,"countryCode":"MX","countryName":"Mexico","latitude":"18.50760000","longitude":"-89.39437000","wikiDataId":"Q950717"},{"id":76358,"name":"Zoh-Laguna","stateId":3475,"stateCode":"CAM","stateName":"Campeche","countryId":142,"countryCode":"MX","countryName":"Mexico","latitude":"18.59306000","longitude":"-89.41714000","wikiDataId":"Q20263418"}]