[{"id":89925,"name":"Alexandria","stateId":4728,"stateCode":"TR","stateName":"Teleorman County","countryId":181,"countryCode":"RO","countryName":"Romania","latitude":"43.98333000","longitude":"25.33333000","wikiDataId":"Q16898573"},{"id":90473,"name":"Băbăiţa","stateId":4728,"stateCode":"TR","stateName":"Teleorman County","countryId":181,"countryCode":"RO","countryName":"Romania","latitude":"44.16667000","longitude":"25.38333000","wikiDataId":"Q2719977"},{"id":90478,"name":"Băcălești","stateId":4728,"stateCode":"TR","stateName":"Teleorman County","countryId":181,"countryCode":"RO","countryName":"Romania","latitude":"44.05997000","longitude":"24.81636000","wikiDataId":"Q12081691"},{"id":90023,"name":"Baciu","stateId":4728,"stateCode":"TR","stateName":"Teleorman County","countryId":181,"countryCode":"RO","countryName":"Romania","latitude":"44.33152000","longitude":"25.44429000","wikiDataId":"Q12081356"},{"id":90485,"name":"Băduleasa","stateId":4728,"stateCode":"TR","stateName":"Teleorman County","countryId":181,"countryCode":"RO","countryName":"Romania","latitude":"43.92286000","longitude":"24.98274000","wikiDataId":"Q12081482"},{"id":90037,"name":"Balaci","stateId":4728,"stateCode":"TR","stateName":"Teleorman County","countryId":181,"countryCode":"RO","countryName":"Romania","latitude":"44.35000000","longitude":"24.91667000","wikiDataId":"Q784679"},{"id":90529,"name":"Băneasa","stateId":4728,"stateCode":"TR","stateName":"Teleorman County","countryId":181,"countryCode":"RO","countryName":"Romania","latitude":"43.93975000","longitude":"24.94997000","wikiDataId":"Q278686"},{"id":90466,"name":"Bâscoveni","stateId":4728,"stateCode":"TR","stateName":"Teleorman County","countryId":181,"countryCode":"RO","countryName":"Romania","latitude":"44.24444000","longitude":"25.35998000","wikiDataId":"Q12082666"},{"id":90078,"name":"Beciu","stateId":4728,"stateCode":"TR","stateName":"Teleorman County","countryId":181,"countryCode":"RO","countryName":"Romania","latitude":"44.00429000","longitude":"24.66571000","wikiDataId":"Q2549966"},{"id":90082,"name":"Beiu","stateId":4728,"stateCode":"TR","stateName":"Teleorman County","countryId":181,"countryCode":"RO","countryName":"Romania","latitude":"43.87352000","longitude":"25.45548000","wikiDataId":"Q12082511"},{"id":90121,"name":"Beuca","stateId":4728,"stateCode":"TR","stateName":"Teleorman County","countryId":181,"countryCode":"RO","countryName":"Romania","latitude":"44.25200000","longitude":"24.96637000","wikiDataId":"Q2549913"},{"id":90157,"name":"Blejeşti","stateId":4728,"stateCode":"TR","stateName":"Teleorman County","countryId":181,"countryCode":"RO","countryName":"Romania","latitude":"44.30000000","longitude":"25.46667000","wikiDataId":"Q2720621"},{"id":90189,"name":"Bogdana","stateId":4728,"stateCode":"TR","stateName":"Teleorman County","countryId":181,"countryCode":"RO","countryName":"Romania","latitude":"43.93333000","longitude":"25.08333000","wikiDataId":"Q950842"},{"id":90246,"name":"Botoroaga","stateId":4728,"stateCode":"TR","stateName":"Teleorman County","countryId":181,"countryCode":"RO","countryName":"Romania","latitude":"44.14833000","longitude":"25.54472000","wikiDataId":"Q2720643"},{"id":90263,"name":"Bragadiru","stateId":4728,"stateCode":"TR","stateName":"Teleorman County","countryId":181,"countryCode":"RO","countryName":"Romania","latitude":"43.76667000","longitude":"25.51667000","wikiDataId":"Q945389"},{"id":90318,"name":"Brânceni","stateId":4728,"stateCode":"TR","stateName":"Teleorman County","countryId":181,"countryCode":"RO","countryName":"Romania","latitude":"43.88333000","longitude":"25.40000000","wikiDataId":"Q2549789"},{"id":90319,"name":"Brâncoveanca","stateId":4728,"stateCode":"TR","stateName":"Teleorman County","countryId":181,"countryCode":"RO","countryName":"Romania","latitude":"43.94075000","longitude":"24.69336000","wikiDataId":"Q12084898"},{"id":90398,"name":"Bujoreni","stateId":4728,"stateCode":"TR","stateName":"Teleorman County","countryId":181,"countryCode":"RO","countryName":"Romania","latitude":"44.11667000","longitude":"25.63333000","wikiDataId":"Q2720408"},{"id":90400,"name":"Bujoru","stateId":4728,"stateCode":"TR","stateName":"Teleorman County","countryId":181,"countryCode":"RO","countryName":"Romania","latitude":"43.71667000","longitude":"25.56667000","wikiDataId":"Q2720577"},{"id":90431,"name":"Buzescu","stateId":4728,"stateCode":"TR","stateName":"Teleorman County","countryId":181,"countryCode":"RO","countryName":"Romania","latitude":"44.01667000","longitude":"25.23333000","wikiDataId":"Q2720421"},{"id":93837,"name":"Călineşti","stateId":4728,"stateCode":"TR","stateName":"Teleorman County","countryId":181,"countryCode":"RO","countryName":"Romania","latitude":"44.08333000","longitude":"25.23333000","wikiDataId":"Q2720402"},{"id":93843,"name":"Călmăţuiu","stateId":4728,"stateCode":"TR","stateName":"Teleorman County","countryId":181,"countryCode":"RO","countryName":"Romania","latitude":"43.96667000","longitude":"24.86667000","wikiDataId":"Q2549825"},{"id":93844,"name":"Călmățuiu de Sus","stateId":4728,"stateCode":"TR","stateName":"Teleorman County","countryId":181,"countryCode":"RO","countryName":"Romania","latitude":"44.02632000","longitude":"24.81230000","wikiDataId":"Q2549942"},{"id":90564,"name":"Calomfirești","stateId":4728,"stateCode":"TR","stateName":"Teleorman County","countryId":181,"countryCode":"RO","countryName":"Romania","latitude":"43.91736000","longitude":"25.35801000","wikiDataId":"Q12107842"},{"id":90632,"name":"Cernetu","stateId":4728,"stateCode":"TR","stateName":"Teleorman County","countryId":181,"countryCode":"RO","countryName":"Romania","latitude":"43.90727000","longitude":"25.45688000","wikiDataId":"Q12169893"},{"id":90643,"name":"Cervenia","stateId":4728,"stateCode":"TR","stateName":"Teleorman County","countryId":181,"countryCode":"RO","countryName":"Romania","latitude":"43.83333000","longitude":"25.46667000","wikiDataId":"Q2720117"},{"id":90738,"name":"Ciuani","stateId":4728,"stateCode":"TR","stateName":"Teleorman County","countryId":181,"countryCode":"RO","countryName":"Romania","latitude":"44.23333000","longitude":"25.65000000","wikiDataId":"Q34795501"},{"id":90754,"name":"Ciuperceni","stateId":4728,"stateCode":"TR","stateName":"Teleorman County","countryId":181,"countryCode":"RO","countryName":"Romania","latitude":"43.76667000","longitude":"24.95000000","wikiDataId":"Q2720733"},{"id":91202,"name":"Comuna Băbăiţa","stateId":4728,"stateCode":"TR","stateName":"Teleorman County","countryId":181,"countryCode":"RO","countryName":"Romania","latitude":"44.13909000","longitude":"25.39156000","wikiDataId":"Q12724605"},{"id":90921,"name":"Comuna Balaci","stateId":4728,"stateCode":"TR","stateName":"Teleorman County","countryId":181,"countryCode":"RO","countryName":"Romania","latitude":"44.35188000","longitude":"24.90962000","wikiDataId":"Q12724522"},{"id":90946,"name":"Comuna Beciu","stateId":4728,"stateCode":"TR","stateName":"Teleorman County","countryId":181,"countryCode":"RO","countryName":"Romania","latitude":"44.01272000","longitude":"24.66163000","wikiDataId":"Q12724529"},{"id":90979,"name":"Comuna Beuca","stateId":4728,"stateCode":"TR","stateName":"Teleorman County","countryId":181,"countryCode":"RO","countryName":"Romania","latitude":"44.26595000","longitude":"24.97928000","wikiDataId":"Q12724542"},{"id":91002,"name":"Comuna Blejeşti","stateId":4728,"stateCode":"TR","stateName":"Teleorman County","countryId":181,"countryCode":"RO","countryName":"Romania","latitude":"44.30317000","longitude":"25.45269000","wikiDataId":"Q12724546"},{"id":91024,"name":"Comuna Bogdana","stateId":4728,"stateCode":"TR","stateName":"Teleorman County","countryId":181,"countryCode":"RO","countryName":"Romania","latitude":"43.92860000","longitude":"25.08358000","wikiDataId":"Q16427596"},{"id":91063,"name":"Comuna Botoroaga","stateId":4728,"stateCode":"TR","stateName":"Teleorman County","countryId":181,"countryCode":"RO","countryName":"Romania","latitude":"44.14997000","longitude":"25.55171000","wikiDataId":"Q12724566"},{"id":91074,"name":"Comuna Bragadiru","stateId":4728,"stateCode":"TR","stateName":"Teleorman County","countryId":181,"countryCode":"RO","countryName":"Romania","latitude":"43.76059000","longitude":"25.51984000","wikiDataId":"Q12724574"},{"id":91109,"name":"Comuna Brânceni","stateId":4728,"stateCode":"TR","stateName":"Teleorman County","countryId":181,"countryCode":"RO","countryName":"Romania","latitude":"43.87792000","longitude":"25.39711000","wikiDataId":"Q12724582"},{"id":91156,"name":"Comuna Bujoreni","stateId":4728,"stateCode":"TR","stateName":"Teleorman County","countryId":181,"countryCode":"RO","countryName":"Romania","latitude":"44.12054000","longitude":"25.65152000","wikiDataId":"Q13570070"},{"id":91157,"name":"Comuna Bujoru","stateId":4728,"stateCode":"TR","stateName":"Teleorman County","countryId":181,"countryCode":"RO","countryName":"Romania","latitude":"43.71092000","longitude":"25.56315000","wikiDataId":"Q16427600"},{"id":91179,"name":"Comuna Buzescu","stateId":4728,"stateCode":"TR","stateName":"Teleorman County","countryId":181,"countryCode":"RO","countryName":"Romania","latitude":"44.01081000","longitude":"25.22886000","wikiDataId":"Q16427603"},{"id":91573,"name":"Comuna Călineşti","stateId":4728,"stateCode":"TR","stateName":"Teleorman County","countryId":181,"countryCode":"RO","countryName":"Romania","latitude":"44.11002000","longitude":"25.21305000","wikiDataId":"Q12724705"},{"id":91560,"name":"Comuna Cãlmãţuiu","stateId":4728,"stateCode":"TR","stateName":"Teleorman County","countryId":181,"countryCode":"RO","countryName":"Romania","latitude":"43.96083000","longitude":"24.85612000","wikiDataId":"Q12724703"},{"id":91561,"name":"Comuna Cãlmãţuiu De Sus","stateId":4728,"stateCode":"TR","stateName":"Teleorman County","countryId":181,"countryCode":"RO","countryName":"Romania","latitude":"44.04404000","longitude":"24.81582000","wikiDataId":"Q12724706"},{"id":91300,"name":"Comuna Cervenia","stateId":4728,"stateCode":"TR","stateName":"Teleorman County","countryId":181,"countryCode":"RO","countryName":"Romania","latitude":"43.83585000","longitude":"25.46050000","wikiDataId":"Q12724629"},{"id":91351,"name":"Comuna Ciolăneşti","stateId":4728,"stateCode":"TR","stateName":"Teleorman County","countryId":181,"countryCode":"RO","countryName":"Romania","latitude":"44.31372000","longitude":"25.08333000","wikiDataId":"Q938620"},{"id":91373,"name":"Comuna Ciuperceni","stateId":4728,"stateCode":"TR","stateName":"Teleorman County","countryId":181,"countryCode":"RO","countryName":"Romania","latitude":"43.75115000","longitude":"24.94397000","wikiDataId":"Q16427610"},{"id":91415,"name":"Comuna Conţeşti","stateId":4728,"stateCode":"TR","stateName":"Teleorman County","countryId":181,"countryCode":"RO","countryName":"Romania","latitude":"43.79183000","longitude":"25.49530000","wikiDataId":"Q12724657"},{"id":91450,"name":"Comuna Cosmeşti","stateId":4728,"stateCode":"TR","stateName":"Teleorman County","countryId":181,"countryCode":"RO","countryName":"Romania","latitude":"44.30661000","longitude":"25.38602000","wikiDataId":"Q16427613"},{"id":91513,"name":"Comuna Crângeni","stateId":4728,"stateCode":"TR","stateName":"Teleorman County","countryId":181,"countryCode":"RO","countryName":"Romania","latitude":"44.01370000","longitude":"24.80845000","wikiDataId":"Q12724682"},{"id":91514,"name":"Comuna Crângu","stateId":4728,"stateCode":"TR","stateName":"Teleorman County","countryId":181,"countryCode":"RO","countryName":"Romania","latitude":"43.84490000","longitude":"25.08121000","wikiDataId":"Q12724684"},{"id":91491,"name":"Comuna Crevenicu","stateId":4728,"stateCode":"TR","stateName":"Teleorman County","countryId":181,"countryCode":"RO","countryName":"Romania","latitude":"44.24508000","longitude":"25.57385000","wikiDataId":"Q16427617"},{"id":91624,"name":"Comuna Dideşti","stateId":4728,"stateCode":"TR","stateName":"Teleorman County","countryId":181,"countryCode":"RO","countryName":"Romania","latitude":"44.22331000","longitude":"24.88878000","wikiDataId":"Q12724724"},{"id":91642,"name":"Comuna Dobroteşti","stateId":4728,"stateCode":"TR","stateName":"Teleorman County","countryId":181,"countryCode":"RO","countryName":"Romania","latitude":"44.26466000","longitude":"24.88097000","wikiDataId":"Q12724727"},{"id":91669,"name":"Comuna Dracea","stateId":4728,"stateCode":"TR","stateName":"Teleorman County","countryId":181,"countryCode":"RO","countryName":"Romania","latitude":"43.87177000","longitude":"25.03182000","wikiDataId":"Q16427621"},{"id":91682,"name":"Comuna Drãcşenei","stateId":4728,"stateCode":"TR","stateName":"Teleorman County","countryId":181,"countryCode":"RO","countryName":"Romania","latitude":"44.20715000","longitude":"25.00370000","wikiDataId":"Q16427624"},{"id":91702,"name":"Comuna Drăgăneşti de Vede","stateId":4728,"stateCode":"TR","stateName":"Teleorman County","countryId":181,"countryCode":"RO","countryName":"Romania","latitude":"44.13081000","longitude":"25.04870000","wikiDataId":"Q12724746"},{"id":91703,"name":"Comuna Drăgăneşti-Vlaşca","stateId":4728,"stateCode":"TR","stateName":"Teleorman County","countryId":181,"countryCode":"RO","countryName":"Romania","latitude":"44.09517000","longitude":"25.54848000","wikiDataId":"Q2604038"},{"id":91808,"name":"Comuna Fântânele","stateId":4728,"stateCode":"TR","stateName":"Teleorman County","countryId":181,"countryCode":"RO","countryName":"Romania","latitude":"43.72104000","longitude":"25.29265000","wikiDataId":"Q12724786"},{"id":91793,"name":"Comuna Frăsinet","stateId":4728,"stateCode":"TR","stateName":"Teleorman County","countryId":181,"countryCode":"RO","countryName":"Romania","latitude":"44.18808000","longitude":"25.37818000","wikiDataId":"Q12724777"},{"id":91783,"name":"Comuna Frumoasa","stateId":4728,"stateCode":"TR","stateName":"Teleorman County","countryId":181,"countryCode":"RO","countryName":"Romania","latitude":"43.80298000","longitude":"25.46311000","wikiDataId":"Q16427629"},{"id":91803,"name":"Comuna Furculeşti","stateId":4728,"stateCode":"TR","stateName":"Teleorman County","countryId":181,"countryCode":"RO","countryName":"Romania","latitude":"43.86572000","longitude":"25.13980000","wikiDataId":"Q12724784"},{"id":91984,"name":"Comuna Gălăţeni","stateId":4728,"stateCode":"TR","stateName":"Teleorman County","countryId":181,"countryCode":"RO","countryName":"Romania","latitude":"44.22491000","longitude":"25.36466000","wikiDataId":"Q12724840"},{"id":91911,"name":"Comuna Gratia","stateId":4728,"stateCode":"TR","stateName":"Teleorman County","countryId":181,"countryCode":"RO","countryName":"Romania","latitude":"44.43382000","longitude":"25.44103000","wikiDataId":"Q12724812"},{"id":92093,"name":"Comuna Islaz","stateId":4728,"stateCode":"TR","stateName":"Teleorman County","countryId":181,"countryCode":"RO","countryName":"Romania","latitude":"43.75179000","longitude":"24.74381000","wikiDataId":"Q12724880"},{"id":92106,"name":"Comuna Izvoarele","stateId":4728,"stateCode":"TR","stateName":"Teleorman County","countryId":181,"countryCode":"RO","countryName":"Romania","latitude":"43.82717000","longitude":"25.39459000","wikiDataId":"Q13710099"},{"id":92172,"name":"Comuna Lisa","stateId":4728,"stateCode":"TR","stateName":"Teleorman County","countryId":181,"countryCode":"RO","countryName":"Romania","latitude":"43.77230000","longitude":"25.14919000","wikiDataId":"Q12724902"},{"id":92180,"name":"Comuna Liţa","stateId":4728,"stateCode":"TR","stateName":"Teleorman County","countryId":181,"countryCode":"RO","countryName":"Romania","latitude":"43.79545000","longitude":"24.82157000","wikiDataId":"Q12724903"},{"id":92200,"name":"Comuna Lunca","stateId":4728,"stateCode":"TR","stateName":"Teleorman County","countryId":181,"countryCode":"RO","countryName":"Romania","latitude":"43.85788000","longitude":"24.78610000","wikiDataId":"Q12724911"},{"id":92390,"name":"Comuna Măgura","stateId":4728,"stateCode":"TR","stateName":"Teleorman County","countryId":181,"countryCode":"RO","countryName":"Romania","latitude":"44.04054000","longitude":"25.39590000","wikiDataId":"Q12724971"},{"id":92396,"name":"Comuna Măldăeni","stateId":4728,"stateCode":"TR","stateName":"Teleorman County","countryId":181,"countryCode":"RO","countryName":"Romania","latitude":"44.12658000","longitude":"24.92327000","wikiDataId":"Q16402795"},{"id":92372,"name":"Comuna Mârzãneşti","stateId":4728,"stateCode":"TR","stateName":"Teleorman County","countryId":181,"countryCode":"RO","countryName":"Romania","latitude":"43.93154000","longitude":"25.46230000","wikiDataId":"Q12724966"},{"id":92248,"name":"Comuna Mavrodin","stateId":4728,"stateCode":"TR","stateName":"Teleorman County","countryId":181,"countryCode":"RO","countryName":"Romania","latitude":"44.03559000","longitude":"25.24088000","wikiDataId":"Q12724927"},{"id":92257,"name":"Comuna Mereni","stateId":4728,"stateCode":"TR","stateName":"Teleorman County","countryId":181,"countryCode":"RO","countryName":"Romania","latitude":"44.22879000","longitude":"25.64434000","wikiDataId":"Q2721375"},{"id":92350,"name":"Comuna Moşteni","stateId":4728,"stateCode":"TR","stateName":"Teleorman County","countryId":181,"countryCode":"RO","countryName":"Romania","latitude":"44.19787000","longitude":"25.50854000","wikiDataId":"Q16427637"},{"id":92426,"name":"Comuna Nanov","stateId":4728,"stateCode":"TR","stateName":"Teleorman County","countryId":181,"countryCode":"RO","countryName":"Romania","latitude":"43.99171000","longitude":"25.28894000","wikiDataId":"Q5087650"},{"id":92466,"name":"Comuna Năsturelu","stateId":4728,"stateCode":"TR","stateName":"Teleorman County","countryId":181,"countryCode":"RO","countryName":"Romania","latitude":"43.66634000","longitude":"25.43856000","wikiDataId":"Q12724994"},{"id":92427,"name":"Comuna Necşeşti","stateId":4728,"stateCode":"TR","stateName":"Teleorman County","countryId":181,"countryCode":"RO","countryName":"Romania","latitude":"44.26085000","longitude":"25.13225000","wikiDataId":"Q16427641"},{"id":92437,"name":"Comuna Nenciuleşti","stateId":4728,"stateCode":"TR","stateName":"Teleorman County","countryId":181,"countryCode":"RO","countryName":"Romania","latitude":"44.03860000","longitude":"25.18551000","wikiDataId":"Q12724990"},{"id":92497,"name":"Comuna Olteni","stateId":4728,"stateCode":"TR","stateName":"Teleorman County","countryId":181,"countryCode":"RO","countryName":"Romania","latitude":"44.18976000","longitude":"25.27800000","wikiDataId":"Q12725004"},{"id":92506,"name":"Comuna Orbeasca","stateId":4728,"stateCode":"TR","stateName":"Teleorman County","countryId":181,"countryCode":"RO","countryName":"Romania","latitude":"44.11606000","longitude":"25.32708000","wikiDataId":"Q2721317"},{"id":92547,"name":"Comuna Peretu","stateId":4728,"stateCode":"TR","stateName":"Teleorman County","countryId":181,"countryCode":"RO","countryName":"Romania","latitude":"44.04372000","longitude":"25.09285000","wikiDataId":"Q12725026"},{"id":92573,"name":"Comuna Piatra","stateId":4728,"stateCode":"TR","stateName":"Teleorman County","countryId":181,"countryCode":"RO","countryName":"Romania","latitude":"43.81058000","longitude":"25.16777000","wikiDataId":"Q16427646"},{"id":92581,"name":"Comuna Pietroşani","stateId":4728,"stateCode":"TR","stateName":"Teleorman County","countryId":181,"countryCode":"RO","countryName":"Romania","latitude":"43.71364000","longitude":"25.63998000","wikiDataId":"Q16427649"},{"id":92597,"name":"Comuna Plopii Slăviţeşti","stateId":4728,"stateCode":"TR","stateName":"Teleorman County","countryId":181,"countryCode":"RO","countryName":"Romania","latitude":"43.96098000","longitude":"24.68525000","wikiDataId":"Q12725040"},{"id":92601,"name":"Comuna Plosca","stateId":4728,"stateCode":"TR","stateName":"Teleorman County","countryId":181,"countryCode":"RO","countryName":"Romania","latitude":"44.02338000","longitude":"25.14920000","wikiDataId":"Q16427654"},{"id":92618,"name":"Comuna Poeni","stateId":4728,"stateCode":"TR","stateName":"Teleorman County","countryId":181,"countryCode":"RO","countryName":"Romania","latitude":"44.43297000","longitude":"25.33868000","wikiDataId":"Q12725044"},{"id":92660,"name":"Comuna Poroschia","stateId":4728,"stateCode":"TR","stateName":"Teleorman County","countryId":181,"countryCode":"RO","countryName":"Romania","latitude":"43.92887000","longitude":"25.35760000","wikiDataId":"Q16427657"},{"id":92698,"name":"Comuna Purani","stateId":4728,"stateCode":"TR","stateName":"Teleorman County","countryId":181,"countryCode":"RO","countryName":"Romania","latitude":"44.36509000","longitude":"25.41322000","wikiDataId":"Q16427660"},{"id":92699,"name":"Comuna Putineiu","stateId":4728,"stateCode":"TR","stateName":"Teleorman County","countryId":181,"countryCode":"RO","countryName":"Romania","latitude":"43.91429000","longitude":"24.96969000","wikiDataId":"Q16427663"},{"id":92830,"name":"Comuna Rãdoieşti","stateId":4728,"stateCode":"TR","stateName":"Teleorman County","countryId":181,"countryCode":"RO","countryName":"Romania","latitude":"44.14377000","longitude":"25.15357000","wikiDataId":"Q960982"},{"id":92848,"name":"Comuna Răsmireşti","stateId":4728,"stateCode":"TR","stateName":"Teleorman County","countryId":181,"countryCode":"RO","countryName":"Romania","latitude":"43.99981000","longitude":"25.57118000","wikiDataId":"Q16427667"},{"id":93084,"name":"Comuna Săceni","stateId":4728,"stateCode":"TR","stateName":"Teleorman County","countryId":181,"countryCode":"RO","countryName":"Romania","latitude":"44.23310000","longitude":"25.06073000","wikiDataId":"Q16427671"},{"id":92861,"name":"Comuna Saelele","stateId":4728,"stateCode":"TR","stateName":"Teleorman County","countryId":181,"countryCode":"RO","countryName":"Romania","latitude":"43.85274000","longitude":"24.73838000","wikiDataId":"Q12725115"},{"id":92864,"name":"Comuna Salcia","stateId":4728,"stateCode":"TR","stateName":"Teleorman County","countryId":181,"countryCode":"RO","countryName":"Romania","latitude":"43.94157000","longitude":"24.92663000","wikiDataId":"Q12725117"},{"id":93071,"name":"Comuna Sârbeni","stateId":4728,"stateCode":"TR","stateName":"Teleorman County","countryId":181,"countryCode":"RO","countryName":"Romania","latitude":"44.46667000","longitude":"25.38333000","wikiDataId":"Q12725180"},{"id":92897,"name":"Comuna Scrioaştea","stateId":4728,"stateCode":"TR","stateName":"Teleorman County","countryId":181,"countryCode":"RO","countryName":"Romania","latitude":"44.16453000","longitude":"24.95299000","wikiDataId":"Q16427674"},{"id":92899,"name":"Comuna Scurtu Mare","stateId":4728,"stateCode":"TR","stateName":"Teleorman County","countryId":181,"countryCode":"RO","countryName":"Romania","latitude":"44.35259000","longitude":"25.25895000","wikiDataId":"Q12725128"},{"id":92908,"name":"Comuna Seaca","stateId":4728,"stateCode":"TR","stateName":"Teleorman County","countryId":181,"countryCode":"RO","countryName":"Romania","latitude":"43.74933000","longitude":"25.07423000","wikiDataId":"Q12725129"},{"id":92918,"name":"Comuna Segarcea Vale","stateId":4728,"stateCode":"TR","stateName":"Teleorman County","countryId":181,"countryCode":"RO","countryName":"Romania","latitude":"43.82417000","longitude":"24.81422000","wikiDataId":"Q16427677"},{"id":92922,"name":"Comuna Sfinţeşti","stateId":4728,"stateCode":"TR","stateName":"Teleorman County","countryId":181,"countryCode":"RO","countryName":"Romania","latitude":"44.18824000","longitude":"25.10389000","wikiDataId":"Q16427680"},{"id":92930,"name":"Comuna Siliştea","stateId":4728,"stateCode":"TR","stateName":"Teleorman County","countryId":181,"countryCode":"RO","countryName":"Romania","latitude":"44.37398000","longitude":"25.35104000","wikiDataId":"Q12725135"},{"id":92934,"name":"Comuna Siliștea Gumești","stateId":4728,"stateCode":"TR","stateName":"Teleorman County","countryId":181,"countryCode":"RO","countryName":"Romania","latitude":"44.38028000","longitude":"25.01389000","wikiDataId":"Q12725139"},{"id":92959,"name":"Comuna Slobozia-Mândra","stateId":4728,"stateCode":"TR","stateName":"Teleorman County","countryId":181,"countryCode":"RO","countryName":"Romania","latitude":"43.91576000","longitude":"24.69914000","wikiDataId":"Q16427685"},{"id":92966,"name":"Comuna Smârdioasa","stateId":4728,"stateCode":"TR","stateName":"Teleorman County","countryId":181,"countryCode":"RO","countryName":"Romania","latitude":"43.83939000","longitude":"25.44190000","wikiDataId":"Q16427688"},{"id":92989,"name":"Comuna Stejaru","stateId":4728,"stateCode":"TR","stateName":"Teleorman County","countryId":181,"countryCode":"RO","countryName":"Romania","latitude":"44.17715000","longitude":"24.88208000","wikiDataId":"Q12725147"},{"id":93000,"name":"Comuna Storobăneasa","stateId":4728,"stateCode":"TR","stateName":"Teleorman County","countryId":181,"countryCode":"RO","countryName":"Romania","latitude":"43.87974000","longitude":"25.45622000","wikiDataId":"Q16427694"},{"id":93029,"name":"Comuna Suhaia","stateId":4728,"stateCode":"TR","stateName":"Teleorman County","countryId":181,"countryCode":"RO","countryName":"Romania","latitude":"43.73953000","longitude":"25.25291000","wikiDataId":"Q16427692"},{"id":93121,"name":"Comuna Talpa","stateId":4728,"stateCode":"TR","stateName":"Teleorman County","countryId":181,"countryCode":"RO","countryName":"Romania","latitude":"44.28070000","longitude":"25.30919000","wikiDataId":"Q2549903"},{"id":93248,"name":"Comuna Tătărăştii de Jos","stateId":4728,"stateCode":"TR","stateName":"Teleorman County","countryId":181,"countryCode":"RO","countryName":"Romania","latitude":"44.36960000","longitude":"25.19385000","wikiDataId":"Q12725230"},{"id":93249,"name":"Comuna Tătărăştii de Sus","stateId":4728,"stateCode":"TR","stateName":"Teleorman County","countryId":181,"countryCode":"RO","countryName":"Romania","latitude":"44.40857000","longitude":"25.13146000","wikiDataId":"Q12725231"},{"id":93575,"name":"Comuna Ţigăneşti","stateId":4728,"stateCode":"TR","stateName":"Teleorman County","countryId":181,"countryCode":"RO","countryName":"Romania","latitude":"43.90141000","longitude":"25.37804000","wikiDataId":"Q16427704"},{"id":93188,"name":"Comuna Traian","stateId":4728,"stateCode":"TR","stateName":"Teleorman County","countryId":181,"countryCode":"RO","countryName":"Romania","latitude":"43.76720000","longitude":"25.00494000","wikiDataId":"Q12725212"},{"id":93195,"name":"Comuna Trivalea-Moşteni","stateId":4728,"stateCode":"TR","stateName":"Teleorman County","countryId":181,"countryCode":"RO","countryName":"Romania","latitude":"44.26200000","longitude":"25.24082000","wikiDataId":"Q16427699"},{"id":93196,"name":"Comuna Troianul","stateId":4728,"stateCode":"TR","stateName":"Teleorman County","countryId":181,"countryCode":"RO","countryName":"Romania","latitude":"44.00415000","longitude":"25.02400000","wikiDataId":"Q12725218"},{"id":93253,"name":"Comuna Uda-Clocociov","stateId":4728,"stateCode":"TR","stateName":"Teleorman County","countryId":181,"countryCode":"RO","countryName":"Romania","latitude":"43.88385000","longitude":"24.71908000","wikiDataId":"Q12725233"},{"id":93445,"name":"Comuna Vârtoape","stateId":4728,"stateCode":"TR","stateName":"Teleorman County","countryId":181,"countryCode":"RO","countryName":"Romania","latitude":"44.19981000","longitude":"25.19797000","wikiDataId":"Q2721161"},{"id":93340,"name":"Comuna Vedea","stateId":4728,"stateCode":"TR","stateName":"Teleorman County","countryId":181,"countryCode":"RO","countryName":"Romania","latitude":"44.09436000","longitude":"25.07495000","wikiDataId":"Q12725253"},{"id":93359,"name":"Comuna Viişoara","stateId":4728,"stateCode":"TR","stateName":"Teleorman County","countryId":181,"countryCode":"RO","countryName":"Romania","latitude":"43.77985000","longitude":"25.17520000","wikiDataId":"Q16427707"},{"id":93371,"name":"Comuna Vităneşti","stateId":4728,"stateCode":"TR","stateName":"Teleorman County","countryId":181,"countryCode":"RO","countryName":"Romania","latitude":"43.99272000","longitude":"25.45246000","wikiDataId":"Q12725263"},{"id":93482,"name":"Comuna Zâmbreasca","stateId":4728,"stateCode":"TR","stateName":"Teleorman County","countryId":181,"countryCode":"RO","countryName":"Romania","latitude":"44.30350000","longitude":"24.99847000","wikiDataId":"Q12725282"},{"id":93596,"name":"Conţeşti","stateId":4728,"stateCode":"TR","stateName":"Teleorman County","countryId":181,"countryCode":"RO","countryName":"Romania","latitude":"43.80000000","longitude":"25.48333000","wikiDataId":"Q2720637"},{"id":93653,"name":"Cosmeşti","stateId":4728,"stateCode":"TR","stateName":"Teleorman County","countryId":181,"countryCode":"RO","countryName":"Romania","latitude":"44.30000000","longitude":"25.38333000","wikiDataId":"Q2720709"},{"id":93747,"name":"Crângeni","stateId":4728,"stateCode":"TR","stateName":"Teleorman County","countryId":181,"countryCode":"RO","countryName":"Romania","latitude":"44.03333000","longitude":"24.78333000","wikiDataId":"Q2720596"},{"id":93748,"name":"Crângu","stateId":4728,"stateCode":"TR","stateName":"Teleorman County","countryId":181,"countryCode":"RO","countryName":"Romania","latitude":"43.84611000","longitude":"25.07350000","wikiDataId":"Q2721085"},{"id":93712,"name":"Crevenicu","stateId":4728,"stateCode":"TR","stateName":"Teleorman County","countryId":181,"countryCode":"RO","countryName":"Romania","latitude":"44.24083000","longitude":"25.58861000","wikiDataId":"Q2721337"},{"id":93759,"name":"Cucueți","stateId":4728,"stateCode":"TR","stateName":"Teleorman County","countryId":181,"countryCode":"RO","countryName":"Romania","latitude":"44.18432000","longitude":"24.94826000","wikiDataId":"Q12115623"},{"id":93921,"name":"Deparați","stateId":4728,"stateCode":"TR","stateName":"Teleorman County","countryId":181,"countryCode":"RO","countryName":"Romania","latitude":"44.28116000","longitude":"25.22151000","wikiDataId":"Q12100172"},{"id":93935,"name":"Didești","stateId":4728,"stateCode":"TR","stateName":"Teleorman County","countryId":181,"countryCode":"RO","countryName":"Romania","latitude":"44.21667000","longitude":"24.88333000","wikiDataId":"Q2720617"},{"id":93950,"name":"Dobreni","stateId":4728,"stateCode":"TR","stateName":"Teleorman County","countryId":181,"countryCode":"RO","countryName":"Romania","latitude":"44.41667000","longitude":"25.11667000","wikiDataId":"Q12101469"},{"id":93965,"name":"Dobroteşti","stateId":4728,"stateCode":"TR","stateName":"Teleorman County","countryId":181,"countryCode":"RO","countryName":"Romania","latitude":"44.28333000","longitude":"24.88333000","wikiDataId":"Q2549496"},{"id":94009,"name":"Dracea","stateId":4728,"stateCode":"TR","stateName":"Teleorman County","countryId":181,"countryCode":"RO","countryName":"Romania","latitude":"43.84914000","longitude":"25.05194000","wikiDataId":"Q2549857"},{"id":94034,"name":"Drăcşani","stateId":4728,"stateCode":"TR","stateName":"Teleorman County","countryId":181,"countryCode":"RO","countryName":"Romania","latitude":"44.21667000","longitude":"24.98333000","wikiDataId":"Q12102408"},{"id":94035,"name":"Drăcșenei","stateId":4728,"stateCode":"TR","stateName":"Teleorman County","countryId":181,"countryCode":"RO","countryName":"Romania","latitude":"44.22676000","longitude":"24.98542000","wikiDataId":"Q2720592"},{"id":94060,"name":"Drăgăneşti de Vede","stateId":4728,"stateCode":"TR","stateName":"Teleorman County","countryId":181,"countryCode":"RO","countryName":"Romania","latitude":"44.13333000","longitude":"25.05000000","wikiDataId":"Q2721062"},{"id":94062,"name":"Drăgăneşti-Vlaşca","stateId":4728,"stateCode":"TR","stateName":"Teleorman County","countryId":181,"countryCode":"RO","countryName":"Romania","latitude":"44.10139000","longitude":"25.59806000","wikiDataId":"Q12102357"},{"id":94040,"name":"Drăghinești","stateId":4728,"stateCode":"TR","stateName":"Teleorman County","countryId":181,"countryCode":"RO","countryName":"Romania","latitude":"44.43093000","longitude":"25.42608000","wikiDataId":"Q12102392"},{"id":94072,"name":"Dudu","stateId":4728,"stateCode":"TR","stateName":"Teleorman County","countryId":181,"countryCode":"RO","countryName":"Romania","latitude":"43.97897000","longitude":"24.67786000","wikiDataId":"Q12102757"},{"id":94237,"name":"Fântânele","stateId":4728,"stateCode":"TR","stateName":"Teleorman County","countryId":181,"countryCode":"RO","countryName":"Romania","latitude":"43.72104000","longitude":"25.29265000","wikiDataId":"Q2549516"},{"id":94218,"name":"Frăsinet","stateId":4728,"stateCode":"TR","stateName":"Teleorman County","countryId":181,"countryCode":"RO","countryName":"Romania","latitude":"44.18038000","longitude":"25.38238000","wikiDataId":"Q2549505"},{"id":94207,"name":"Frumoasa","stateId":4728,"stateCode":"TR","stateName":"Teleorman County","countryId":181,"countryCode":"RO","countryName":"Romania","latitude":"43.80000000","longitude":"25.46667000","wikiDataId":"Q2720948"},{"id":94233,"name":"Furculești","stateId":4728,"stateCode":"TR","stateName":"Teleorman County","countryId":181,"countryCode":"RO","countryName":"Romania","latitude":"43.87202000","longitude":"25.14285000","wikiDataId":"Q2720630"},{"id":94507,"name":"Gălăţeni","stateId":4728,"stateCode":"TR","stateName":"Teleorman County","countryId":181,"countryCode":"RO","countryName":"Romania","latitude":"44.21667000","longitude":"25.35000000","wikiDataId":"Q2721354"},{"id":94512,"name":"Gărăgău","stateId":4728,"stateCode":"TR","stateName":"Teleorman County","countryId":181,"countryCode":"RO","countryName":"Romania","latitude":"44.23186000","longitude":"25.18920000","wikiDataId":"Q12095804"},{"id":94401,"name":"Gratia","stateId":4728,"stateCode":"TR","stateName":"Teleorman County","countryId":181,"countryCode":"RO","countryName":"Romania","latitude":"44.43333000","longitude":"25.45000000","wikiDataId":"Q514351"},{"id":94473,"name":"Guruieni","stateId":4728,"stateCode":"TR","stateName":"Teleorman County","countryId":181,"countryCode":"RO","countryName":"Romania","latitude":"44.05845000","longitude":"25.39656000","wikiDataId":"Q12098549"},{"id":94691,"name":"Islaz","stateId":4728,"stateCode":"TR","stateName":"Teleorman County","countryId":181,"countryCode":"RO","countryName":"Romania","latitude":"43.72006000","longitude":"24.76436000","wikiDataId":"Q285442"},{"id":94711,"name":"Izvoarele","stateId":4728,"stateCode":"TR","stateName":"Teleorman County","countryId":181,"countryCode":"RO","countryName":"Romania","latitude":"43.81667000","longitude":"25.38333000","wikiDataId":"Q2721090"},{"id":94888,"name":"Lăceni","stateId":4728,"stateCode":"TR","stateName":"Teleorman County","countryId":181,"countryCode":"RO","countryName":"Romania","latitude":"44.08466000","longitude":"25.33270000","wikiDataId":"Q12117806"},{"id":94808,"name":"Lisa","stateId":4728,"stateCode":"TR","stateName":"Teleorman County","countryId":181,"countryCode":"RO","countryName":"Romania","latitude":"43.80000000","longitude":"25.13333000","wikiDataId":"Q2721056"},{"id":94826,"name":"Liţa","stateId":4728,"stateCode":"TR","stateName":"Teleorman County","countryId":181,"countryCode":"RO","countryName":"Romania","latitude":"43.80000000","longitude":"24.81667000","wikiDataId":"Q2549875"},{"id":94860,"name":"Lunca","stateId":4728,"stateCode":"TR","stateName":"Teleorman County","countryId":181,"countryCode":"RO","countryName":"Romania","latitude":"43.83333000","longitude":"24.76667000","wikiDataId":"Q2720940"},{"id":95239,"name":"Măgura","stateId":4728,"stateCode":"TR","stateName":"Teleorman County","countryId":181,"countryCode":"RO","countryName":"Romania","latitude":"44.03333000","longitude":"25.40000000","wikiDataId":"Q2720649"},{"id":95251,"name":"Măldăeni","stateId":4728,"stateCode":"TR","stateName":"Teleorman County","countryId":181,"countryCode":"RO","countryName":"Romania","latitude":"44.11667000","longitude":"24.93333000","wikiDataId":"Q2720604"},{"id":95221,"name":"Mârzăneşti","stateId":4728,"stateCode":"TR","stateName":"Teleorman County","countryId":181,"countryCode":"RO","countryName":"Romania","latitude":"43.93333000","longitude":"25.46667000","wikiDataId":"Q2549798"},{"id":94937,"name":"Mavrodin","stateId":4728,"stateCode":"TR","stateName":"Teleorman County","countryId":181,"countryCode":"RO","countryName":"Romania","latitude":"44.03333000","longitude":"25.25000000","wikiDataId":"Q2720611"},{"id":94953,"name":"Merenii de Jos","stateId":4728,"stateCode":"TR","stateName":"Teleorman County","countryId":181,"countryCode":"RO","countryName":"Romania","latitude":"44.23214000","longitude":"25.64346000","wikiDataId":"Q12122708"},{"id":94954,"name":"Merenii de Sus","stateId":4728,"stateCode":"TR","stateName":"Teleorman County","countryId":181,"countryCode":"RO","countryName":"Romania","latitude":"44.22839000","longitude":"25.62103000","wikiDataId":"Q12122710"},{"id":94960,"name":"Merișani","stateId":4728,"stateCode":"TR","stateName":"Teleorman County","countryId":181,"countryCode":"RO","countryName":"Romania","latitude":"44.25190000","longitude":"24.87550000","wikiDataId":"Q12129935"},{"id":95065,"name":"Moldoveni","stateId":4728,"stateCode":"TR","stateName":"Teleorman County","countryId":181,"countryCode":"RO","countryName":"Romania","latitude":"43.77772000","longitude":"24.72802000","wikiDataId":"Q2540493"},{"id":95096,"name":"Moșteni","stateId":4728,"stateCode":"TR","stateName":"Teleorman County","countryId":181,"countryCode":"RO","countryName":"Romania","latitude":"44.19787000","longitude":"25.50854000","wikiDataId":"Q2721079"},{"id":95108,"name":"Municipiul Alexandria","stateId":4728,"stateCode":"TR","stateName":"Teleorman County","countryId":181,"countryCode":"RO","countryName":"Romania","latitude":"43.96967000","longitude":"25.33272000","wikiDataId":"Q209929"},{"id":95173,"name":"Municipiul Roșiorii de Vede","stateId":4728,"stateCode":"TR","stateName":"Teleorman County","countryId":181,"countryCode":"RO","countryName":"Romania","latitude":"44.11368000","longitude":"24.98722000","wikiDataId":"Q283104"},{"id":95190,"name":"Municipiul Turnu Magurele","stateId":4728,"stateCode":"TR","stateName":"Teleorman County","countryId":181,"countryCode":"RO","countryName":"Romania","latitude":"43.74646000","longitude":"24.86893000","wikiDataId":"Q570213"},{"id":95302,"name":"Nanov","stateId":4728,"stateCode":"TR","stateName":"Teleorman County","countryId":181,"countryCode":"RO","countryName":"Romania","latitude":"44.00000000","longitude":"25.30000000","wikiDataId":"Q2549817"},{"id":95375,"name":"Năsturelu","stateId":4728,"stateCode":"TR","stateName":"Teleorman County","countryId":181,"countryCode":"RO","countryName":"Romania","latitude":"43.66667000","longitude":"25.46667000","wikiDataId":"Q2721053"},{"id":95378,"name":"Năvodari","stateId":4728,"stateCode":"TR","stateName":"Teleorman County","countryId":181,"countryCode":"RO","countryName":"Romania","latitude":"43.74208000","longitude":"25.09410000","wikiDataId":"Q12133081"},{"id":95304,"name":"Necşeşti","stateId":4728,"stateCode":"TR","stateName":"Teleorman County","countryId":181,"countryCode":"RO","countryName":"Romania","latitude":"44.25000000","longitude":"25.15000000","wikiDataId":"Q2721072"},{"id":95327,"name":"Nenciulești","stateId":4728,"stateCode":"TR","stateName":"Teleorman County","countryId":181,"countryCode":"RO","countryName":"Romania","latitude":"44.03486000","longitude":"25.20061000","wikiDataId":"Q933609"},{"id":95429,"name":"Olteanca","stateId":4728,"stateCode":"TR","stateName":"Teleorman County","countryId":181,"countryCode":"RO","countryName":"Romania","latitude":"43.83047000","longitude":"24.79597000","wikiDataId":"Q12135779"},{"id":95432,"name":"Olteni","stateId":4728,"stateCode":"TR","stateName":"Teleorman County","countryId":181,"countryCode":"RO","countryName":"Romania","latitude":"44.18333000","longitude":"25.28333000","wikiDataId":"Q2721321"},{"id":95618,"name":"Oraş Videle","stateId":4728,"stateCode":"TR","stateName":"Teleorman County","countryId":181,"countryCode":"RO","countryName":"Romania","latitude":"44.27660000","longitude":"25.57844000","wikiDataId":"Q641218"},{"id":95623,"name":"Oraş Zimnicea","stateId":4728,"stateCode":"TR","stateName":"Teleorman County","countryId":181,"countryCode":"RO","countryName":"Romania","latitude":"43.65660000","longitude":"25.36603000","wikiDataId":"Q203929"},{"id":95653,"name":"Orbeasca de Jos","stateId":4728,"stateCode":"TR","stateName":"Teleorman County","countryId":181,"countryCode":"RO","countryName":"Romania","latitude":"44.12177000","longitude":"25.32952000","wikiDataId":"Q12136210"},{"id":95654,"name":"Orbeasca de Sus","stateId":4728,"stateCode":"TR","stateName":"Teleorman County","countryId":181,"countryCode":"RO","countryName":"Romania","latitude":"44.15000000","longitude":"25.31667000","wikiDataId":"Q12136211"},{"id":95727,"name":"Peretu","stateId":4728,"stateCode":"TR","stateName":"Teleorman County","countryId":181,"countryCode":"RO","countryName":"Romania","latitude":"44.05000000","longitude":"25.08333000","wikiDataId":"Q957788"},{"id":95734,"name":"Perii Broșteni","stateId":4728,"stateCode":"TR","stateName":"Teleorman County","countryId":181,"countryCode":"RO","countryName":"Romania","latitude":"44.20336000","longitude":"25.26377000","wikiDataId":"Q12140037"},{"id":95770,"name":"Piatra","stateId":4728,"stateCode":"TR","stateName":"Teleorman County","countryId":181,"countryCode":"RO","countryName":"Romania","latitude":"43.81667000","longitude":"25.16667000","wikiDataId":"Q2549953"},{"id":95789,"name":"Pietroşani","stateId":4728,"stateCode":"TR","stateName":"Teleorman County","countryId":181,"countryCode":"RO","countryName":"Romania","latitude":"43.71383000","longitude":"25.64409000","wikiDataId":"Q2721383"},{"id":95808,"name":"Pleașov","stateId":4728,"stateCode":"TR","stateName":"Teleorman County","countryId":181,"countryCode":"RO","countryName":"Romania","latitude":"43.84971000","longitude":"24.74886000","wikiDataId":"Q12141134"},{"id":95820,"name":"Plopii Slăviţeştí","stateId":4728,"stateCode":"TR","stateName":"Teleorman County","countryId":181,"countryCode":"RO","countryName":"Romania","latitude":"43.96667000","longitude":"24.68333000","wikiDataId":"Q2720032"},{"id":95827,"name":"Plosca","stateId":4728,"stateCode":"TR","stateName":"Teleorman County","countryId":181,"countryCode":"RO","countryName":"Romania","latitude":"44.03333000","longitude":"25.13333000","wikiDataId":"Q2721368"},{"id":95853,"name":"Poeni","stateId":4728,"stateCode":"TR","stateName":"Teleorman County","countryId":181,"countryCode":"RO","countryName":"Romania","latitude":"44.40000000","longitude":"25.33333000","wikiDataId":"Q2549893"},{"id":95860,"name":"Poiana","stateId":4728,"stateCode":"TR","stateName":"Teleorman County","countryId":181,"countryCode":"RO","countryName":"Romania","latitude":"43.74192000","longitude":"24.95244000","wikiDataId":"Q1094523"},{"id":95917,"name":"Poporogi","stateId":4728,"stateCode":"TR","stateName":"Teleorman County","countryId":181,"countryCode":"RO","countryName":"Romania","latitude":"44.36667000","longitude":"25.18333000","wikiDataId":"Q250997"},{"id":95921,"name":"Poroschia","stateId":4728,"stateCode":"TR","stateName":"Teleorman County","countryId":181,"countryCode":"RO","countryName":"Romania","latitude":"43.93333000","longitude":"25.36667000","wikiDataId":"Q2721363"},{"id":95965,"name":"Prundu","stateId":4728,"stateCode":"TR","stateName":"Teleorman County","countryId":181,"countryCode":"RO","countryName":"Romania","latitude":"43.82394000","longitude":"24.69196000","wikiDataId":"Q12145284"},{"id":95983,"name":"Purani","stateId":4728,"stateCode":"TR","stateName":"Teleorman County","countryId":181,"countryCode":"RO","countryName":"Romania","latitude":"43.97989000","longitude":"25.43656000","wikiDataId":"Q12145591"},{"id":95989,"name":"Putineiu","stateId":4728,"stateCode":"TR","stateName":"Teleorman County","countryId":181,"countryCode":"RO","countryName":"Romania","latitude":"43.90000000","longitude":"24.96667000","wikiDataId":"Q2721391"},{"id":96198,"name":"Rădoiești-Deal","stateId":4728,"stateCode":"TR","stateName":"Teleorman County","countryId":181,"countryCode":"RO","countryName":"Romania","latitude":"44.15000000","longitude":"25.13333000","wikiDataId":"Q12147315"},{"id":96207,"name":"Răsmireşti","stateId":4728,"stateCode":"TR","stateName":"Teleorman County","countryId":181,"countryCode":"RO","countryName":"Romania","latitude":"43.98333000","longitude":"25.55000000","wikiDataId":"Q2721395"},{"id":96141,"name":"Roșiorii de Vede","stateId":4728,"stateCode":"TR","stateName":"Teleorman County","countryId":181,"countryCode":"RO","countryName":"Romania","latitude":"44.11667000","longitude":"24.98333000","wikiDataId":"Q3785361"},{"id":105995,"name":"Săceni","stateId":4728,"stateCode":"TR","stateName":"Teleorman County","countryId":181,"countryCode":"RO","countryName":"Romania","latitude":"44.23333000","longitude":"25.06667000","wikiDataId":"Q2604543"},{"id":96227,"name":"Saelele","stateId":4728,"stateCode":"TR","stateName":"Teleorman County","countryId":181,"countryCode":"RO","countryName":"Romania","latitude":"43.85577000","longitude":"24.72789000","wikiDataId":"Q2549932"},{"id":96230,"name":"Salcia","stateId":4728,"stateCode":"TR","stateName":"Teleorman County","countryId":181,"countryCode":"RO","countryName":"Romania","latitude":"43.95000000","longitude":"24.91667000","wikiDataId":"Q2721345"},{"id":105983,"name":"Sârbeni","stateId":4728,"stateCode":"TR","stateName":"Teleorman County","countryId":181,"countryCode":"RO","countryName":"Romania","latitude":"44.46667000","longitude":"25.38333000","wikiDataId":"Q2721330"},{"id":96284,"name":"Scrioaştea","stateId":4728,"stateCode":"TR","stateName":"Teleorman County","countryId":181,"countryCode":"RO","countryName":"Romania","latitude":"44.15000000","longitude":"24.95000000","wikiDataId":"Q2721359"},{"id":96290,"name":"Scurtu Mare","stateId":4728,"stateCode":"TR","stateName":"Teleorman County","countryId":181,"countryCode":"RO","countryName":"Romania","latitude":"44.35000000","longitude":"25.26667000","wikiDataId":"Q2721499"},{"id":96299,"name":"Seaca","stateId":4728,"stateCode":"TR","stateName":"Teleorman County","countryId":181,"countryCode":"RO","countryName":"Romania","latitude":"43.75000000","longitude":"25.06667000","wikiDataId":"Q2721518"},{"id":96320,"name":"Segarcea Vale","stateId":4728,"stateCode":"TR","stateName":"Teleorman County","countryId":181,"countryCode":"RO","countryName":"Romania","latitude":"43.81667000","longitude":"24.80000000","wikiDataId":"Q2721510"},{"id":96321,"name":"Segarcea-Deal","stateId":4728,"stateCode":"TR","stateName":"Teleorman County","countryId":181,"countryCode":"RO","countryName":"Romania","latitude":"43.82548000","longitude":"24.84020000","wikiDataId":"Q12151462"},{"id":96327,"name":"Sfinţeşti","stateId":4728,"stateCode":"TR","stateName":"Teleorman County","countryId":181,"countryCode":"RO","countryName":"Romania","latitude":"44.18333000","longitude":"25.10000000","wikiDataId":"Q2721582"},{"id":96339,"name":"Siliştea","stateId":4728,"stateCode":"TR","stateName":"Teleorman County","countryId":181,"countryCode":"RO","countryName":"Romania","latitude":"44.38333000","longitude":"25.35000000","wikiDataId":"Q2721311"},{"id":96344,"name":"Siliștea Gumești","stateId":4728,"stateCode":"TR","stateName":"Teleorman County","countryId":181,"countryCode":"RO","countryName":"Romania","latitude":"44.38333000","longitude":"25.00000000","wikiDataId":"Q2721573"},{"id":96379,"name":"Slobozia-Mândra","stateId":4728,"stateCode":"TR","stateName":"Teleorman County","countryId":181,"countryCode":"RO","countryName":"Romania","latitude":"43.91667000","longitude":"24.70000000","wikiDataId":"Q2606757"},{"id":96392,"name":"Smârdioasa","stateId":4728,"stateCode":"TR","stateName":"Teleorman County","countryId":181,"countryCode":"RO","countryName":"Romania","latitude":"43.85000000","longitude":"25.43333000","wikiDataId":"Q2723948"},{"id":96394,"name":"Socetu","stateId":4728,"stateCode":"TR","stateName":"Teleorman County","countryId":181,"countryCode":"RO","countryName":"Romania","latitude":"44.19502000","longitude":"24.85421000","wikiDataId":"Q12154855"},{"id":96420,"name":"Spătărei","stateId":4728,"stateCode":"TR","stateName":"Teleorman County","countryId":181,"countryCode":"RO","countryName":"Romania","latitude":"43.88848000","longitude":"25.13650000","wikiDataId":"Q12155013"},{"id":96428,"name":"Stejaru","stateId":4728,"stateCode":"TR","stateName":"Teleorman County","countryId":181,"countryCode":"RO","countryName":"Romania","latitude":"44.18333000","longitude":"24.88333000","wikiDataId":"Q967348"},{"id":96446,"name":"Storobăneasa","stateId":4728,"stateCode":"TR","stateName":"Teleorman County","countryId":181,"countryCode":"RO","countryName":"Romania","latitude":"43.88333000","longitude":"25.45000000","wikiDataId":"Q2721565"},{"id":96495,"name":"Suhaia","stateId":4728,"stateCode":"TR","stateName":"Teleorman County","countryId":181,"countryCode":"RO","countryName":"Romania","latitude":"43.73333000","longitude":"25.25000000","wikiDataId":"Q2721048"},{"id":106052,"name":"Talpa-Ogrăzile","stateId":4728,"stateCode":"TR","stateName":"Teleorman County","countryId":181,"countryCode":"RO","countryName":"Romania","latitude":"44.28726000","longitude":"25.29328000","wikiDataId":"Q12159826"},{"id":106053,"name":"Talpa-Trivalea","stateId":4728,"stateCode":"TR","stateName":"Teleorman County","countryId":181,"countryCode":"RO","countryName":"Romania","latitude":"44.28333000","longitude":"25.28333000","wikiDataId":"Q12159826"},{"id":96594,"name":"Târnava","stateId":4728,"stateCode":"TR","stateName":"Teleorman County","countryId":181,"countryCode":"RO","countryName":"Romania","latitude":"44.14440000","longitude":"25.56347000","wikiDataId":"Q12161336"},{"id":96623,"name":"Tătărăștii de Jos","stateId":4728,"stateCode":"TR","stateName":"Teleorman County","countryId":181,"countryCode":"RO","countryName":"Romania","latitude":"44.37501000","longitude":"25.17721000","wikiDataId":"Q938018"},{"id":96624,"name":"Tătărăștii de Sus","stateId":4728,"stateCode":"TR","stateName":"Teleorman County","countryId":181,"countryCode":"RO","countryName":"Romania","latitude":"44.40768000","longitude":"25.12192000","wikiDataId":"Q2723935"},{"id":106070,"name":"Tecuci","stateId":4728,"stateCode":"TR","stateName":"Teleorman County","countryId":181,"countryCode":"RO","countryName":"Romania","latitude":"44.34179000","longitude":"24.85966000","wikiDataId":"Q12160342"},{"id":106079,"name":"Teleormanu","stateId":4728,"stateCode":"TR","stateName":"Teleorman County","countryId":181,"countryCode":"RO","countryName":"Romania","latitude":"43.96271000","longitude":"25.45876000","wikiDataId":"Q12160376"},{"id":97107,"name":"Ţigăneşti","stateId":4728,"stateCode":"TR","stateName":"Teleorman County","countryId":181,"countryCode":"RO","countryName":"Romania","latitude":"43.90000000","longitude":"25.36667000","wikiDataId":"Q2549959"},{"id":106148,"name":"Traian","stateId":4728,"stateCode":"TR","stateName":"Teleorman County","countryId":181,"countryCode":"RO","countryName":"Romania","latitude":"43.76667000","longitude":"25.00000000","wikiDataId":"Q2721556"},{"id":106160,"name":"Trivalea-Moşteni","stateId":4728,"stateCode":"TR","stateName":"Teleorman County","countryId":181,"countryCode":"RO","countryName":"Romania","latitude":"44.26667000","longitude":"25.23333000","wikiDataId":"Q2721524"},{"id":106161,"name":"Troianul","stateId":4728,"stateCode":"TR","stateName":"Teleorman County","countryId":181,"countryCode":"RO","countryName":"Romania","latitude":"44.00000000","longitude":"25.00000000","wikiDataId":"Q2721535"},{"id":106167,"name":"Tudor Vladimirescu","stateId":4728,"stateCode":"TR","stateName":"Teleorman County","countryId":181,"countryCode":"RO","countryName":"Romania","latitude":"43.94761000","longitude":"24.90616000","wikiDataId":"Q12162758"},{"id":96565,"name":"Turnu Măgurele","stateId":4728,"stateCode":"TR","stateName":"Teleorman County","countryId":181,"countryCode":"RO","countryName":"Romania","latitude":"43.74690000","longitude":"24.86846000","wikiDataId":"Q831720"},{"id":96636,"name":"Uda-Clocociov","stateId":4728,"stateCode":"TR","stateName":"Teleorman County","countryId":181,"countryCode":"RO","countryName":"Romania","latitude":"43.88791000","longitude":"24.71437000","wikiDataId":"Q2549918"},{"id":96637,"name":"Uda-Paciurea","stateId":4728,"stateCode":"TR","stateName":"Teleorman County","countryId":181,"countryCode":"RO","countryName":"Romania","latitude":"43.87979000","longitude":"24.72379000","wikiDataId":"Q12163452"},{"id":96639,"name":"Udupu","stateId":4728,"stateCode":"TR","stateName":"Teleorman County","countryId":181,"countryCode":"RO","countryName":"Romania","latitude":"44.39657000","longitude":"25.14488000","wikiDataId":"Q12163521"},{"id":96716,"name":"Valea Cireșului","stateId":4728,"stateCode":"TR","stateName":"Teleorman County","countryId":181,"countryCode":"RO","countryName":"Romania","latitude":"44.16699000","longitude":"25.56437000","wikiDataId":"Q12087659"},{"id":96746,"name":"Valea Părului","stateId":4728,"stateCode":"TR","stateName":"Teleorman County","countryId":181,"countryCode":"RO","countryName":"Romania","latitude":"43.91727000","longitude":"25.46589000","wikiDataId":"Q12087563"},{"id":96945,"name":"Vârtoapele de Jos","stateId":4728,"stateCode":"TR","stateName":"Teleorman County","countryId":181,"countryCode":"RO","countryName":"Romania","latitude":"44.18333000","longitude":"25.20000000","wikiDataId":"Q12089530"},{"id":96946,"name":"Vârtoapele de Sus","stateId":4728,"stateCode":"TR","stateName":"Teleorman County","countryId":181,"countryCode":"RO","countryName":"Romania","latitude":"44.19182000","longitude":"25.20025000","wikiDataId":"Q12089532"},{"id":96781,"name":"Vedea","stateId":4728,"stateCode":"TR","stateName":"Teleorman County","countryId":181,"countryCode":"RO","countryName":"Romania","latitude":"44.08333000","longitude":"25.06667000","wikiDataId":"Q2721199"},{"id":96807,"name":"Videle","stateId":4728,"stateCode":"TR","stateName":"Teleorman County","countryId":181,"countryCode":"RO","countryName":"Romania","latitude":"44.27806000","longitude":"25.52444000","wikiDataId":"Q2536119"},{"id":96822,"name":"Viişoara","stateId":4728,"stateCode":"TR","stateName":"Teleorman County","countryId":181,"countryCode":"RO","countryName":"Romania","latitude":"43.78333000","longitude":"25.16667000","wikiDataId":"Q2721545"},{"id":96841,"name":"Vităneşti","stateId":4728,"stateCode":"TR","stateName":"Teleorman County","countryId":181,"countryCode":"RO","countryName":"Romania","latitude":"44.00000000","longitude":"25.41667000","wikiDataId":"Q2723941"},{"id":97007,"name":"Zâmbreasca","stateId":4728,"stateCode":"TR","stateName":"Teleorman County","countryId":181,"countryCode":"RO","countryName":"Romania","latitude":"44.31667000","longitude":"24.98333000","wikiDataId":"Q2545403"},{"id":96995,"name":"Zimnicea","stateId":4728,"stateCode":"TR","stateName":"Teleorman County","countryId":181,"countryCode":"RO","countryName":"Romania","latitude":"43.65638000","longitude":"25.36454000","wikiDataId":"Q1088010"},{"id":96996,"name":"Zimnicele","stateId":4728,"stateCode":"TR","stateName":"Teleorman County","countryId":181,"countryCode":"RO","countryName":"Romania","latitude":"43.66126000","longitude":"25.41291000","wikiDataId":"Q12107281"}]