[{"id":52399,"name":"Acharnés","stateId":2122,"stateCode":"I","stateName":"Attica Region","countryId":85,"countryCode":"GR","countryName":"Greece","latitude":"38.08333000","longitude":"23.73333000","wikiDataId":"Q4670000"},{"id":52402,"name":"Aegina","stateId":2122,"stateCode":"I","stateName":"Attica Region","countryId":85,"countryCode":"GR","countryName":"Greece","latitude":"37.74667000","longitude":"23.42750000","wikiDataId":"Q3720429"},{"id":52403,"name":"Afidnés","stateId":2122,"stateCode":"I","stateName":"Attica Region","countryId":85,"countryCode":"GR","countryName":"Greece","latitude":"38.20332000","longitude":"23.83982000","wikiDataId":"Q2282673"},{"id":52406,"name":"Aghios Panteleímon","stateId":2122,"stateCode":"I","stateName":"Attica Region","countryId":85,"countryCode":"GR","countryName":"Greece","latitude":"38.11643000","longitude":"23.98182000","wikiDataId":"Q12181479"},{"id":52420,"name":"Agía Marína","stateId":2122,"stateCode":"I","stateName":"Attica Region","countryId":85,"countryCode":"GR","countryName":"Greece","latitude":"37.82036000","longitude":"23.84424000","wikiDataId":"Q1246364"},{"id":52421,"name":"Agía Paraskeví","stateId":2122,"stateCode":"I","stateName":"Attica Region","countryId":85,"countryCode":"GR","countryName":"Greece","latitude":"38.01667000","longitude":"23.83333000","wikiDataId":"Q393594"},{"id":52426,"name":"Agía Varvára","stateId":2122,"stateCode":"I","stateName":"Attica Region","countryId":85,"countryCode":"GR","countryName":"Greece","latitude":"37.98938000","longitude":"23.66011000","wikiDataId":"Q1996519"},{"id":53370,"name":"Ágioi Anárgyroi","stateId":2122,"stateCode":"I","stateName":"Attica Region","countryId":85,"countryCode":"GR","countryName":"Greece","latitude":"38.03013000","longitude":"23.72379000","wikiDataId":"Q393693"},{"id":52407,"name":"Agios Dimitrios","stateId":2122,"stateCode":"I","stateName":"Attica Region","countryId":85,"countryCode":"GR","countryName":"Greece","latitude":"37.93333000","longitude":"23.73333000","wikiDataId":"Q204361"},{"id":52408,"name":"Agios Dimítrios Kropiás","stateId":2122,"stateCode":"I","stateName":"Attica Region","countryId":85,"countryCode":"GR","countryName":"Greece","latitude":"37.80612000","longitude":"23.85793000","wikiDataId":"Q12872132"},{"id":52410,"name":"Agios Ioannis Rentis","stateId":2122,"stateCode":"I","stateName":"Attica Region","countryId":85,"countryCode":"GR","countryName":"Greece","latitude":"37.96491000","longitude":"23.66511000","wikiDataId":"Q614441"},{"id":53385,"name":"Ágios Stéfanos","stateId":2122,"stateCode":"I","stateName":"Attica Region","countryId":85,"countryCode":"GR","countryName":"Greece","latitude":"38.14657000","longitude":"23.85608000","wikiDataId":"Q2698815"},{"id":52433,"name":"Aiánteio","stateId":2122,"stateCode":"I","stateName":"Attica Region","countryId":85,"countryCode":"GR","countryName":"Greece","latitude":"37.92135000","longitude":"23.45877000","wikiDataId":"Q3568012"},{"id":52430,"name":"Aigáleo","stateId":2122,"stateCode":"I","stateName":"Attica Region","countryId":85,"countryCode":"GR","countryName":"Greece","latitude":"37.98333000","longitude":"23.68333000","wikiDataId":"Q985455"},{"id":53387,"name":"Álimos","stateId":2122,"stateCode":"I","stateName":"Attica Region","countryId":85,"countryCode":"GR","countryName":"Greece","latitude":"37.91033000","longitude":"23.72361000","wikiDataId":"Q21597769"},{"id":52454,"name":"Ampelákia","stateId":2122,"stateCode":"I","stateName":"Attica Region","countryId":85,"countryCode":"GR","countryName":"Greece","latitude":"37.95055000","longitude":"23.52803000","wikiDataId":"Q2021739"},{"id":52478,"name":"Anávyssos","stateId":2122,"stateCode":"I","stateName":"Attica Region","countryId":85,"countryCode":"GR","countryName":"Greece","latitude":"37.73414000","longitude":"23.94389000","wikiDataId":"Q2532160"},{"id":53394,"name":"Áno Liósia","stateId":2122,"stateCode":"I","stateName":"Attica Region","countryId":85,"countryCode":"GR","countryName":"Greece","latitude":"38.08333000","longitude":"23.70000000","wikiDataId":"Q2088514"},{"id":52468,"name":"Anoixi","stateId":2122,"stateCode":"I","stateName":"Attica Region","countryId":85,"countryCode":"GR","countryName":"Greece","latitude":"38.13267000","longitude":"23.85874000","wikiDataId":"Q1135193"},{"id":52470,"name":"Anthoúsa","stateId":2122,"stateCode":"I","stateName":"Attica Region","countryId":85,"countryCode":"GR","countryName":"Greece","latitude":"38.02544000","longitude":"23.87617000","wikiDataId":"Q2277284"},{"id":52487,"name":"Argithéa","stateId":2122,"stateCode":"I","stateName":"Attica Region","countryId":85,"countryCode":"GR","countryName":"Greece","latitude":"37.97506000","longitude":"23.88556000","wikiDataId":"Q21623470"},{"id":52490,"name":"Argyroúpoli","stateId":2122,"stateCode":"I","stateName":"Attica Region","countryId":85,"countryCode":"GR","countryName":"Greece","latitude":"37.90594000","longitude":"23.75035000","wikiDataId":"Q15188471"},{"id":52500,"name":"Artémida","stateId":2122,"stateCode":"I","stateName":"Attica Region","countryId":85,"countryCode":"GR","countryName":"Greece","latitude":"37.96727000","longitude":"23.99684000","wikiDataId":"Q706587"},{"id":52508,"name":"Asprópyrgos","stateId":2122,"stateCode":"I","stateName":"Attica Region","countryId":85,"countryCode":"GR","countryName":"Greece","latitude":"38.06134000","longitude":"23.58971000","wikiDataId":"Q2087513"},{"id":52515,"name":"Athens","stateId":2122,"stateCode":"I","stateName":"Attica Region","countryId":85,"countryCode":"GR","countryName":"Greece","latitude":"37.98376000","longitude":"23.72784000","wikiDataId":"Q1524"},{"id":52518,"name":"Avlónas","stateId":2122,"stateCode":"I","stateName":"Attica Region","countryId":85,"countryCode":"GR","countryName":"Greece","latitude":"38.25149000","longitude":"23.69554000","wikiDataId":"Q389439"},{"id":53409,"name":"Áyioi Apóstoloi","stateId":2122,"stateCode":"I","stateName":"Attica Region","countryId":85,"countryCode":"GR","countryName":"Greece","latitude":"38.29169000","longitude":"23.91011000","wikiDataId":"Q12181500"},{"id":52532,"name":"Chaïdári","stateId":2122,"stateCode":"I","stateName":"Attica Region","countryId":85,"countryCode":"GR","countryName":"Greece","latitude":"38.01135000","longitude":"23.66597000","wikiDataId":"Q992397"},{"id":52534,"name":"Cholargós","stateId":2122,"stateCode":"I","stateName":"Attica Region","countryId":85,"countryCode":"GR","countryName":"Greece","latitude":"38.00000000","longitude":"23.80000000","wikiDataId":"Q1247513"},{"id":52549,"name":"Dhafní","stateId":2122,"stateCode":"I","stateName":"Attica Region","countryId":85,"countryCode":"GR","countryName":"Greece","latitude":"37.95002000","longitude":"23.73437000","wikiDataId":"Q2338667"},{"id":52552,"name":"Dhráfi","stateId":2122,"stateCode":"I","stateName":"Attica Region","countryId":85,"countryCode":"GR","countryName":"Greece","latitude":"38.02375000","longitude":"23.90788000","wikiDataId":"Q21540674"},{"id":52557,"name":"Dióni","stateId":2122,"stateCode":"I","stateName":"Attica Region","countryId":85,"countryCode":"GR","countryName":"Greece","latitude":"38.02328000","longitude":"23.93286000","wikiDataId":"Q1226082"},{"id":52558,"name":"Diónysos","stateId":2122,"stateCode":"I","stateName":"Attica Region","countryId":85,"countryCode":"GR","countryName":"Greece","latitude":"38.10458000","longitude":"23.87938000","wikiDataId":"Q10755817"},{"id":52561,"name":"Drapetsóna","stateId":2122,"stateCode":"I","stateName":"Attica Region","countryId":85,"countryCode":"GR","countryName":"Greece","latitude":"37.94988000","longitude":"23.62309000","wikiDataId":"Q2706330"},{"id":52563,"name":"Drosiá","stateId":2122,"stateCode":"I","stateName":"Attica Region","countryId":85,"countryCode":"GR","countryName":"Greece","latitude":"38.11977000","longitude":"23.86428000","wikiDataId":"Q1021665"},{"id":52575,"name":"Ekáli","stateId":2122,"stateCode":"I","stateName":"Attica Region","countryId":85,"countryCode":"GR","countryName":"Greece","latitude":"38.11035000","longitude":"23.83505000","wikiDataId":"Q683126"},{"id":52577,"name":"Elefsína","stateId":2122,"stateCode":"I","stateName":"Attica Region","countryId":85,"countryCode":"GR","countryName":"Greece","latitude":"38.04135000","longitude":"23.54295000","wikiDataId":"Q204905"},{"id":52581,"name":"Ellinikó","stateId":2122,"stateCode":"I","stateName":"Attica Region","countryId":85,"countryCode":"GR","countryName":"Greece","latitude":"37.89013000","longitude":"23.74406000","wikiDataId":"Q659728"},{"id":52591,"name":"Erythrés","stateId":2122,"stateCode":"I","stateName":"Attica Region","countryId":85,"countryCode":"GR","countryName":"Greece","latitude":"38.21741000","longitude":"23.32234000","wikiDataId":"Q2714769"},{"id":52604,"name":"Filothéi","stateId":2122,"stateCode":"I","stateName":"Attica Region","countryId":85,"countryCode":"GR","countryName":"Greece","latitude":"38.02524000","longitude":"23.78257000","wikiDataId":"Q579610"},{"id":52613,"name":"Fylí","stateId":2122,"stateCode":"I","stateName":"Attica Region","countryId":85,"countryCode":"GR","countryName":"Greece","latitude":"38.10235000","longitude":"23.66901000","wikiDataId":"Q4677068"},{"id":52624,"name":"Galatás","stateId":2122,"stateCode":"I","stateName":"Attica Region","countryId":85,"countryCode":"GR","countryName":"Greece","latitude":"37.49618000","longitude":"23.44886000","wikiDataId":"Q992384"},{"id":52627,"name":"Galátsi","stateId":2122,"stateCode":"I","stateName":"Attica Region","countryId":85,"countryCode":"GR","countryName":"Greece","latitude":"38.01667000","longitude":"23.75000000","wikiDataId":"Q955459"},{"id":52653,"name":"Gérakas","stateId":2122,"stateCode":"I","stateName":"Attica Region","countryId":85,"countryCode":"GR","countryName":"Greece","latitude":"38.02277000","longitude":"23.85760000","wikiDataId":"Q2472801"},{"id":52638,"name":"Glyfáda","stateId":2122,"stateCode":"I","stateName":"Attica Region","countryId":85,"countryCode":"GR","countryName":"Greece","latitude":"37.86289000","longitude":"23.75802000","wikiDataId":"Q922959"},{"id":52644,"name":"Grammatikó","stateId":2122,"stateCode":"I","stateName":"Attica Region","countryId":85,"countryCode":"GR","countryName":"Greece","latitude":"38.20251000","longitude":"23.96504000","wikiDataId":"Q2586549"},{"id":53421,"name":"Ílion","stateId":2122,"stateCode":"I","stateName":"Attica Region","countryId":85,"countryCode":"GR","countryName":"Greece","latitude":"38.03333000","longitude":"23.70000000","wikiDataId":"Q556471"},{"id":52662,"name":"Ilioúpoli","stateId":2122,"stateCode":"I","stateName":"Attica Region","countryId":85,"countryCode":"GR","countryName":"Greece","latitude":"37.93149000","longitude":"23.76779000","wikiDataId":"Q1997239"},{"id":52665,"name":"Irákleio","stateId":2122,"stateCode":"I","stateName":"Attica Region","countryId":85,"countryCode":"GR","countryName":"Greece","latitude":"38.05282000","longitude":"23.76523000","wikiDataId":"Q1021614"},{"id":52674,"name":"Kaisarianí","stateId":2122,"stateCode":"I","stateName":"Attica Region","countryId":85,"countryCode":"GR","countryName":"Greece","latitude":"37.96340000","longitude":"23.76523000","wikiDataId":"Q933566"},{"id":52802,"name":"Kálamos","stateId":2122,"stateCode":"I","stateName":"Attica Region","countryId":85,"countryCode":"GR","countryName":"Greece","latitude":"38.28447000","longitude":"23.86308000","wikiDataId":"Q1001880"},{"id":52681,"name":"Kallithéa","stateId":2122,"stateCode":"I","stateName":"Attica Region","countryId":85,"countryCode":"GR","countryName":"Greece","latitude":"37.95000000","longitude":"23.70000000","wikiDataId":"Q478518"},{"id":52695,"name":"Kalývia Thorikoú","stateId":2122,"stateCode":"I","stateName":"Attica Region","countryId":85,"countryCode":"GR","countryName":"Greece","latitude":"37.83894000","longitude":"23.92505000","wikiDataId":"Q2338679"},{"id":52697,"name":"Kamaterón","stateId":2122,"stateCode":"I","stateName":"Attica Region","countryId":85,"countryCode":"GR","countryName":"Greece","latitude":"38.05586000","longitude":"23.70515000","wikiDataId":"Q2087488"},{"id":52705,"name":"Kapandríti","stateId":2122,"stateCode":"I","stateName":"Attica Region","countryId":85,"countryCode":"GR","countryName":"Greece","latitude":"38.21579000","longitude":"23.87938000","wikiDataId":"Q2532128"},{"id":52714,"name":"Karellás","stateId":2122,"stateCode":"I","stateName":"Attica Region","countryId":85,"countryCode":"GR","countryName":"Greece","latitude":"37.93445000","longitude":"23.86484000","wikiDataId":"Q4153152"},{"id":52817,"name":"Káto Soúlion","stateId":2122,"stateCode":"I","stateName":"Attica Region","countryId":85,"countryCode":"GR","countryName":"Greece","latitude":"38.16803000","longitude":"24.01628000","wikiDataId":"Q4152256"},{"id":52742,"name":"Keratéa","stateId":2122,"stateCode":"I","stateName":"Attica Region","countryId":85,"countryCode":"GR","countryName":"Greece","latitude":"37.80585000","longitude":"23.97740000","wikiDataId":"Q2714384"},{"id":52741,"name":"Keratsíni","stateId":2122,"stateCode":"I","stateName":"Attica Region","countryId":85,"countryCode":"GR","countryName":"Greece","latitude":"37.96250000","longitude":"23.61972000","wikiDataId":"Q1001552"},{"id":52744,"name":"Khalándrion","stateId":2122,"stateCode":"I","stateName":"Attica Region","countryId":85,"countryCode":"GR","countryName":"Greece","latitude":"38.02369000","longitude":"23.80068000","wikiDataId":"Q992265"},{"id":52743,"name":"Khalkoútsion","stateId":2122,"stateCode":"I","stateName":"Attica Region","countryId":85,"countryCode":"GR","countryName":"Greece","latitude":"38.33263000","longitude":"23.73188000","wikiDataId":"Q2714384"},{"id":52746,"name":"Kifisiá","stateId":2122,"stateCode":"I","stateName":"Attica Region","countryId":85,"countryCode":"GR","countryName":"Greece","latitude":"38.07438000","longitude":"23.81106000","wikiDataId":"Q769709"},{"id":52749,"name":"Kinéta","stateId":2122,"stateCode":"I","stateName":"Attica Region","countryId":85,"countryCode":"GR","countryName":"Greece","latitude":"37.96843000","longitude":"23.21351000","wikiDataId":"Q670943"},{"id":52750,"name":"Kipséli","stateId":2122,"stateCode":"I","stateName":"Attica Region","countryId":85,"countryCode":"GR","countryName":"Greece","latitude":"38.00288000","longitude":"23.73755000","wikiDataId":"Q1795153"},{"id":52824,"name":"Kítsi","stateId":2122,"stateCode":"I","stateName":"Attica Region","countryId":85,"countryCode":"GR","countryName":"Greece","latitude":"37.85181000","longitude":"23.84068000","wikiDataId":"Q4152343"},{"id":52769,"name":"Koropí","stateId":2122,"stateCode":"I","stateName":"Attica Region","countryId":85,"countryCode":"GR","countryName":"Greece","latitude":"37.89886000","longitude":"23.87181000","wikiDataId":"Q2670586"},{"id":52770,"name":"Korydallós","stateId":2122,"stateCode":"I","stateName":"Attica Region","countryId":85,"countryCode":"GR","countryName":"Greece","latitude":"37.98468000","longitude":"23.64711000","wikiDataId":"Q659042"},{"id":52779,"name":"Kouvarás","stateId":2122,"stateCode":"I","stateName":"Attica Region","countryId":85,"countryCode":"GR","countryName":"Greece","latitude":"37.82711000","longitude":"23.96715000","wikiDataId":"Q1135228"},{"id":52790,"name":"Kryonéri","stateId":2122,"stateCode":"I","stateName":"Attica Region","countryId":85,"countryCode":"GR","countryName":"Greece","latitude":"38.13712000","longitude":"23.83055000","wikiDataId":"Q1135200"},{"id":52799,"name":"Kypséli","stateId":2122,"stateCode":"I","stateName":"Attica Region","countryId":85,"countryCode":"GR","countryName":"Greece","latitude":"37.76021000","longitude":"23.45448000","wikiDataId":"Q747508"},{"id":52830,"name":"Kýthira","stateId":2122,"stateCode":"I","stateName":"Attica Region","countryId":85,"countryCode":"GR","countryName":"Greece","latitude":"36.14955000","longitude":"22.98979000","wikiDataId":"Q11855334"},{"id":52877,"name":"Lávrio","stateId":2122,"stateCode":"I","stateName":"Attica Region","countryId":85,"countryCode":"GR","countryName":"Greece","latitude":"37.71445000","longitude":"24.05647000","wikiDataId":"Q3219865"},{"id":52844,"name":"Leondárion","stateId":2122,"stateCode":"I","stateName":"Attica Region","countryId":85,"countryCode":"GR","countryName":"Greece","latitude":"37.98700000","longitude":"23.85518000","wikiDataId":"Q685300"},{"id":52856,"name":"Limín Mesoyaías","stateId":2122,"stateCode":"I","stateName":"Attica Region","countryId":85,"countryCode":"GR","countryName":"Greece","latitude":"37.89108000","longitude":"24.00307000","wikiDataId":"Q2105234"},{"id":52871,"name":"Lykóvrysi","stateId":2122,"stateCode":"I","stateName":"Attica Region","countryId":85,"countryCode":"GR","countryName":"Greece","latitude":"38.06933000","longitude":"23.78223000","wikiDataId":"Q2532150"},{"id":52885,"name":"Magoúla","stateId":2122,"stateCode":"I","stateName":"Attica Region","countryId":85,"countryCode":"GR","countryName":"Greece","latitude":"38.07989000","longitude":"23.52108000","wikiDataId":"Q1135222"},{"id":52955,"name":"Mándra","stateId":2122,"stateCode":"I","stateName":"Attica Region","countryId":85,"countryCode":"GR","countryName":"Greece","latitude":"38.06667000","longitude":"23.50000000","wikiDataId":"Q16329065"},{"id":52898,"name":"Marathónas","stateId":2122,"stateCode":"I","stateName":"Attica Region","countryId":85,"countryCode":"GR","countryName":"Greece","latitude":"38.15317000","longitude":"23.96278000","wikiDataId":"Q212150"},{"id":52899,"name":"Markópoulo","stateId":2122,"stateCode":"I","stateName":"Attica Region","countryId":85,"countryCode":"GR","countryName":"Greece","latitude":"37.88333000","longitude":"23.93333000","wikiDataId":"Q1134852"},{"id":52900,"name":"Markópoulo Oropoú","stateId":2122,"stateCode":"I","stateName":"Attica Region","countryId":85,"countryCode":"GR","countryName":"Greece","latitude":"38.28980000","longitude":"23.82475000","wikiDataId":"Q3562844"},{"id":52902,"name":"Maroúsi","stateId":2122,"stateCode":"I","stateName":"Attica Region","countryId":85,"countryCode":"GR","countryName":"Greece","latitude":"38.05000000","longitude":"23.80000000","wikiDataId":"Q992348"},{"id":52911,"name":"Megalochóri","stateId":2122,"stateCode":"I","stateName":"Attica Region","countryId":85,"countryCode":"GR","countryName":"Greece","latitude":"37.71051000","longitude":"23.34659000","wikiDataId":"Q21080174"},{"id":52956,"name":"Mégara","stateId":2122,"stateCode":"I","stateName":"Attica Region","countryId":85,"countryCode":"GR","countryName":"Greece","latitude":"37.99471000","longitude":"23.34324000","wikiDataId":"Q16329065"},{"id":52922,"name":"Melíssia","stateId":2122,"stateCode":"I","stateName":"Attica Region","countryId":85,"countryCode":"GR","countryName":"Greece","latitude":"38.05000000","longitude":"23.83333000","wikiDataId":"Q2338797"},{"id":52931,"name":"Metamórfosi","stateId":2122,"stateCode":"I","stateName":"Attica Region","countryId":85,"countryCode":"GR","countryName":"Greece","latitude":"38.06576000","longitude":"23.76356000","wikiDataId":"Q2290700"},{"id":52943,"name":"Moskháton","stateId":2122,"stateCode":"I","stateName":"Attica Region","countryId":85,"countryCode":"GR","countryName":"Greece","latitude":"37.94789000","longitude":"23.67880000","wikiDataId":"Q1027210"},{"id":53004,"name":"Néa Chalkidóna","stateId":2122,"stateCode":"I","stateName":"Attica Region","countryId":85,"countryCode":"GR","countryName":"Greece","latitude":"38.02710000","longitude":"23.73051000","wikiDataId":"Q2714946"},{"id":53005,"name":"Néa Erythraía","stateId":2122,"stateCode":"I","stateName":"Attica Region","countryId":85,"countryCode":"GR","countryName":"Greece","latitude":"38.09270000","longitude":"23.82223000","wikiDataId":"Q956620"},{"id":53006,"name":"Néa Filadélfeia","stateId":2122,"stateCode":"I","stateName":"Attica Region","countryId":85,"countryCode":"GR","countryName":"Greece","latitude":"38.03491000","longitude":"23.73811000","wikiDataId":"Q1021592"},{"id":53009,"name":"Néa Ionía","stateId":2122,"stateCode":"I","stateName":"Attica Region","countryId":85,"countryCode":"GR","countryName":"Greece","latitude":"38.03570000","longitude":"23.75733000","wikiDataId":"Q530191"},{"id":53022,"name":"Néa Mákri","stateId":2122,"stateCode":"I","stateName":"Attica Region","countryId":85,"countryCode":"GR","countryName":"Greece","latitude":"38.08733000","longitude":"23.97642000","wikiDataId":"Q2292363"},{"id":53024,"name":"Néa Palátia","stateId":2122,"stateCode":"I","stateName":"Attica Region","countryId":85,"countryCode":"GR","countryName":"Greece","latitude":"38.31942000","longitude":"23.79649000","wikiDataId":"Q2277232"},{"id":53025,"name":"Néa Pentéli","stateId":2122,"stateCode":"I","stateName":"Attica Region","countryId":85,"countryCode":"GR","countryName":"Greece","latitude":"38.06059000","longitude":"23.85926000","wikiDataId":"Q1021634"},{"id":53030,"name":"Néa Péramos","stateId":2122,"stateCode":"I","stateName":"Attica Region","countryId":85,"countryCode":"GR","countryName":"Greece","latitude":"38.00647000","longitude":"23.42348000","wikiDataId":"Q658899"},{"id":53034,"name":"Néa Smýrni","stateId":2122,"stateCode":"I","stateName":"Attica Region","countryId":85,"countryCode":"GR","countryName":"Greece","latitude":"37.94504000","longitude":"23.71416000","wikiDataId":"Q546634"},{"id":53045,"name":"Néo Psychikó","stateId":2122,"stateCode":"I","stateName":"Attica Region","countryId":85,"countryCode":"GR","countryName":"Greece","latitude":"38.00624000","longitude":"23.78373000","wikiDataId":"Q1665019"},{"id":52970,"name":"Neos Voutzás","stateId":2122,"stateCode":"I","stateName":"Attica Region","countryId":85,"countryCode":"GR","countryName":"Greece","latitude":"38.04312000","longitude":"23.97749000","wikiDataId":"Q16329938"},{"id":53054,"name":"Níkaia","stateId":2122,"stateCode":"I","stateName":"Attica Region","countryId":85,"countryCode":"GR","countryName":"Greece","latitude":"37.96667000","longitude":"23.65000000","wikiDataId":"Q985462"},{"id":53065,"name":"Oropós","stateId":2122,"stateCode":"I","stateName":"Attica Region","countryId":85,"countryCode":"GR","countryName":"Greece","latitude":"38.30326000","longitude":"23.75549000","wikiDataId":"Q663353"},{"id":53070,"name":"Paianía","stateId":2122,"stateCode":"I","stateName":"Attica Region","countryId":85,"countryCode":"GR","countryName":"Greece","latitude":"37.95527000","longitude":"23.85443000","wikiDataId":"Q1236193"},{"id":53076,"name":"Palaiá Fókaia","stateId":2122,"stateCode":"I","stateName":"Attica Region","countryId":85,"countryCode":"GR","countryName":"Greece","latitude":"37.71998000","longitude":"23.94792000","wikiDataId":"Q2532100"},{"id":53077,"name":"Palaió Fáliro","stateId":2122,"stateCode":"I","stateName":"Attica Region","countryId":85,"countryCode":"GR","countryName":"Greece","latitude":"37.92812000","longitude":"23.70105000","wikiDataId":"Q1014231"},{"id":53084,"name":"Pallíni","stateId":2122,"stateCode":"I","stateName":"Attica Region","countryId":85,"countryCode":"GR","countryName":"Greece","latitude":"38.00514000","longitude":"23.88302000","wikiDataId":"Q868553"},{"id":53089,"name":"Papágou","stateId":2122,"stateCode":"I","stateName":"Attica Region","countryId":85,"countryCode":"GR","countryName":"Greece","latitude":"37.98642000","longitude":"23.79347000","wikiDataId":"Q2531632"},{"id":53171,"name":"Péfki","stateId":2122,"stateCode":"I","stateName":"Attica Region","countryId":85,"countryCode":"GR","countryName":"Greece","latitude":"38.06019000","longitude":"23.79264000","wikiDataId":"Q2338831"},{"id":53107,"name":"Pentéli","stateId":2122,"stateCode":"I","stateName":"Attica Region","countryId":85,"countryCode":"GR","countryName":"Greece","latitude":"38.05000000","longitude":"23.86667000","wikiDataId":"Q7057301"},{"id":53175,"name":"Pérama","stateId":2122,"stateCode":"I","stateName":"Attica Region","countryId":85,"countryCode":"GR","countryName":"Greece","latitude":"37.96775000","longitude":"23.57210000","wikiDataId":"Q1960123"},{"id":53112,"name":"Peristéri","stateId":2122,"stateCode":"I","stateName":"Attica Region","countryId":85,"countryCode":"GR","countryName":"Greece","latitude":"38.01539000","longitude":"23.69187000","wikiDataId":"Q652895"},{"id":53119,"name":"Petroúpolis","stateId":2122,"stateCode":"I","stateName":"Attica Region","countryId":85,"countryCode":"GR","countryName":"Greece","latitude":"38.04187000","longitude":"23.68494000","wikiDataId":"Q1997297"},{"id":53122,"name":"Pikérmi","stateId":2122,"stateCode":"I","stateName":"Attica Region","countryId":85,"countryCode":"GR","countryName":"Greece","latitude":"38.00161000","longitude":"23.94075000","wikiDataId":"Q2277358"},{"id":53123,"name":"Piraeus","stateId":2122,"stateCode":"I","stateName":"Attica Region","countryId":85,"countryCode":"GR","countryName":"Greece","latitude":"37.94203000","longitude":"23.64619000","wikiDataId":"Q58976"},{"id":53132,"name":"Polydéndri","stateId":2122,"stateCode":"I","stateName":"Attica Region","countryId":85,"countryCode":"GR","countryName":"Greece","latitude":"38.21600000","longitude":"23.86806000","wikiDataId":"Q3907740"},{"id":53180,"name":"Póros","stateId":2122,"stateCode":"I","stateName":"Attica Region","countryId":85,"countryCode":"GR","countryName":"Greece","latitude":"37.49944000","longitude":"23.45361000","wikiDataId":"Q724394"},{"id":53155,"name":"Psychikó","stateId":2122,"stateCode":"I","stateName":"Attica Region","countryId":85,"countryCode":"GR","countryName":"Greece","latitude":"38.01324000","longitude":"23.77223000","wikiDataId":"Q2004382"},{"id":53186,"name":"Rafína","stateId":2122,"stateCode":"I","stateName":"Attica Region","countryId":85,"countryCode":"GR","countryName":"Greece","latitude":"38.01812000","longitude":"24.00599000","wikiDataId":"Q2127223"},{"id":53197,"name":"Rodópoli","stateId":2122,"stateCode":"I","stateName":"Attica Region","countryId":85,"countryCode":"GR","countryName":"Greece","latitude":"38.11669000","longitude":"23.87572000","wikiDataId":"Q2277259"},{"id":53204,"name":"Salamína","stateId":2122,"stateCode":"I","stateName":"Attica Region","countryId":85,"countryCode":"GR","countryName":"Greece","latitude":"37.96427000","longitude":"23.49649000","wikiDataId":"Q3500883"},{"id":53207,"name":"Saronída","stateId":2122,"stateCode":"I","stateName":"Attica Region","countryId":85,"countryCode":"GR","countryName":"Greece","latitude":"37.74809000","longitude":"23.91059000","wikiDataId":"Q2277297"},{"id":53211,"name":"Selínia","stateId":2122,"stateCode":"I","stateName":"Attica Region","countryId":85,"countryCode":"GR","countryName":"Greece","latitude":"37.93320000","longitude":"23.53147000","wikiDataId":"Q11517425"},{"id":53226,"name":"Skála Oropoú","stateId":2122,"stateCode":"I","stateName":"Attica Region","countryId":85,"countryCode":"GR","countryName":"Greece","latitude":"38.31964000","longitude":"23.78763000","wikiDataId":"Q1142659"},{"id":53220,"name":"Skarmagkás","stateId":2122,"stateCode":"I","stateName":"Attica Region","countryId":85,"countryCode":"GR","countryName":"Greece","latitude":"38.01133000","longitude":"23.60303000","wikiDataId":"Q3503850"},{"id":53242,"name":"Spáta","stateId":2122,"stateCode":"I","stateName":"Attica Region","countryId":85,"countryCode":"GR","countryName":"Greece","latitude":"37.96163000","longitude":"23.91514000","wikiDataId":"Q2717832"},{"id":53243,"name":"Spétses","stateId":2122,"stateCode":"I","stateName":"Attica Region","countryId":85,"countryCode":"GR","countryName":"Greece","latitude":"37.26191000","longitude":"23.15943000","wikiDataId":"Q368275"},{"id":53245,"name":"Stamáta","stateId":2122,"stateCode":"I","stateName":"Attica Region","countryId":85,"countryCode":"GR","countryName":"Greece","latitude":"38.12546000","longitude":"23.88038000","wikiDataId":"Q1142670"},{"id":53300,"name":"Távros","stateId":2122,"stateCode":"I","stateName":"Attica Region","countryId":85,"countryCode":"GR","countryName":"Greece","latitude":"37.97064000","longitude":"23.69043000","wikiDataId":"Q1568232"},{"id":53280,"name":"Thrakomakedónes","stateId":2122,"stateCode":"I","stateName":"Attica Region","countryId":85,"countryCode":"GR","countryName":"Greece","latitude":"38.12964000","longitude":"23.75751000","wikiDataId":"Q2277346"},{"id":53340,"name":"Vári","stateId":2122,"stateCode":"I","stateName":"Attica Region","countryId":85,"countryCode":"GR","countryName":"Greece","latitude":"37.83320000","longitude":"23.80311000","wikiDataId":"Q2277252"},{"id":53308,"name":"Varnávas","stateId":2122,"stateCode":"I","stateName":"Attica Region","countryId":85,"countryCode":"GR","countryName":"Greece","latitude":"38.22358000","longitude":"23.92307000","wikiDataId":"Q4120005"},{"id":53311,"name":"Varybóbi","stateId":2122,"stateCode":"I","stateName":"Attica Region","countryId":85,"countryCode":"GR","countryName":"Greece","latitude":"38.12723000","longitude":"23.78729000","wikiDataId":"Q3564877"},{"id":53316,"name":"Vathý","stateId":2122,"stateCode":"I","stateName":"Attica Region","countryId":85,"countryCode":"GR","countryName":"Greece","latitude":"37.76420000","longitude":"23.48011000","wikiDataId":"Q18087921"},{"id":53344,"name":"Vília","stateId":2122,"stateCode":"I","stateName":"Attica Region","countryId":85,"countryCode":"GR","countryName":"Greece","latitude":"38.16716000","longitude":"23.33659000","wikiDataId":"Q2275334"},{"id":53325,"name":"Vlycháda","stateId":2122,"stateCode":"I","stateName":"Attica Region","countryId":85,"countryCode":"GR","countryName":"Greece","latitude":"38.02734000","longitude":"23.43663000","wikiDataId":"Q21623708"},{"id":53331,"name":"Voúla","stateId":2122,"stateCode":"I","stateName":"Attica Region","countryId":85,"countryCode":"GR","countryName":"Greece","latitude":"37.84221000","longitude":"23.77651000","wikiDataId":"Q372378"},{"id":53329,"name":"Vouliagméni","stateId":2122,"stateCode":"I","stateName":"Attica Region","countryId":85,"countryCode":"GR","countryName":"Greece","latitude":"37.81423000","longitude":"23.77892000","wikiDataId":"Q2714924"},{"id":53334,"name":"Vraná","stateId":2122,"stateCode":"I","stateName":"Attica Region","countryId":85,"countryCode":"GR","countryName":"Greece","latitude":"38.12497000","longitude":"23.95198000","wikiDataId":"Q24882385"},{"id":53335,"name":"Vrilissia","stateId":2122,"stateCode":"I","stateName":"Attica Region","countryId":85,"countryCode":"GR","countryName":"Greece","latitude":"38.03381000","longitude":"23.82962000","wikiDataId":"Q1405893"},{"id":53347,"name":"Výronas","stateId":2122,"stateCode":"I","stateName":"Attica Region","countryId":85,"countryCode":"GR","countryName":"Greece","latitude":"37.96105000","longitude":"23.75300000","wikiDataId":"Q683555"},{"id":53424,"name":"Ýdra","stateId":2122,"stateCode":"I","stateName":"Attica Region","countryId":85,"countryCode":"GR","countryName":"Greece","latitude":"37.34976000","longitude":"23.46560000","wikiDataId":"Q3791883"},{"id":53355,"name":"Ymittos","stateId":2122,"stateCode":"I","stateName":"Attica Region","countryId":85,"countryCode":"GR","countryName":"Greece","latitude":"37.95342000","longitude":"23.74897000","wikiDataId":"Q2532052"},{"id":53360,"name":"Zefyri","stateId":2122,"stateCode":"I","stateName":"Attica Region","countryId":85,"countryCode":"GR","countryName":"Greece","latitude":"38.06647000","longitude":"23.71701000","wikiDataId":"Q2275300"},{"id":53363,"name":"Zográfos","stateId":2122,"stateCode":"I","stateName":"Attica Region","countryId":85,"countryCode":"GR","countryName":"Greece","latitude":"37.97574000","longitude":"23.76911000","wikiDataId":"Q218375"},{"id":52404,"name":"Afrátion","stateId":2128,"stateCode":"H","stateName":"Central Greece Region","countryId":85,"countryCode":"GR","countryName":"Greece","latitude":"38.45212000","longitude":"23.68775000","wikiDataId":"Q2282673"},{"id":52423,"name":"Agía Triáda","stateId":2128,"stateCode":"H","stateName":"Central Greece Region","countryId":85,"countryCode":"GR","countryName":"Greece","latitude":"38.35505000","longitude":"22.90881000","wikiDataId":"Q12181470"},{"id":53376,"name":"Ágios Geórgios","stateId":2128,"stateCode":"H","stateName":"Central Greece Region","countryId":85,"countryCode":"GR","countryName":"Greece","latitude":"38.39343000","longitude":"22.93189000","wikiDataId":"Q12180004"},{"id":52429,"name":"Aidipsós","stateId":2128,"stateCode":"H","stateName":"Central Greece Region","countryId":85,"countryCode":"GR","countryName":"Greece","latitude":"38.87924000","longitude":"23.04691000","wikiDataId":"Q798872"},{"id":52434,"name":"Akraifnía","stateId":2128,"stateCode":"H","stateName":"Central Greece Region","countryId":85,"countryCode":"GR","countryName":"Greece","latitude":"38.45663000","longitude":"23.22093000","wikiDataId":"Q4701601"},{"id":52446,"name":"Alíartos","stateId":2128,"stateCode":"H","stateName":"Central Greece Region","countryId":85,"countryCode":"GR","countryName":"Greece","latitude":"38.36667000","longitude":"23.10000000","wikiDataId":"Q1235010"},{"id":52444,"name":"Alivéri","stateId":2128,"stateCode":"H","stateName":"Central Greece Region","countryId":85,"countryCode":"GR","countryName":"Greece","latitude":"38.41667000","longitude":"24.03333000","wikiDataId":"Q649852"},{"id":52457,"name":"Amárynthos","stateId":2128,"stateCode":"H","stateName":"Central Greece Region","countryId":85,"countryCode":"GR","countryName":"Greece","latitude":"38.39300000","longitude":"23.88492000","wikiDataId":"Q1227665"},{"id":52450,"name":"Amfíkleia","stateId":2128,"stateCode":"H","stateName":"Central Greece Region","countryId":85,"countryCode":"GR","countryName":"Greece","latitude":"38.63912000","longitude":"22.59171000","wikiDataId":"Q1752471"},{"id":53389,"name":"Ámfissa","stateId":2128,"stateCode":"H","stateName":"Central Greece Region","countryId":85,"countryCode":"GR","countryName":"Greece","latitude":"38.52813000","longitude":"22.37713000","wikiDataId":"Q470481"},{"id":52471,"name":"Anthíli","stateId":2128,"stateCode":"H","stateName":"Central Greece Region","countryId":85,"countryCode":"GR","countryName":"Greece","latitude":"38.85000000","longitude":"22.47906000","wikiDataId":"Q21533398"},{"id":52472,"name":"Antikyra","stateId":2128,"stateCode":"H","stateName":"Central Greece Region","countryId":85,"countryCode":"GR","countryName":"Greece","latitude":"38.38333000","longitude":"22.63333000","wikiDataId":"Q680099"},{"id":52501,"name":"Aráchova","stateId":2128,"stateCode":"H","stateName":"Central Greece Region","countryId":85,"countryCode":"GR","countryName":"Greece","latitude":"38.47958000","longitude":"22.58350000","wikiDataId":"Q624641"},{"id":53401,"name":"Árma","stateId":2128,"stateCode":"H","stateName":"Central Greece Region","countryId":85,"countryCode":"GR","countryName":"Greece","latitude":"38.35121000","longitude":"23.48599000","wikiDataId":"Q12179458"},{"id":52504,"name":"Asopía","stateId":2128,"stateCode":"H","stateName":"Central Greece Region","countryId":85,"countryCode":"GR","countryName":"Greece","latitude":"38.29882000","longitude":"23.50189000","wikiDataId":"Q12179779"},{"id":52514,"name":"Atalánti","stateId":2128,"stateCode":"H","stateName":"Central Greece Region","countryId":85,"countryCode":"GR","countryName":"Greece","latitude":"38.65111000","longitude":"22.99917000","wikiDataId":"Q1233671"},{"id":53412,"name":"Áyios Konstandínos","stateId":2128,"stateCode":"H","stateName":"Central Greece Region","countryId":85,"countryCode":"GR","countryName":"Greece","latitude":"38.75612000","longitude":"22.85757000","wikiDataId":"Q16963918"},{"id":53413,"name":"Áyios Nikólaos","stateId":2128,"stateCode":"H","stateName":"Central Greece Region","countryId":85,"countryCode":"GR","countryName":"Greece","latitude":"38.42051000","longitude":"23.64772000","wikiDataId":"Q16963918"},{"id":53414,"name":"Áyios Thomás","stateId":2128,"stateCode":"H","stateName":"Central Greece Region","countryId":85,"countryCode":"GR","countryName":"Greece","latitude":"38.27717000","longitude":"23.58906000","wikiDataId":"Q3556195"},{"id":52524,"name":"Chairóneia","stateId":2128,"stateCode":"H","stateName":"Central Greece Region","countryId":85,"countryCode":"GR","countryName":"Greece","latitude":"38.49551000","longitude":"22.84424000","wikiDataId":"Q549874"},{"id":52528,"name":"Chalkída","stateId":2128,"stateCode":"H","stateName":"Central Greece Region","countryId":85,"countryCode":"GR","countryName":"Greece","latitude":"38.46354000","longitude":"23.60284000","wikiDataId":"Q7348419"},{"id":52547,"name":"Delphi","stateId":2128,"stateCode":"H","stateName":"Central Greece Region","countryId":85,"countryCode":"GR","countryName":"Greece","latitude":"38.47942000","longitude":"22.49357000","wikiDataId":"Q954068"},{"id":52551,"name":"Dhrosiá","stateId":2128,"stateCode":"H","stateName":"Central Greece Region","countryId":85,"countryCode":"GR","countryName":"Greece","latitude":"38.48413000","longitude":"23.54774000","wikiDataId":"Q21540674"},{"id":52568,"name":"Dílesi","stateId":2128,"stateCode":"H","stateName":"Central Greece Region","countryId":85,"countryCode":"GR","countryName":"Greece","latitude":"38.33762000","longitude":"23.67077000","wikiDataId":"Q12212501"},{"id":52570,"name":"Dístomo","stateId":2128,"stateCode":"H","stateName":"Central Greece Region","countryId":85,"countryCode":"GR","countryName":"Greece","latitude":"38.42892000","longitude":"22.66728000","wikiDataId":"Q478649"},{"id":52559,"name":"Domokós","stateId":2128,"stateCode":"H","stateName":"Central Greece Region","countryId":85,"countryCode":"GR","countryName":"Greece","latitude":"39.12722000","longitude":"22.30028000","wikiDataId":"Q1235572"},{"id":52560,"name":"Domvraína","stateId":2128,"stateCode":"H","stateName":"Central Greece Region","countryId":85,"countryCode":"GR","countryName":"Greece","latitude":"38.25300000","longitude":"22.98211000","wikiDataId":"Q12212214"},{"id":52583,"name":"Eláteia","stateId":2128,"stateCode":"H","stateName":"Central Greece Region","countryId":85,"countryCode":"GR","countryName":"Greece","latitude":"38.62770000","longitude":"22.76492000","wikiDataId":"Q1235347"},{"id":52593,"name":"Erétria","stateId":2128,"stateCode":"H","stateName":"Central Greece Region","countryId":85,"countryCode":"GR","countryName":"Greece","latitude":"38.40097000","longitude":"23.80220000","wikiDataId":"Q320367"},{"id":52615,"name":"Fáros","stateId":2128,"stateCode":"H","stateName":"Central Greece Region","countryId":85,"countryCode":"GR","countryName":"Greece","latitude":"38.39959000","longitude":"23.62275000","wikiDataId":"Q12231510"},{"id":52619,"name":"Fílla","stateId":2128,"stateCode":"H","stateName":"Central Greece Region","countryId":85,"countryCode":"GR","countryName":"Greece","latitude":"38.44177000","longitude":"23.68306000","wikiDataId":"Q943354"},{"id":52625,"name":"Galaxídhion","stateId":2128,"stateCode":"H","stateName":"Central Greece Region","countryId":85,"countryCode":"GR","countryName":"Greece","latitude":"38.38067000","longitude":"22.38001000","wikiDataId":"Q677906"},{"id":52668,"name":"Istiaía","stateId":2128,"stateCode":"H","stateName":"Central Greece Region","countryId":85,"countryCode":"GR","countryName":"Greece","latitude":"38.95520000","longitude":"23.15210000","wikiDataId":"Q733574"},{"id":52671,"name":"Itéa","stateId":2128,"stateCode":"H","stateName":"Central Greece Region","countryId":85,"countryCode":"GR","countryName":"Greece","latitude":"38.43201000","longitude":"22.42443000","wikiDataId":"Q1240074"},{"id":52673,"name":"Kainoúryion","stateId":2128,"stateCode":"H","stateName":"Central Greece Region","countryId":85,"countryCode":"GR","countryName":"Greece","latitude":"38.79283000","longitude":"22.72470000","wikiDataId":"Q1240074"},{"id":52700,"name":"Kaména Voúrla","stateId":2128,"stateCode":"H","stateName":"Central Greece Region","countryId":85,"countryCode":"GR","countryName":"Greece","latitude":"38.77844000","longitude":"22.78573000","wikiDataId":"Q2016450"},{"id":52706,"name":"Kaparéllion","stateId":2128,"stateCode":"H","stateName":"Central Greece Region","countryId":85,"countryCode":"GR","countryName":"Greece","latitude":"38.23697000","longitude":"23.21411000","wikiDataId":"Q2532128"},{"id":52716,"name":"Karpenísi","stateId":2128,"stateCode":"H","stateName":"Central Greece Region","countryId":85,"countryCode":"GR","countryName":"Greece","latitude":"38.91218000","longitude":"21.79836000","wikiDataId":"Q771781"},{"id":52804,"name":"Kárystos","stateId":2128,"stateCode":"H","stateName":"Central Greece Region","countryId":85,"countryCode":"GR","countryName":"Greece","latitude":"38.01333000","longitude":"24.41611000","wikiDataId":"Q995656"},{"id":52727,"name":"Kastélla","stateId":2128,"stateCode":"H","stateName":"Central Greece Region","countryId":85,"countryCode":"GR","countryName":"Greece","latitude":"38.57048000","longitude":"23.63131000","wikiDataId":"Q21533865"},{"id":52818,"name":"Káto Tithoréa","stateId":2128,"stateCode":"H","stateName":"Central Greece Region","countryId":85,"countryCode":"GR","countryName":"Greece","latitude":"38.60751000","longitude":"22.71348000","wikiDataId":"Q3563975"},{"id":52740,"name":"Kerasochóri","stateId":2128,"stateCode":"H","stateName":"Central Greece Region","countryId":85,"countryCode":"GR","countryName":"Greece","latitude":"39.00556000","longitude":"21.63778000","wikiDataId":"Q12857167"},{"id":52821,"name":"Kírra","stateId":2128,"stateCode":"H","stateName":"Central Greece Region","countryId":85,"countryCode":"GR","countryName":"Greece","latitude":"38.42944000","longitude":"22.44443000","wikiDataId":"Q3554821"},{"id":52827,"name":"Kými","stateId":2128,"stateCode":"H","stateName":"Central Greece Region","countryId":85,"countryCode":"GR","countryName":"Greece","latitude":"38.63477000","longitude":"24.10287000","wikiDataId":"Q1235455"},{"id":52800,"name":"Kyriáki","stateId":2128,"stateCode":"H","stateName":"Central Greece Region","countryId":85,"countryCode":"GR","countryName":"Greece","latitude":"38.35365000","longitude":"22.78841000","wikiDataId":"Q2283019"},{"id":52837,"name":"Lamía","stateId":2128,"stateCode":"H","stateName":"Central Greece Region","countryId":85,"countryCode":"GR","countryName":"Greece","latitude":"38.90000000","longitude":"22.43333000","wikiDataId":"Q192980"},{"id":52849,"name":"Lianokládhion","stateId":2128,"stateCode":"H","stateName":"Central Greece Region","countryId":85,"countryCode":"GR","countryName":"Greece","latitude":"38.91655000","longitude":"22.30336000","wikiDataId":"Q2014696"},{"id":52851,"name":"Lidoríki","stateId":2128,"stateCode":"H","stateName":"Central Greece Region","countryId":85,"countryCode":"GR","countryName":"Greece","latitude":"38.52389000","longitude":"22.19972000","wikiDataId":"Q660130"},{"id":52880,"name":"Límni","stateId":2128,"stateCode":"H","stateName":"Central Greece Region","countryId":85,"countryCode":"GR","countryName":"Greece","latitude":"38.76667000","longitude":"23.31667000","wikiDataId":"Q1001581"},{"id":52860,"name":"Livadeiá","stateId":2128,"stateCode":"H","stateName":"Central Greece Region","countryId":85,"countryCode":"GR","countryName":"Greece","latitude":"38.43616000","longitude":"22.87665000","wikiDataId":"Q210698"},{"id":52862,"name":"Livanátes","stateId":2128,"stateCode":"H","stateName":"Central Greece Region","countryId":85,"countryCode":"GR","countryName":"Greece","latitude":"38.71100000","longitude":"23.05030000","wikiDataId":"Q1007524"},{"id":52864,"name":"Loukísia","stateId":2128,"stateCode":"H","stateName":"Central Greece Region","countryId":85,"countryCode":"GR","countryName":"Greece","latitude":"38.47946000","longitude":"23.44796000","wikiDataId":"Q12237599"},{"id":52865,"name":"Loutrá Aidhipsoú","stateId":2128,"stateCode":"H","stateName":"Central Greece Region","countryId":85,"countryCode":"GR","countryName":"Greece","latitude":"38.85695000","longitude":"23.04739000","wikiDataId":"Q12237538"},{"id":52883,"name":"Magoúla","stateId":2128,"stateCode":"H","stateName":"Central Greece Region","countryId":85,"countryCode":"GR","countryName":"Greece","latitude":"38.41178000","longitude":"23.82128000","wikiDataId":"Q21533897"},{"id":52887,"name":"Makrakómi","stateId":2128,"stateCode":"H","stateName":"Central Greece Region","countryId":85,"countryCode":"GR","countryName":"Greece","latitude":"38.94150000","longitude":"22.11535000","wikiDataId":"Q669967"},{"id":52892,"name":"Malakónta","stateId":2128,"stateCode":"H","stateName":"Central Greece Region","countryId":85,"countryCode":"GR","countryName":"Greece","latitude":"38.40000000","longitude":"23.76667000","wikiDataId":"Q21533898"},{"id":52893,"name":"Malesína","stateId":2128,"stateCode":"H","stateName":"Central Greece Region","countryId":85,"countryCode":"GR","countryName":"Greece","latitude":"38.62225000","longitude":"23.23370000","wikiDataId":"Q16737772"},{"id":52897,"name":"Mantoúdi","stateId":2128,"stateCode":"H","stateName":"Central Greece Region","countryId":85,"countryCode":"GR","countryName":"Greece","latitude":"38.79808000","longitude":"23.47967000","wikiDataId":"Q12238375"},{"id":52901,"name":"Marmárion","stateId":2128,"stateCode":"H","stateName":"Central Greece Region","countryId":85,"countryCode":"GR","countryName":"Greece","latitude":"38.04839000","longitude":"24.32039000","wikiDataId":"Q2109972"},{"id":52903,"name":"Martínon","stateId":2128,"stateCode":"H","stateName":"Central Greece Region","countryId":85,"countryCode":"GR","countryName":"Greece","latitude":"38.56817000","longitude":"23.21458000","wikiDataId":"Q992348"},{"id":52958,"name":"Mólos","stateId":2128,"stateCode":"H","stateName":"Central Greece Region","countryId":85,"countryCode":"GR","countryName":"Greece","latitude":"38.80998000","longitude":"22.64544000","wikiDataId":"Q2014663"},{"id":52952,"name":"Mytikas","stateId":2128,"stateCode":"H","stateName":"Central Greece Region","countryId":85,"countryCode":"GR","countryName":"Greece","latitude":"38.44373000","longitude":"23.65365000","wikiDataId":"Q21540690"},{"id":53003,"name":"Néa Artáki","stateId":2128,"stateCode":"H","stateName":"Central Greece Region","countryId":85,"countryCode":"GR","countryName":"Greece","latitude":"38.52027000","longitude":"23.63296000","wikiDataId":"Q1135206"},{"id":53016,"name":"Néa Lámpsakos","stateId":2128,"stateCode":"H","stateName":"Central Greece Region","countryId":85,"countryCode":"GR","countryName":"Greece","latitude":"38.43729000","longitude":"23.62824000","wikiDataId":"Q1001857"},{"id":53035,"name":"Néa Stíra","stateId":2128,"stateCode":"H","stateName":"Central Greece Region","countryId":85,"countryCode":"GR","countryName":"Greece","latitude":"38.17935000","longitude":"24.20842000","wikiDataId":"Q546634"},{"id":53049,"name":"Néon Monastírion","stateId":2128,"stateCode":"H","stateName":"Central Greece Region","countryId":85,"countryCode":"GR","countryName":"Greece","latitude":"39.23988000","longitude":"22.27465000","wikiDataId":"Q12249566"},{"id":52982,"name":"Nomós Evrytanías","stateId":2128,"stateCode":"H","stateName":"Central Greece Region","countryId":85,"countryCode":"GR","countryName":"Greece","latitude":"39.00000000","longitude":"21.66667000","wikiDataId":"Q201945"},{"id":52983,"name":"Nomós Fokídos","stateId":2128,"stateCode":"H","stateName":"Central Greece Region","countryId":85,"countryCode":"GR","countryName":"Greece","latitude":"38.50000000","longitude":"22.25000000","wikiDataId":"Q26915"},{"id":53057,"name":"Oinófyta","stateId":2128,"stateCode":"H","stateName":"Central Greece Region","countryId":85,"countryCode":"GR","countryName":"Greece","latitude":"38.31163000","longitude":"23.64000000","wikiDataId":"Q1229333"},{"id":53058,"name":"Omvriakí","stateId":2128,"stateCode":"H","stateName":"Central Greece Region","countryId":85,"countryCode":"GR","countryName":"Greece","latitude":"39.10118000","longitude":"22.27106000","wikiDataId":"Q1229333"},{"id":53060,"name":"Orchomenós","stateId":2128,"stateCode":"H","stateName":"Central Greece Region","countryId":85,"countryCode":"GR","countryName":"Greece","latitude":"38.49290000","longitude":"22.97962000","wikiDataId":"Q543895"},{"id":53061,"name":"Oreoí","stateId":2128,"stateCode":"H","stateName":"Central Greece Region","countryId":85,"countryCode":"GR","countryName":"Greece","latitude":"38.95034000","longitude":"23.09191000","wikiDataId":"Q1227681"},{"id":53068,"name":"Oxílithos","stateId":2128,"stateCode":"H","stateName":"Central Greece Region","countryId":85,"countryCode":"GR","countryName":"Greece","latitude":"38.57988000","longitude":"24.11184000","wikiDataId":"Q12181118"},{"id":53092,"name":"Paralía Avlídhos","stateId":2128,"stateCode":"H","stateName":"Central Greece Region","countryId":85,"countryCode":"GR","countryName":"Greece","latitude":"38.38002000","longitude":"23.62842000","wikiDataId":"Q1229905"},{"id":53103,"name":"Pelasgía","stateId":2128,"stateCode":"H","stateName":"Central Greece Region","countryId":85,"countryCode":"GR","countryName":"Greece","latitude":"38.94813000","longitude":"22.83980000","wikiDataId":"Q2471029"},{"id":53129,"name":"Pláka Dílesi","stateId":2128,"stateCode":"H","stateName":"Central Greece Region","countryId":85,"countryCode":"GR","countryName":"Greece","latitude":"38.34950000","longitude":"23.65056000","wikiDataId":"Q2098876"},{"id":53131,"name":"Politiká","stateId":2128,"stateCode":"H","stateName":"Central Greece Region","countryId":85,"countryCode":"GR","countryName":"Greece","latitude":"38.59673000","longitude":"23.54457000","wikiDataId":"Q21533882"},{"id":53144,"name":"Prokópi","stateId":2128,"stateCode":"H","stateName":"Central Greece Region","countryId":85,"countryCode":"GR","countryName":"Greece","latitude":"38.73402000","longitude":"23.49060000","wikiDataId":"Q21540636"},{"id":53154,"name":"Psachná","stateId":2128,"stateCode":"H","stateName":"Central Greece Region","countryId":85,"countryCode":"GR","countryName":"Greece","latitude":"38.57852000","longitude":"23.64326000","wikiDataId":"Q2362525"},{"id":53193,"name":"Rodhítsa","stateId":2128,"stateCode":"H","stateName":"Central Greece Region","countryId":85,"countryCode":"GR","countryName":"Greece","latitude":"38.88829000","longitude":"22.46410000","wikiDataId":"Q21519036"},{"id":53198,"name":"Roviés","stateId":2128,"stateCode":"H","stateName":"Central Greece Region","countryId":85,"countryCode":"GR","countryName":"Greece","latitude":"38.80971000","longitude":"23.23073000","wikiDataId":"Q2170643"},{"id":53209,"name":"Schimatári","stateId":2128,"stateCode":"H","stateName":"Central Greece Region","countryId":85,"countryCode":"GR","countryName":"Greece","latitude":"38.35000000","longitude":"23.58333000","wikiDataId":"Q1227707"},{"id":53229,"name":"Skýros","stateId":2128,"stateCode":"H","stateName":"Central Greece Region","countryId":85,"countryCode":"GR","countryName":"Greece","latitude":"38.90417000","longitude":"24.56306000","wikiDataId":"Q14623748"},{"id":53239,"name":"Spercheiáda","stateId":2128,"stateCode":"H","stateName":"Central Greece Region","countryId":85,"countryCode":"GR","countryName":"Greece","latitude":"38.90656000","longitude":"22.12792000","wikiDataId":"Q2014656"},{"id":53249,"name":"Stavrós","stateId":2128,"stateCode":"H","stateName":"Central Greece Region","countryId":85,"countryCode":"GR","countryName":"Greece","latitude":"38.89641000","longitude":"22.37082000","wikiDataId":"Q1637062"},{"id":53252,"name":"Steíri","stateId":2128,"stateCode":"H","stateName":"Central Greece Region","countryId":85,"countryCode":"GR","countryName":"Greece","latitude":"38.40831000","longitude":"22.71162000","wikiDataId":"Q3555685"},{"id":53255,"name":"Stylída","stateId":2128,"stateCode":"H","stateName":"Central Greece Region","countryId":85,"countryCode":"GR","countryName":"Greece","latitude":"38.91667000","longitude":"22.61667000","wikiDataId":"Q12295369"},{"id":53276,"name":"Thespiés","stateId":2128,"stateCode":"H","stateName":"Central Greece Region","countryId":85,"countryCode":"GR","countryName":"Greece","latitude":"38.30300000","longitude":"23.15016000","wikiDataId":"Q7348696"},{"id":53285,"name":"Thívai","stateId":2128,"stateCode":"H","stateName":"Central Greece Region","countryId":85,"countryCode":"GR","countryName":"Greece","latitude":"38.32500000","longitude":"23.31889000","wikiDataId":"Q5760"},{"id":53338,"name":"Vágia","stateId":2128,"stateCode":"H","stateName":"Central Greece Region","countryId":85,"countryCode":"GR","countryName":"Greece","latitude":"38.31748000","longitude":"23.17752000","wikiDataId":"Q16327838"},{"id":53314,"name":"Vasilikón","stateId":2128,"stateCode":"H","stateName":"Central Greece Region","countryId":85,"countryCode":"GR","countryName":"Greece","latitude":"38.42586000","longitude":"23.67189000","wikiDataId":"Q12230117"},{"id":53315,"name":"Vathí","stateId":2128,"stateCode":"H","stateName":"Central Greece Region","countryId":85,"countryCode":"GR","countryName":"Greece","latitude":"38.40490000","longitude":"23.60332000","wikiDataId":"Q7917117"},{"id":53354,"name":"Yimnón","stateId":2128,"stateCode":"H","stateName":"Central Greece Region","countryId":85,"countryCode":"GR","countryName":"Greece","latitude":"38.44048000","longitude":"23.88400000","wikiDataId":"Q210296"},{"id":53367,"name":"Ádendro","stateId":2125,"stateCode":"B","stateName":"Central Macedonia","countryId":85,"countryCode":"GR","countryName":"Greece","latitude":"40.67131000","longitude":"22.60466000","wikiDataId":"Q3566838"},{"id":53368,"name":"Áfytos","stateId":2125,"stateCode":"B","stateName":"Central Macedonia","countryId":85,"countryCode":"GR","countryName":"Greece","latitude":"40.09915000","longitude":"23.43670000","wikiDataId":"Q3556047"},{"id":52422,"name":"Agía Paraskeví","stateId":2125,"stateCode":"B","stateName":"Central Macedonia","countryId":85,"countryCode":"GR","countryName":"Greece","latitude":"40.48150000","longitude":"23.04863000","wikiDataId":"Q12181467"},{"id":52425,"name":"Agía Triáda","stateId":2125,"stateCode":"B","stateName":"Central Macedonia","countryId":85,"countryCode":"GR","countryName":"Greece","latitude":"40.50003000","longitude":"22.87351000","wikiDataId":"Q12181470"},{"id":53369,"name":"Ágio Pnévma","stateId":2125,"stateCode":"B","stateName":"Central Macedonia","countryId":85,"countryCode":"GR","countryName":"Greece","latitude":"41.10142000","longitude":"23.67992000","wikiDataId":"Q1194281"},{"id":53374,"name":"Ágios Athanásios","stateId":2125,"stateCode":"B","stateName":"Central Macedonia","countryId":85,"countryCode":"GR","countryName":"Greece","latitude":"40.71598000","longitude":"22.72841000","wikiDataId":"Q2479112"},{"id":53377,"name":"Ágios Geórgios","stateId":2125,"stateCode":"B","stateName":"Central Macedonia","countryId":85,"countryCode":"GR","countryName":"Greece","latitude":"40.60215000","longitude":"22.19430000","wikiDataId":"Q12180004"},{"id":53378,"name":"Ágios Loukás","stateId":2125,"stateCode":"B","stateName":"Central Macedonia","countryId":85,"countryCode":"GR","countryName":"Greece","latitude":"40.71799000","longitude":"22.29545000","wikiDataId":"Q12180004"},{"id":53381,"name":"Ágios Nikólaos","stateId":2125,"stateCode":"B","stateName":"Central Macedonia","countryId":85,"countryCode":"GR","countryName":"Greece","latitude":"40.24926000","longitude":"23.69616000","wikiDataId":"Q393975"},{"id":53382,"name":"Ágios Pávlos","stateId":2125,"stateCode":"B","stateName":"Central Macedonia","countryId":85,"countryCode":"GR","countryName":"Greece","latitude":"40.64075000","longitude":"22.96039000","wikiDataId":"Q2636811"},{"id":53383,"name":"Ágios Pétros","stateId":2125,"stateCode":"B","stateName":"Central Macedonia","countryId":85,"countryCode":"GR","countryName":"Greece","latitude":"40.86725000","longitude":"22.58298000","wikiDataId":"Q3395935"},{"id":53384,"name":"Ágios Spyrídon","stateId":2125,"stateCode":"B","stateName":"Central Macedonia","countryId":85,"countryCode":"GR","countryName":"Greece","latitude":"40.20778000","longitude":"22.44311000","wikiDataId":"Q3556260"},{"id":53386,"name":"Ágios Vasíleios","stateId":2125,"stateCode":"B","stateName":"Central Macedonia","countryId":85,"countryCode":"GR","countryName":"Greece","latitude":"40.66424000","longitude":"23.11373000","wikiDataId":"Q2698815"},{"id":52411,"name":"Agkathiá","stateId":2125,"stateCode":"B","stateName":"Central Macedonia","countryId":85,"countryCode":"GR","countryName":"Greece","latitude":"40.55535000","longitude":"22.47083000","wikiDataId":"Q3399396"},{"id":52431,"name":"Aigínio","stateId":2125,"stateCode":"B","stateName":"Central Macedonia","countryId":85,"countryCode":"GR","countryName":"Greece","latitude":"40.50139000","longitude":"22.54000000","wikiDataId":"Q3564053"},{"id":52436,"name":"Akrolímni","stateId":2125,"stateCode":"B","stateName":"Central Macedonia","countryId":85,"countryCode":"GR","countryName":"Greece","latitude":"40.68020000","longitude":"22.26450000","wikiDataId":"Q4701601"},{"id":52441,"name":"Alexándreia","stateId":2125,"stateCode":"B","stateName":"Central Macedonia","countryId":85,"countryCode":"GR","countryName":"Greece","latitude":"40.62667000","longitude":"22.44417000","wikiDataId":"Q1014285"},{"id":52443,"name":"Alistráti","stateId":2125,"stateCode":"B","stateName":"Central Macedonia","countryId":85,"countryCode":"GR","countryName":"Greece","latitude":"41.06443000","longitude":"23.95751000","wikiDataId":"Q2706465"},{"id":52453,"name":"Ampeleíes","stateId":2125,"stateCode":"B","stateName":"Central Macedonia","countryId":85,"countryCode":"GR","countryName":"Greece","latitude":"40.83417000","longitude":"22.38767000","wikiDataId":"Q15637263"},{"id":52455,"name":"Ampelókipoi","stateId":2125,"stateCode":"B","stateName":"Central Macedonia","countryId":85,"countryCode":"GR","countryName":"Greece","latitude":"40.65304000","longitude":"22.92624000","wikiDataId":"Q456784"},{"id":52461,"name":"Anatolikó","stateId":2125,"stateCode":"B","stateName":"Central Macedonia","countryId":85,"countryCode":"GR","countryName":"Greece","latitude":"40.66152000","longitude":"22.71190000","wikiDataId":"Q3561404"},{"id":52465,"name":"Angelochóri","stateId":2125,"stateCode":"B","stateName":"Central Macedonia","countryId":85,"countryCode":"GR","countryName":"Greece","latitude":"40.67862000","longitude":"22.19933000","wikiDataId":"Q1223923"},{"id":53397,"name":"Ápsalos","stateId":2125,"stateCode":"B","stateName":"Central Macedonia","countryId":85,"countryCode":"GR","countryName":"Greece","latitude":"40.89240000","longitude":"22.05709000","wikiDataId":"Q12279087"},{"id":52481,"name":"Aravissós","stateId":2125,"stateCode":"B","stateName":"Central Macedonia","countryId":85,"countryCode":"GR","countryName":"Greece","latitude":"40.84352000","longitude":"22.30178000","wikiDataId":"Q3396008"},{"id":52492,"name":"Aridaía","stateId":2125,"stateCode":"B","stateName":"Central Macedonia","countryId":85,"countryCode":"GR","countryName":"Greece","latitude":"40.97306000","longitude":"22.05639000","wikiDataId":"Q657852"},{"id":52496,"name":"Arnaía","stateId":2125,"stateCode":"B","stateName":"Central Macedonia","countryId":85,"countryCode":"GR","countryName":"Greece","latitude":"40.48652000","longitude":"23.59537000","wikiDataId":"Q626763"},{"id":53402,"name":"Árnissa","stateId":2125,"stateCode":"B","stateName":"Central Macedonia","countryId":85,"countryCode":"GR","countryName":"Greece","latitude":"40.79555000","longitude":"21.83577000","wikiDataId":"Q3297728"},{"id":52498,"name":"Arsénio","stateId":2125,"stateCode":"B","stateName":"Central Macedonia","countryId":85,"countryCode":"GR","countryName":"Greece","latitude":"40.71412000","longitude":"22.15923000","wikiDataId":"Q704591"},{"id":52503,"name":"Askós","stateId":2125,"stateCode":"B","stateName":"Central Macedonia","countryId":85,"countryCode":"GR","countryName":"Greece","latitude":"40.75105000","longitude":"23.38721000","wikiDataId":"Q4807242"},{"id":52506,"name":"Asproválta","stateId":2125,"stateCode":"B","stateName":"Central Macedonia","countryId":85,"countryCode":"GR","countryName":"Greece","latitude":"40.73049000","longitude":"23.71180000","wikiDataId":"Q738098"},{"id":53404,"name":"Ássiros","stateId":2125,"stateCode":"B","stateName":"Central Macedonia","countryId":85,"countryCode":"GR","countryName":"Greece","latitude":"40.82143000","longitude":"23.03008000","wikiDataId":"Q779073"},{"id":52511,"name":"Asvestochóri","stateId":2125,"stateCode":"B","stateName":"Central Macedonia","countryId":85,"countryCode":"GR","countryName":"Greece","latitude":"40.64125000","longitude":"23.02528000","wikiDataId":"Q3394321"},{"id":53407,"name":"Áthyra","stateId":2125,"stateCode":"B","stateName":"Central Macedonia","countryId":85,"countryCode":"GR","countryName":"Greece","latitude":"40.82615000","longitude":"22.59279000","wikiDataId":"Q11049883"},{"id":52519,"name":"Axioúpoli","stateId":2125,"stateCode":"B","stateName":"Central Macedonia","countryId":85,"countryCode":"GR","countryName":"Greece","latitude":"40.98582000","longitude":"22.54165000","wikiDataId":"Q2416162"},{"id":52520,"name":"Axós","stateId":2125,"stateCode":"B","stateName":"Central Macedonia","countryId":85,"countryCode":"GR","countryName":"Greece","latitude":"40.80223000","longitude":"22.36158000","wikiDataId":"Q3394707"},{"id":52529,"name":"Chalástra","stateId":2125,"stateCode":"B","stateName":"Central Macedonia","countryId":85,"countryCode":"GR","countryName":"Greece","latitude":"40.62643000","longitude":"22.73291000","wikiDataId":"Q1059457"},{"id":52526,"name":"Chalkidóna","stateId":2125,"stateCode":"B","stateName":"Central Macedonia","countryId":85,"countryCode":"GR","countryName":"Greece","latitude":"40.73184000","longitude":"22.59992000","wikiDataId":"Q3394779"},{"id":52531,"name":"Charopó","stateId":2125,"stateCode":"B","stateName":"Central Macedonia","countryId":85,"countryCode":"GR","countryName":"Greece","latitude":"41.26031000","longitude":"23.37279000","wikiDataId":"Q182299"},{"id":52536,"name":"Chortiátis","stateId":2125,"stateCode":"B","stateName":"Central Macedonia","countryId":85,"countryCode":"GR","countryName":"Greece","latitude":"40.60954000","longitude":"23.10014000","wikiDataId":"Q1076595"},{"id":52540,"name":"Chrysó","stateId":2125,"stateCode":"B","stateName":"Central Macedonia","countryId":85,"countryCode":"GR","countryName":"Greece","latitude":"41.05806000","longitude":"23.65108000","wikiDataId":"Q2007855"},{"id":52537,"name":"Chrysochórafa","stateId":2125,"stateCode":"B","stateName":"Central Macedonia","countryId":85,"countryCode":"GR","countryName":"Greece","latitude":"41.18097000","longitude":"23.23551000","wikiDataId":"Q1076595"},{"id":52553,"name":"Diavatá","stateId":2125,"stateCode":"B","stateName":"Central Macedonia","countryId":85,"countryCode":"GR","countryName":"Greece","latitude":"40.68744000","longitude":"22.85799000","wikiDataId":"Q21540674"},{"id":52554,"name":"Diavatós","stateId":2125,"stateCode":"B","stateName":"Central Macedonia","countryId":85,"countryCode":"GR","countryName":"Greece","latitude":"40.54606000","longitude":"22.26686000","wikiDataId":"Q12212251"},{"id":52569,"name":"Díon","stateId":2125,"stateCode":"B","stateName":"Central Macedonia","countryId":85,"countryCode":"GR","countryName":"Greece","latitude":"40.17169000","longitude":"22.48463000","wikiDataId":"Q990247"},{"id":52562,"name":"Dravískos","stateId":2125,"stateCode":"B","stateName":"Central Macedonia","countryId":85,"countryCode":"GR","countryName":"Greece","latitude":"40.92393000","longitude":"23.87119000","wikiDataId":"Q3409060"},{"id":52564,"name":"Drymós","stateId":2125,"stateCode":"B","stateName":"Central Macedonia","countryId":85,"countryCode":"GR","countryName":"Greece","latitude":"40.78099000","longitude":"22.95889000","wikiDataId":"Q1021665"},{"id":53416,"name":"Édessa","stateId":2125,"stateCode":"B","stateName":"Central Macedonia","countryId":85,"countryCode":"GR","countryName":"Greece","latitude":"40.80260000","longitude":"22.04751000","wikiDataId":"Q209978"},{"id":52572,"name":"Efkarpía","stateId":2125,"stateCode":"B","stateName":"Central Macedonia","countryId":85,"countryCode":"GR","countryName":"Greece","latitude":"40.68797000","longitude":"22.95348000","wikiDataId":"Q2638864"},{"id":52573,"name":"Eirinoúpoli","stateId":2125,"stateCode":"B","stateName":"Central Macedonia","countryId":85,"countryCode":"GR","countryName":"Greece","latitude":"40.67806000","longitude":"22.19278000","wikiDataId":"Q2009829"},{"id":52586,"name":"Epanomí","stateId":2125,"stateCode":"B","stateName":"Central Macedonia","countryId":85,"countryCode":"GR","countryName":"Greece","latitude":"40.42614000","longitude":"22.92782000","wikiDataId":"Q1346418"},{"id":52587,"name":"Episkopí","stateId":2125,"stateCode":"B","stateName":"Central Macedonia","countryId":85,"countryCode":"GR","countryName":"Greece","latitude":"40.68748000","longitude":"22.13640000","wikiDataId":"Q3409108"},{"id":53419,"name":"Évosmos","stateId":2125,"stateCode":"B","stateName":"Central Macedonia","countryId":85,"countryCode":"GR","countryName":"Greece","latitude":"40.67056000","longitude":"22.90833000","wikiDataId":"Q1021687"},{"id":52594,"name":"Evropós","stateId":2125,"stateCode":"B","stateName":"Central Macedonia","countryId":85,"countryCode":"GR","countryName":"Greece","latitude":"40.89703000","longitude":"22.55277000","wikiDataId":"Q2481980"},{"id":52597,"name":"Exaplátanos","stateId":2125,"stateCode":"B","stateName":"Central Macedonia","countryId":85,"countryCode":"GR","countryName":"Greece","latitude":"40.97643000","longitude":"22.12958000","wikiDataId":"Q21080028"},{"id":52618,"name":"Fíliro","stateId":2125,"stateCode":"B","stateName":"Central Macedonia","countryId":85,"countryCode":"GR","countryName":"Greece","latitude":"40.69151000","longitude":"23.00460000","wikiDataId":"Q943354"},{"id":52621,"name":"Galatádes","stateId":2125,"stateCode":"B","stateName":"Central Macedonia","countryId":85,"countryCode":"GR","countryName":"Greece","latitude":"40.75590000","longitude":"22.28062000","wikiDataId":"Q3394356"},{"id":52626,"name":"Galátista","stateId":2125,"stateCode":"B","stateName":"Central Macedonia","countryId":85,"countryCode":"GR","countryName":"Greece","latitude":"40.46820000","longitude":"23.28015000","wikiDataId":"Q1027669"},{"id":52649,"name":"Gázoros","stateId":2125,"stateCode":"B","stateName":"Central Macedonia","countryId":85,"countryCode":"GR","countryName":"Greece","latitude":"41.02557000","longitude":"23.77574000","wikiDataId":"Q2097291"},{"id":52651,"name":"Géfyra","stateId":2125,"stateCode":"B","stateName":"Central Macedonia","countryId":85,"countryCode":"GR","countryName":"Greece","latitude":"40.73253000","longitude":"22.69359000","wikiDataId":"Q3561434"},{"id":52634,"name":"Gerakaroú","stateId":2125,"stateCode":"B","stateName":"Central Macedonia","countryId":85,"countryCode":"GR","countryName":"Greece","latitude":"40.62666000","longitude":"23.21566000","wikiDataId":"Q15725356"},{"id":52637,"name":"Giannitsá","stateId":2125,"stateCode":"B","stateName":"Central Macedonia","countryId":85,"countryCode":"GR","countryName":"Greece","latitude":"40.79194000","longitude":"22.40750000","wikiDataId":"Q929022"},{"id":52639,"name":"Gouménissa","stateId":2125,"stateCode":"B","stateName":"Central Macedonia","countryId":85,"countryCode":"GR","countryName":"Greece","latitude":"40.94604000","longitude":"22.44974000","wikiDataId":"Q2354194"},{"id":52658,"name":"Ierissós","stateId":2125,"stateCode":"B","stateName":"Central Macedonia","countryId":85,"countryCode":"GR","countryName":"Greece","latitude":"40.39748000","longitude":"23.87505000","wikiDataId":"Q10640373"},{"id":52664,"name":"Irákleia","stateId":2125,"stateCode":"B","stateName":"Central Macedonia","countryId":85,"countryCode":"GR","countryName":"Greece","latitude":"41.18217000","longitude":"23.28243000","wikiDataId":"Q2708275"},{"id":52687,"name":"Kalá Déndra","stateId":2125,"stateCode":"B","stateName":"Central Macedonia","countryId":85,"countryCode":"GR","countryName":"Greece","latitude":"41.09941000","longitude":"23.42396000","wikiDataId":"Q16322761"},{"id":52675,"name":"Kalamariá","stateId":2125,"stateCode":"B","stateName":"Central Macedonia","countryId":85,"countryCode":"GR","countryName":"Greece","latitude":"40.58250000","longitude":"22.95028000","wikiDataId":"Q737468"},{"id":52689,"name":"Kalí","stateId":2125,"stateCode":"B","stateName":"Central Macedonia","countryId":85,"countryCode":"GR","countryName":"Greece","latitude":"40.81931000","longitude":"22.17761000","wikiDataId":"Q3405567"},{"id":52682,"name":"Kallithéa","stateId":2125,"stateCode":"B","stateName":"Central Macedonia","countryId":85,"countryCode":"GR","countryName":"Greece","latitude":"40.07374000","longitude":"23.44637000","wikiDataId":"Q626774"},{"id":52685,"name":"Kalochóri","stateId":2125,"stateCode":"B","stateName":"Central Macedonia","countryId":85,"countryCode":"GR","countryName":"Greece","latitude":"40.64189000","longitude":"22.85734000","wikiDataId":"Q3558195"},{"id":52693,"name":"Kalýves Polygýrou","stateId":2125,"stateCode":"B","stateName":"Central Macedonia","countryId":85,"countryCode":"GR","countryName":"Greece","latitude":"40.28659000","longitude":"23.39033000","wikiDataId":"Q4357742"},{"id":52694,"name":"Kalývia","stateId":2125,"stateCode":"B","stateName":"Central Macedonia","countryId":85,"countryCode":"GR","countryName":"Greece","latitude":"40.75508000","longitude":"22.21753000","wikiDataId":"Q4357742"},{"id":52698,"name":"Kampánis","stateId":2125,"stateCode":"B","stateName":"Central Macedonia","countryId":85,"countryCode":"GR","countryName":"Greece","latitude":"40.88951000","longitude":"22.91682000","wikiDataId":"Q2087488"},{"id":52711,"name":"Kardiá","stateId":2125,"stateCode":"B","stateName":"Central Macedonia","countryId":85,"countryCode":"GR","countryName":"Greece","latitude":"40.46909000","longitude":"22.99378000","wikiDataId":"Q3555848"},{"id":52721,"name":"Karítsa","stateId":2125,"stateCode":"B","stateName":"Central Macedonia","countryId":85,"countryCode":"GR","countryName":"Greece","latitude":"40.18745000","longitude":"22.48171000","wikiDataId":"Q3563105"},{"id":52719,"name":"Karyótissa","stateId":2125,"stateCode":"B","stateName":"Central Macedonia","countryId":85,"countryCode":"GR","countryName":"Greece","latitude":"40.76915000","longitude":"22.31331000","wikiDataId":"Q1051038"},{"id":52722,"name":"Kassándreia","stateId":2125,"stateCode":"B","stateName":"Central Macedonia","countryId":85,"countryCode":"GR","countryName":"Greece","latitude":"40.04835000","longitude":"23.41362000","wikiDataId":"Q6374711"},{"id":52730,"name":"Kateríni","stateId":2125,"stateCode":"B","stateName":"Central Macedonia","countryId":85,"countryCode":"GR","countryName":"Greece","latitude":"40.26956000","longitude":"22.50608000","wikiDataId":"Q210470"},{"id":52810,"name":"Káto Kamíla","stateId":2125,"stateCode":"B","stateName":"Central Macedonia","countryId":85,"countryCode":"GR","countryName":"Greece","latitude":"41.02119000","longitude":"23.48336000","wikiDataId":"Q12234195"},{"id":52812,"name":"Káto Lipochóri","stateId":2125,"stateCode":"B","stateName":"Central Macedonia","countryId":85,"countryCode":"GR","countryName":"Greece","latitude":"40.75754000","longitude":"22.17962000","wikiDataId":"Q21518763"},{"id":52814,"name":"Káto Miliá","stateId":2125,"stateCode":"B","stateName":"Central Macedonia","countryId":85,"countryCode":"GR","countryName":"Greece","latitude":"40.25403000","longitude":"22.34342000","wikiDataId":"Q2817358"},{"id":52816,"name":"Káto Scholári","stateId":2125,"stateCode":"B","stateName":"Central Macedonia","countryId":85,"countryCode":"GR","countryName":"Greece","latitude":"40.42906000","longitude":"23.02978000","wikiDataId":"Q3409187"},{"id":52734,"name":"Kavallári","stateId":2125,"stateCode":"B","stateName":"Central Macedonia","countryId":85,"countryCode":"GR","countryName":"Greece","latitude":"40.71539000","longitude":"23.04588000","wikiDataId":"Q3563131"},{"id":52747,"name":"Kilkís","stateId":2125,"stateCode":"B","stateName":"Central Macedonia","countryId":85,"countryCode":"GR","countryName":"Greece","latitude":"40.99302000","longitude":"22.87433000","wikiDataId":"Q214347"},{"id":52823,"name":"Kítros","stateId":2125,"stateCode":"B","stateName":"Central Macedonia","countryId":85,"countryCode":"GR","countryName":"Greece","latitude":"40.37399000","longitude":"22.57862000","wikiDataId":"Q3566444"},{"id":52752,"name":"Kleidí","stateId":2125,"stateCode":"B","stateName":"Central Macedonia","countryId":85,"countryCode":"GR","countryName":"Greece","latitude":"40.56632000","longitude":"22.59033000","wikiDataId":"Q21080103"},{"id":52782,"name":"Koímisi","stateId":2125,"stateCode":"B","stateName":"Central Macedonia","countryId":85,"countryCode":"GR","countryName":"Greece","latitude":"41.21282000","longitude":"23.30035000","wikiDataId":"Q3564056"},{"id":52758,"name":"Kolchikón","stateId":2125,"stateCode":"B","stateName":"Central Macedonia","countryId":85,"countryCode":"GR","countryName":"Greece","latitude":"40.75662000","longitude":"23.13377000","wikiDataId":"Q18912879"},{"id":52759,"name":"Kolindrós","stateId":2125,"stateCode":"B","stateName":"Central Macedonia","countryId":85,"countryCode":"GR","countryName":"Greece","latitude":"40.47888000","longitude":"22.48319000","wikiDataId":"Q2636829"},{"id":52764,"name":"Kontariótissa","stateId":2125,"stateCode":"B","stateName":"Central Macedonia","countryId":85,"countryCode":"GR","countryName":"Greece","latitude":"40.22754000","longitude":"22.46100000","wikiDataId":"Q2735497"},{"id":52767,"name":"Kopanós","stateId":2125,"stateCode":"B","stateName":"Central Macedonia","countryId":85,"countryCode":"GR","countryName":"Greece","latitude":"40.63382000","longitude":"22.12893000","wikiDataId":"Q3405662"},{"id":52768,"name":"Korinós","stateId":2125,"stateCode":"B","stateName":"Central Macedonia","countryId":85,"countryCode":"GR","countryName":"Greece","latitude":"40.31659000","longitude":"22.58817000","wikiDataId":"Q1784437"},{"id":52771,"name":"Koryfí","stateId":2125,"stateCode":"B","stateName":"Central Macedonia","countryId":85,"countryCode":"GR","countryName":"Greece","latitude":"40.60286000","longitude":"22.50681000","wikiDataId":"Q21080111"},{"id":52775,"name":"Koufália","stateId":2125,"stateCode":"B","stateName":"Central Macedonia","countryId":85,"countryCode":"GR","countryName":"Greece","latitude":"40.77778000","longitude":"22.57194000","wikiDataId":"Q3395964"},{"id":52776,"name":"Kouloúra","stateId":2125,"stateCode":"B","stateName":"Central Macedonia","countryId":85,"countryCode":"GR","countryName":"Greece","latitude":"40.54652000","longitude":"22.31795000","wikiDataId":"Q12078162"},{"id":52786,"name":"Krithiá","stateId":2125,"stateCode":"B","stateName":"Central Macedonia","countryId":85,"countryCode":"GR","countryName":"Greece","latitude":"40.84184000","longitude":"22.98292000","wikiDataId":"Q771125"},{"id":52794,"name":"Krýa Vrýsi","stateId":2125,"stateCode":"B","stateName":"Central Macedonia","countryId":85,"countryCode":"GR","countryName":"Greece","latitude":"40.68738000","longitude":"22.30516000","wikiDataId":"Q3400478"},{"id":52828,"name":"Kýmina","stateId":2125,"stateCode":"B","stateName":"Central Macedonia","countryId":85,"countryCode":"GR","countryName":"Greece","latitude":"40.61354000","longitude":"22.69278000","wikiDataId":"Q3395585"},{"id":52832,"name":"Lagkadás","stateId":2125,"stateCode":"B","stateName":"Central Macedonia","countryId":85,"countryCode":"GR","countryName":"Greece","latitude":"40.75000000","longitude":"23.06667000","wikiDataId":"Q2643058"},{"id":52833,"name":"Lagyná","stateId":2125,"stateCode":"B","stateName":"Central Macedonia","countryId":85,"countryCode":"GR","countryName":"Greece","latitude":"40.72351000","longitude":"23.00420000","wikiDataId":"Q3565344"},{"id":52872,"name":"Lákkoma","stateId":2125,"stateCode":"B","stateName":"Central Macedonia","countryId":85,"countryCode":"GR","countryName":"Greece","latitude":"40.39139000","longitude":"23.05578000","wikiDataId":"Q12236907"},{"id":52843,"name":"Lefkónas","stateId":2125,"stateCode":"B","stateName":"Central Macedonia","countryId":85,"countryCode":"GR","countryName":"Greece","latitude":"41.10029000","longitude":"23.49658000","wikiDataId":"Q10566753"},{"id":52847,"name":"Leptokaryá","stateId":2125,"stateCode":"B","stateName":"Central Macedonia","countryId":85,"countryCode":"GR","countryName":"Greece","latitude":"40.06032000","longitude":"22.56120000","wikiDataId":"Q3491767"},{"id":52850,"name":"Lianovérgi","stateId":2125,"stateCode":"B","stateName":"Central Macedonia","countryId":85,"countryCode":"GR","countryName":"Greece","latitude":"40.63526000","longitude":"22.50820000","wikiDataId":"Q12237742"},{"id":52858,"name":"Lití","stateId":2125,"stateCode":"B","stateName":"Central Macedonia","countryId":85,"countryCode":"GR","countryName":"Greece","latitude":"40.74533000","longitude":"22.97982000","wikiDataId":"Q3393470"},{"id":52859,"name":"Litóchoro","stateId":2125,"stateCode":"B","stateName":"Central Macedonia","countryId":85,"countryCode":"GR","countryName":"Greece","latitude":"40.10056000","longitude":"22.49778000","wikiDataId":"Q776118"},{"id":52881,"name":"Lófos","stateId":2125,"stateCode":"B","stateName":"Central Macedonia","countryId":85,"countryCode":"GR","countryName":"Greece","latitude":"40.24395000","longitude":"22.38033000","wikiDataId":"Q3740106"},{"id":52868,"name":"Loutráki","stateId":2125,"stateCode":"B","stateName":"Central Macedonia","countryId":85,"countryCode":"GR","countryName":"Greece","latitude":"40.97116000","longitude":"21.94659000","wikiDataId":"Q12114682"},{"id":52869,"name":"Loutrós","stateId":2125,"stateCode":"B","stateName":"Central Macedonia","countryId":85,"countryCode":"GR","countryName":"Greece","latitude":"40.58873000","longitude":"22.39976000","wikiDataId":"Q21080165"},{"id":52888,"name":"Makrochóri","stateId":2125,"stateCode":"B","stateName":"Central Macedonia","countryId":85,"countryCode":"GR","countryName":"Greece","latitude":"40.55125000","longitude":"22.24955000","wikiDataId":"Q3561868"},{"id":52891,"name":"Makrýgialos","stateId":2125,"stateCode":"B","stateName":"Central Macedonia","countryId":85,"countryCode":"GR","countryName":"Greece","latitude":"40.41551000","longitude":"22.60392000","wikiDataId":"Q3566392"},{"id":52954,"name":"Mándalo","stateId":2125,"stateCode":"B","stateName":"Central Macedonia","countryId":85,"countryCode":"GR","countryName":"Greece","latitude":"40.85677000","longitude":"22.21264000","wikiDataId":"Q3395982"},{"id":52904,"name":"Marína","stateId":2125,"stateCode":"B","stateName":"Central Macedonia","countryId":85,"countryCode":"GR","countryName":"Greece","latitude":"40.69200000","longitude":"22.10099000","wikiDataId":"Q992348"},{"id":52908,"name":"Mavrothálassa","stateId":2125,"stateCode":"B","stateName":"Central Macedonia","countryId":85,"countryCode":"GR","countryName":"Greece","latitude":"40.89427000","longitude":"23.75048000","wikiDataId":"Q12238416"},{"id":52909,"name":"Mavrovoúni","stateId":2125,"stateCode":"B","stateName":"Central Macedonia","countryId":85,"countryCode":"GR","countryName":"Greece","latitude":"40.78243000","longitude":"22.15629000","wikiDataId":"Q21080174"},{"id":52915,"name":"Megáli Panagía","stateId":2125,"stateCode":"B","stateName":"Central Macedonia","countryId":85,"countryCode":"GR","countryName":"Greece","latitude":"40.44505000","longitude":"23.67999000","wikiDataId":"Q1309801"},{"id":52920,"name":"Melíki","stateId":2125,"stateCode":"B","stateName":"Central Macedonia","countryId":85,"countryCode":"GR","countryName":"Greece","latitude":"40.51685000","longitude":"22.39599000","wikiDataId":"Q3854216"},{"id":52921,"name":"Melíssi","stateId":2125,"stateCode":"B","stateName":"Central Macedonia","countryId":85,"countryCode":"GR","countryName":"Greece","latitude":"40.77406000","longitude":"22.35304000","wikiDataId":"Q3854216"},{"id":52919,"name":"Melissochóri","stateId":2125,"stateCode":"B","stateName":"Central Macedonia","countryId":85,"countryCode":"GR","countryName":"Greece","latitude":"40.76796000","longitude":"22.92858000","wikiDataId":"Q3564041"},{"id":52924,"name":"Meneméni","stateId":2125,"stateCode":"B","stateName":"Central Macedonia","countryId":85,"countryCode":"GR","countryName":"Greece","latitude":"40.65829000","longitude":"22.89712000","wikiDataId":"Q1633172"},{"id":52927,"name":"Mesiméri","stateId":2125,"stateCode":"B","stateName":"Central Macedonia","countryId":85,"countryCode":"GR","countryName":"Greece","latitude":"40.41344000","longitude":"23.00750000","wikiDataId":"Q2010632"},{"id":52934,"name":"Mikró Monastíri","stateId":2125,"stateCode":"B","stateName":"Central Macedonia","countryId":85,"countryCode":"GR","countryName":"Greece","latitude":"40.70430000","longitude":"22.54112000","wikiDataId":"Q985630"},{"id":52937,"name":"Mitroúsi","stateId":2125,"stateCode":"B","stateName":"Central Macedonia","countryId":85,"countryCode":"GR","countryName":"Greece","latitude":"41.07041000","longitude":"23.46064000","wikiDataId":"Q12086484"},{"id":52996,"name":"Náousa","stateId":2125,"stateCode":"B","stateName":"Central Macedonia","countryId":85,"countryCode":"GR","countryName":"Greece","latitude":"40.62944000","longitude":"22.06806000","wikiDataId":"Q567755"},{"id":53002,"name":"Néa Apollonía","stateId":2125,"stateCode":"B","stateName":"Central Macedonia","countryId":85,"countryCode":"GR","countryName":"Greece","latitude":"40.62558000","longitude":"23.44074000","wikiDataId":"Q1611799"},{"id":53042,"name":"Néa Éfesos","stateId":2125,"stateCode":"B","stateName":"Central Macedonia","countryId":85,"countryCode":"GR","countryName":"Greece","latitude":"40.22923000","longitude":"22.49811000","wikiDataId":"Q3563119"},{"id":53007,"name":"Néa Flogitá","stateId":2125,"stateCode":"B","stateName":"Central Macedonia","countryId":85,"countryCode":"GR","countryName":"Greece","latitude":"40.26108000","longitude":"23.22107000","wikiDataId":"Q3566817"},{"id":53008,"name":"Néa Fókaia","stateId":2125,"stateCode":"B","stateName":"Central Macedonia","countryId":85,"countryCode":"GR","countryName":"Greece","latitude":"40.13333000","longitude":"23.39754000","wikiDataId":"Q12249463"},{"id":53012,"name":"Néa Kallikráteia","stateId":2125,"stateCode":"B","stateName":"Central Macedonia","countryId":85,"countryCode":"GR","countryName":"Greece","latitude":"40.31312000","longitude":"23.06343000","wikiDataId":"Q1722488"},{"id":53017,"name":"Néa Magnisía","stateId":2125,"stateCode":"B","stateName":"Central Macedonia","countryId":85,"countryCode":"GR","countryName":"Greece","latitude":"40.68785000","longitude":"22.84582000","wikiDataId":"Q1001857"},{"id":53023,"name":"Néa Málgara","stateId":2125,"stateCode":"B","stateName":"Central Macedonia","countryId":85,"countryCode":"GR","countryName":"Greece","latitude":"40.60985000","longitude":"22.68196000","wikiDataId":"Q2292363"},{"id":53019,"name":"Néa Mesimvría","stateId":2125,"stateCode":"B","stateName":"Central Macedonia","countryId":85,"countryCode":"GR","countryName":"Greece","latitude":"40.75158000","longitude":"22.76904000","wikiDataId":"Q3396812"},{"id":53020,"name":"Néa Michanióna","stateId":2125,"stateCode":"B","stateName":"Central Macedonia","countryId":85,"countryCode":"GR","countryName":"Greece","latitude":"40.46371000","longitude":"22.86170000","wikiDataId":"Q2472821"},{"id":53021,"name":"Néa Moudhaniá","stateId":2125,"stateCode":"B","stateName":"Central Macedonia","countryId":85,"countryCode":"GR","countryName":"Greece","latitude":"40.24390000","longitude":"23.28484000","wikiDataId":"Q1689422"},{"id":53029,"name":"Néa Pélla","stateId":2125,"stateCode":"B","stateName":"Central Macedonia","countryId":85,"countryCode":"GR","countryName":"Greece","latitude":"40.76516000","longitude":"22.49173000","wikiDataId":"Q3565468"},{"id":53026,"name":"Néa Plágia","stateId":2125,"stateCode":"B","stateName":"Central Macedonia","countryId":85,"countryCode":"GR","countryName":"Greece","latitude":"40.26537000","longitude":"23.20376000","wikiDataId":"Q12249459"},{"id":53027,"name":"Néa Poteídaia","stateId":2125,"stateCode":"B","stateName":"Central Macedonia","countryId":85,"countryCode":"GR","countryName":"Greece","latitude":"40.19409000","longitude":"23.32832000","wikiDataId":"Q12249459"},{"id":53028,"name":"Néa Potídhaia","stateId":2125,"stateCode":"B","stateName":"Central Macedonia","countryId":85,"countryCode":"GR","countryName":"Greece","latitude":"40.19428000","longitude":"23.32874000","wikiDataId":"Q12881462"},{"id":53032,"name":"Néa Róda","stateId":2125,"stateCode":"B","stateName":"Central Macedonia","countryId":85,"countryCode":"GR","countryName":"Greece","latitude":"40.38119000","longitude":"23.92374000","wikiDataId":"Q3495345"},{"id":53036,"name":"Néa Sánta","stateId":2125,"stateCode":"B","stateName":"Central Macedonia","countryId":85,"countryCode":"GR","countryName":"Greece","latitude":"40.84084000","longitude":"22.92163000","wikiDataId":"Q3555748"},{"id":53037,"name":"Néa Tríglia","stateId":2125,"stateCode":"B","stateName":"Central Macedonia","countryId":85,"countryCode":"GR","countryName":"Greece","latitude":"40.30575000","longitude":"23.20660000","wikiDataId":"Q3566406"},{"id":53039,"name":"Néa Vrasná","stateId":2125,"stateCode":"B","stateName":"Central Macedonia","countryId":85,"countryCode":"GR","countryName":"Greece","latitude":"40.70592000","longitude":"23.69850000","wikiDataId":"Q21590251"},{"id":53041,"name":"Néa Zíchni","stateId":2125,"stateCode":"B","stateName":"Central Macedonia","countryId":85,"countryCode":"GR","countryName":"Greece","latitude":"41.03204000","longitude":"23.82870000","wikiDataId":"Q3399414"},{"id":52961,"name":"Neapoli","stateId":2125,"stateCode":"B","stateName":"Central Macedonia","countryId":85,"countryCode":"GR","countryName":"Greece","latitude":"40.65320000","longitude":"22.94156000","wikiDataId":"Q1633145"},{"id":53043,"name":"Néo Agionéri","stateId":2125,"stateCode":"B","stateName":"Central Macedonia","countryId":85,"countryCode":"GR","countryName":"Greece","latitude":"40.80826000","longitude":"22.70733000","wikiDataId":"Q3563119"},{"id":53044,"name":"Néo Petrítsi","stateId":2125,"stateCode":"B","stateName":"Central Macedonia","countryId":85,"countryCode":"GR","countryName":"Greece","latitude":"41.27459000","longitude":"23.29381000","wikiDataId":"Q3395558"},{"id":53046,"name":"Néo Rýsi","stateId":2125,"stateCode":"B","stateName":"Central Macedonia","countryId":85,"countryCode":"GR","countryName":"Greece","latitude":"40.49605000","longitude":"22.98794000","wikiDataId":"Q12288144"},{"id":53047,"name":"Néo Soúli","stateId":2125,"stateCode":"B","stateName":"Central Macedonia","countryId":85,"countryCode":"GR","countryName":"Greece","latitude":"41.09397000","longitude":"23.64376000","wikiDataId":"Q12288144"},{"id":52966,"name":"Neochóri","stateId":2125,"stateCode":"B","stateName":"Central Macedonia","countryId":85,"countryCode":"GR","countryName":"Greece","latitude":"41.05231000","longitude":"23.57997000","wikiDataId":"Q12249555"},{"id":52963,"name":"Neochoroúda","stateId":2125,"stateCode":"B","stateName":"Central Macedonia","countryId":85,"countryCode":"GR","countryName":"Greece","latitude":"40.73817000","longitude":"22.87557000","wikiDataId":"Q15261586"},{"id":53048,"name":"Néoi Epivátes","stateId":2125,"stateCode":"B","stateName":"Central Macedonia","countryId":85,"countryCode":"GR","countryName":"Greece","latitude":"40.49863000","longitude":"22.91192000","wikiDataId":"Q3555707"},{"id":53050,"name":"Néos Marmarás","stateId":2125,"stateCode":"B","stateName":"Central Macedonia","countryId":85,"countryCode":"GR","countryName":"Greece","latitude":"40.09610000","longitude":"23.78323000","wikiDataId":"Q200417"},{"id":53051,"name":"Néos Mylótopos","stateId":2125,"stateCode":"B","stateName":"Central Macedonia","countryId":85,"countryCode":"GR","countryName":"Greece","latitude":"40.81872000","longitude":"22.35489000","wikiDataId":"Q3561954"},{"id":53053,"name":"Néos Skopós","stateId":2125,"stateCode":"B","stateName":"Central Macedonia","countryId":85,"countryCode":"GR","countryName":"Greece","latitude":"41.02390000","longitude":"23.60927000","wikiDataId":"Q3395553"},{"id":52975,"name":"Nigríta","stateId":2125,"stateCode":"B","stateName":"Central Macedonia","countryId":85,"countryCode":"GR","countryName":"Greece","latitude":"40.90528000","longitude":"23.49944000","wikiDataId":"Q2272672"},{"id":53055,"name":"Níkiti","stateId":2125,"stateCode":"B","stateName":"Central Macedonia","countryId":85,"countryCode":"GR","countryName":"Greece","latitude":"40.22204000","longitude":"23.66837000","wikiDataId":"Q1018264"},{"id":52977,"name":"Nisí","stateId":2125,"stateCode":"B","stateName":"Central Macedonia","countryId":85,"countryCode":"GR","countryName":"Greece","latitude":"40.63610000","longitude":"22.38884000","wikiDataId":"Q12249501"},{"id":52981,"name":"Nomós Chalkidikís","stateId":2125,"stateCode":"B","stateName":"Central Macedonia","countryId":85,"countryCode":"GR","countryName":"Greece","latitude":"40.41667000","longitude":"23.50000000","wikiDataId":"Q18564295"},{"id":52990,"name":"Nomós Péllis","stateId":2125,"stateCode":"B","stateName":"Central Macedonia","countryId":85,"countryCode":"GR","countryName":"Greece","latitude":"40.83333000","longitude":"22.25000000","wikiDataId":"Q649484"},{"id":52992,"name":"Nomós Thessaloníkis","stateId":2125,"stateCode":"B","stateName":"Central Macedonia","countryId":85,"countryCode":"GR","countryName":"Greece","latitude":"40.66667000","longitude":"23.00000000","wikiDataId":"Q210176"},{"id":53423,"name":"Ólynthos","stateId":2125,"stateCode":"B","stateName":"Central Macedonia","countryId":85,"countryCode":"GR","countryName":"Greece","latitude":"40.29147000","longitude":"23.34205000","wikiDataId":"Q1141669"},{"id":53059,"name":"Oraiókastro","stateId":2125,"stateCode":"B","stateName":"Central Macedonia","countryId":85,"countryCode":"GR","countryName":"Greece","latitude":"40.73083000","longitude":"22.91722000","wikiDataId":"Q2274820"},{"id":53063,"name":"Ormýlia","stateId":2125,"stateCode":"B","stateName":"Central Macedonia","countryId":85,"countryCode":"GR","countryName":"Greece","latitude":"40.29451000","longitude":"23.54332000","wikiDataId":"Q773966"},{"id":53066,"name":"Ouranoupolis","stateId":2125,"stateCode":"B","stateName":"Central Macedonia","countryId":85,"countryCode":"GR","countryName":"Greece","latitude":"40.33333000","longitude":"23.98333000","wikiDataId":"Q663353"},{"id":53082,"name":"Palaífyto","stateId":2125,"stateCode":"B","stateName":"Central Macedonia","countryId":85,"countryCode":"GR","countryName":"Greece","latitude":"40.78283000","longitude":"22.27388000","wikiDataId":"Q12882644"},{"id":53072,"name":"Palaiochóri","stateId":2125,"stateCode":"B","stateName":"Central Macedonia","countryId":85,"countryCode":"GR","countryName":"Greece","latitude":"40.49186000","longitude":"23.64928000","wikiDataId":"Q1015083"},{"id":53073,"name":"Palaiokómi","stateId":2125,"stateCode":"B","stateName":"Central Macedonia","countryId":85,"countryCode":"GR","countryName":"Greece","latitude":"40.87068000","longitude":"23.90121000","wikiDataId":"Q1015083"},{"id":53086,"name":"Panórama","stateId":2125,"stateCode":"B","stateName":"Central Macedonia","countryId":85,"countryCode":"GR","countryName":"Greece","latitude":"40.58779000","longitude":"23.03150000","wikiDataId":"Q1014278"},{"id":53091,"name":"Paralía","stateId":2125,"stateCode":"B","stateName":"Central Macedonia","countryId":85,"countryCode":"GR","countryName":"Greece","latitude":"40.26710000","longitude":"22.59615000","wikiDataId":"Q1229905"},{"id":53100,"name":"Patrída","stateId":2125,"stateCode":"B","stateName":"Central Macedonia","countryId":85,"countryCode":"GR","countryName":"Greece","latitude":"40.56071000","longitude":"22.18545000","wikiDataId":"Q2056961"},{"id":53170,"name":"Péfka","stateId":2125,"stateCode":"B","stateName":"Central Macedonia","countryId":85,"countryCode":"GR","countryName":"Greece","latitude":"40.65806000","longitude":"22.99378000","wikiDataId":"Q2164623"},{"id":53102,"name":"Pefkochóri","stateId":2125,"stateCode":"B","stateName":"Central Macedonia","countryId":85,"countryCode":"GR","countryName":"Greece","latitude":"39.98784000","longitude":"23.61219000","wikiDataId":"Q3560020"},{"id":53172,"name":"Pélla","stateId":2125,"stateCode":"B","stateName":"Central Macedonia","countryId":85,"countryCode":"GR","countryName":"Greece","latitude":"40.76169000","longitude":"22.52637000","wikiDataId":"Q213679"},{"id":53106,"name":"Pentálofos","stateId":2125,"stateCode":"B","stateName":"Central Macedonia","countryId":85,"countryCode":"GR","countryName":"Greece","latitude":"40.74296000","longitude":"22.85256000","wikiDataId":"Q3555667"},{"id":53105,"name":"Pentaplátano","stateId":2125,"stateCode":"B","stateName":"Central Macedonia","countryId":85,"countryCode":"GR","countryName":"Greece","latitude":"40.81902000","longitude":"22.41903000","wikiDataId":"Q3555667"},{"id":53110,"name":"Peraía","stateId":2125,"stateCode":"B","stateName":"Central Macedonia","countryId":85,"countryCode":"GR","countryName":"Greece","latitude":"40.49874000","longitude":"22.92617000","wikiDataId":"Q3554474"},{"id":53116,"name":"Perístasi","stateId":2125,"stateCode":"B","stateName":"Central Macedonia","countryId":85,"countryCode":"GR","countryName":"Greece","latitude":"40.27443000","longitude":"22.54164000","wikiDataId":"Q3606024"},{"id":53111,"name":"Peristerá","stateId":2125,"stateCode":"B","stateName":"Central Macedonia","countryId":85,"countryCode":"GR","countryName":"Greece","latitude":"40.54881000","longitude":"23.16540000","wikiDataId":"Q3554474"},{"id":53125,"name":"Plagiári","stateId":2125,"stateCode":"B","stateName":"Central Macedonia","countryId":85,"countryCode":"GR","countryName":"Greece","latitude":"40.47276000","longitude":"22.95790000","wikiDataId":"Q58976"},{"id":53128,"name":"Platý","stateId":2125,"stateCode":"B","stateName":"Central Macedonia","countryId":85,"countryCode":"GR","countryName":"Greece","latitude":"40.64241000","longitude":"22.53458000","wikiDataId":"Q2098876"},{"id":53134,"name":"Políchni","stateId":2125,"stateCode":"B","stateName":"Central Macedonia","countryId":85,"countryCode":"GR","countryName":"Greece","latitude":"40.66671000","longitude":"22.94881000","wikiDataId":"Q182327"},{"id":53135,"name":"Polýgyros","stateId":2125,"stateCode":"B","stateName":"Central Macedonia","countryId":85,"countryCode":"GR","countryName":"Greece","latitude":"40.37704000","longitude":"23.44135000","wikiDataId":"Q14201950"},{"id":53133,"name":"Polykárpi","stateId":2125,"stateCode":"B","stateName":"Central Macedonia","countryId":85,"countryCode":"GR","countryName":"Greece","latitude":"40.92598000","longitude":"22.01634000","wikiDataId":"Q3907740"},{"id":53136,"name":"Polýkastro","stateId":2125,"stateCode":"B","stateName":"Central Macedonia","countryId":85,"countryCode":"GR","countryName":"Greece","latitude":"40.99444000","longitude":"22.56909000","wikiDataId":"Q1747381"},{"id":53137,"name":"Pontisméno","stateId":2125,"stateCode":"B","stateName":"Central Macedonia","countryId":85,"countryCode":"GR","countryName":"Greece","latitude":"41.20885000","longitude":"23.28325000","wikiDataId":"Q1747381"},{"id":53139,"name":"Portariá","stateId":2125,"stateCode":"B","stateName":"Central Macedonia","countryId":85,"countryCode":"GR","countryName":"Greece","latitude":"40.28405000","longitude":"23.29549000","wikiDataId":"Q12199866"},{"id":53151,"name":"Próchoma","stateId":2125,"stateCode":"B","stateName":"Central Macedonia","countryId":85,"countryCode":"GR","countryName":"Greece","latitude":"40.79826000","longitude":"22.66659000","wikiDataId":"Q3394772"},{"id":53143,"name":"Profítis Ilías","stateId":2125,"stateCode":"B","stateName":"Central Macedonia","countryId":85,"countryCode":"GR","countryName":"Greece","latitude":"40.81373000","longitude":"22.16166000","wikiDataId":"Q12198148"},{"id":53152,"name":"Prómachoi","stateId":2125,"stateCode":"B","stateName":"Central Macedonia","countryId":85,"countryCode":"GR","countryName":"Greece","latitude":"41.02517000","longitude":"22.00437000","wikiDataId":"Q3394772"},{"id":53153,"name":"Próti","stateId":2125,"stateCode":"B","stateName":"Central Macedonia","countryId":85,"countryCode":"GR","countryName":"Greece","latitude":"40.94411000","longitude":"24.00118000","wikiDataId":"Q2642899"},{"id":53146,"name":"Provatás","stateId":2125,"stateCode":"B","stateName":"Central Macedonia","countryId":85,"countryCode":"GR","countryName":"Greece","latitude":"41.06825000","longitude":"23.39030000","wikiDataId":"Q1115715"},{"id":53158,"name":"Pylaía","stateId":2125,"stateCode":"B","stateName":"Central Macedonia","countryId":85,"countryCode":"GR","countryName":"Greece","latitude":"40.59918000","longitude":"22.98613000","wikiDataId":"Q1637671"},{"id":53188,"name":"Ritíni","stateId":2125,"stateCode":"B","stateName":"Central Macedonia","countryId":85,"countryCode":"GR","countryName":"Greece","latitude":"40.28835000","longitude":"22.28361000","wikiDataId":"Q200908"},{"id":53189,"name":"Rizári","stateId":2125,"stateCode":"B","stateName":"Central Macedonia","countryId":85,"countryCode":"GR","countryName":"Greece","latitude":"40.78373000","longitude":"22.08800000","wikiDataId":"Q1170152"},{"id":53190,"name":"Rizó","stateId":2125,"stateCode":"B","stateName":"Central Macedonia","countryId":85,"countryCode":"GR","countryName":"Greece","latitude":"40.73331000","longitude":"22.13674000","wikiDataId":"Q1170152"},{"id":53191,"name":"Rizómata","stateId":2125,"stateCode":"B","stateName":"Central Macedonia","countryId":85,"countryCode":"GR","countryName":"Greece","latitude":"40.35061000","longitude":"22.21079000","wikiDataId":"Q3556285"},{"id":53195,"name":"Rodolívos","stateId":2125,"stateCode":"B","stateName":"Central Macedonia","countryId":85,"countryCode":"GR","countryName":"Greece","latitude":"40.92055000","longitude":"23.97489000","wikiDataId":"Q3399449"},{"id":53265,"name":"Sárti","stateId":2125,"stateCode":"B","stateName":"Central Macedonia","countryId":85,"countryCode":"GR","countryName":"Greece","latitude":"40.09369000","longitude":"23.97859000","wikiDataId":"Q750762"},{"id":53268,"name":"Sérres","stateId":2125,"stateCode":"B","stateName":"Central Macedonia","countryId":85,"countryCode":"GR","countryName":"Greece","latitude":"41.08499000","longitude":"23.54757000","wikiDataId":"Q206957"},{"id":53212,"name":"Sevastianá","stateId":2125,"stateCode":"B","stateName":"Central Macedonia","countryId":85,"countryCode":"GR","countryName":"Greece","latitude":"40.76874000","longitude":"22.12346000","wikiDataId":"Q11517425"},{"id":53213,"name":"Sfendámi","stateId":2125,"stateCode":"B","stateName":"Central Macedonia","countryId":85,"countryCode":"GR","countryName":"Greece","latitude":"40.41307000","longitude":"22.54677000","wikiDataId":"Q12073806"},{"id":53214,"name":"Sidirókastro","stateId":2125,"stateCode":"B","stateName":"Central Macedonia","countryId":85,"countryCode":"GR","countryName":"Greece","latitude":"41.23499000","longitude":"23.38899000","wikiDataId":"Q1018794"},{"id":53270,"name":"Símantra","stateId":2125,"stateCode":"B","stateName":"Central Macedonia","countryId":85,"countryCode":"GR","countryName":"Greece","latitude":"40.34563000","longitude":"23.31026000","wikiDataId":"Q1711138"},{"id":53271,"name":"Síndos","stateId":2125,"stateCode":"B","stateName":"Central Macedonia","countryId":85,"countryCode":"GR","countryName":"Greece","latitude":"40.67045000","longitude":"22.80545000","wikiDataId":"Q3392954"},{"id":53222,"name":"Skotoússa","stateId":2125,"stateCode":"B","stateName":"Central Macedonia","countryId":85,"countryCode":"GR","countryName":"Greece","latitude":"41.12844000","longitude":"23.38174000","wikiDataId":"Q3962592"},{"id":53223,"name":"Skoútari","stateId":2125,"stateCode":"B","stateName":"Central Macedonia","countryId":85,"countryCode":"GR","countryName":"Greece","latitude":"41.01871000","longitude":"23.51971000","wikiDataId":"Q3405718"},{"id":53228,"name":"Skýdra","stateId":2125,"stateCode":"B","stateName":"Central Macedonia","countryId":85,"countryCode":"GR","countryName":"Greece","latitude":"40.76722000","longitude":"22.15194000","wikiDataId":"Q1195159"},{"id":53231,"name":"Sochós","stateId":2125,"stateCode":"B","stateName":"Central Macedonia","countryId":85,"countryCode":"GR","countryName":"Greece","latitude":"40.81788000","longitude":"23.35546000","wikiDataId":"Q2022196"},