[{"id":682,"name":"Balvanera","stateId":3656,"stateCode":"B","stateName":"Buenos Aires","countryId":11,"countryCode":"AR","countryName":"Argentina","latitude":"-34.61032000","longitude":"-58.39766000","wikiDataId":"Q805848"},{"id":683,"name":"Barracas","stateId":3656,"stateCode":"B","stateName":"Buenos Aires","countryId":11,"countryCode":"AR","countryName":"Argentina","latitude":"-34.64966000","longitude":"-58.38341000","wikiDataId":"Q680964"},{"id":687,"name":"Belgrano","stateId":3656,"stateCode":"B","stateName":"Buenos Aires","countryId":11,"countryCode":"AR","countryName":"Argentina","latitude":"-34.56270000","longitude":"-58.45829000","wikiDataId":"Q815569"},{"id":697,"name":"Boedo","stateId":3656,"stateCode":"B","stateName":"Buenos Aires","countryId":11,"countryCode":"AR","countryName":"Argentina","latitude":"-34.63333000","longitude":"-58.41667000","wikiDataId":"Q890147"},{"id":704,"name":"Buenos Aires","stateId":3656,"stateCode":"B","stateName":"Buenos Aires","countryId":11,"countryCode":"AR","countryName":"Argentina","latitude":"-34.61315000","longitude":"-58.37723000","wikiDataId":"Q1486"},{"id":773,"name":"Colegiales","stateId":3656,"stateCode":"B","stateName":"Buenos Aires","countryId":11,"countryCode":"AR","countryName":"Argentina","latitude":"-34.57365000","longitude":"-58.44924000","wikiDataId":"Q106063"},{"id":1380,"name":"Retiro","stateId":3656,"stateCode":"B","stateName":"Buenos Aires","countryId":11,"countryCode":"AR","countryName":"Argentina","latitude":"-34.58333000","longitude":"-58.38333000","wikiDataId":"Q44206"},{"id":1561,"name":"Villa Lugano","stateId":3656,"stateCode":"B","stateName":"Buenos Aires","countryId":11,"countryCode":"AR","countryName":"Argentina","latitude":"-34.67907000","longitude":"-58.47263000","wikiDataId":"Q9093939"},{"id":1570,"name":"Villa Ortúzar","stateId":3656,"stateCode":"B","stateName":"Buenos Aires","countryId":11,"countryCode":"AR","countryName":"Argentina","latitude":"-34.57973000","longitude":"-58.46829000","wikiDataId":"Q1016067"},{"id":1576,"name":"Villa Santa Rita","stateId":3656,"stateCode":"B","stateName":"Buenos Aires","countryId":11,"countryCode":"AR","countryName":"Argentina","latitude":"-34.61082000","longitude":"-58.48100000","wikiDataId":"Q10391476"},{"id":659,"name":"Ancasti","stateId":3647,"stateCode":"K","stateName":"Catamarca","countryId":11,"countryCode":"AR","countryName":"Argentina","latitude":"-28.81247000","longitude":"-65.50145000","wikiDataId":"Q21845580"},{"id":661,"name":"Andalgalá","stateId":3647,"stateCode":"K","stateName":"Catamarca","countryId":11,"countryCode":"AR","countryName":"Argentina","latitude":"-27.58185000","longitude":"-66.31626000","wikiDataId":"Q489679"},{"id":663,"name":"Antofagasta de la Sierra","stateId":3647,"stateCode":"K","stateName":"Catamarca","countryId":11,"countryCode":"AR","countryName":"Argentina","latitude":"-26.05940000","longitude":"-67.40636000","wikiDataId":"Q2536371"},{"id":726,"name":"Capayán","stateId":3647,"stateCode":"K","stateName":"Catamarca","countryId":11,"countryCode":"AR","countryName":"Argentina","latitude":"-28.77436000","longitude":"-66.04749000","wikiDataId":"Q21844014"},{"id":824,"name":"Departamento de Ambato","stateId":3647,"stateCode":"K","stateName":"Catamarca","countryId":11,"countryCode":"AR","countryName":"Argentina","latitude":"-28.00000000","longitude":"-65.91667000","wikiDataId":"Q688734"},{"id":825,"name":"Departamento de Ancasti","stateId":3647,"stateCode":"K","stateName":"Catamarca","countryId":11,"countryCode":"AR","countryName":"Argentina","latitude":"-29.00000000","longitude":"-65.50000000","wikiDataId":"Q760261"},{"id":826,"name":"Departamento de Andalgalá","stateId":3647,"stateCode":"K","stateName":"Catamarca","countryId":11,"countryCode":"AR","countryName":"Argentina","latitude":"-27.58333000","longitude":"-66.46667000","wikiDataId":"Q1190227"},{"id":829,"name":"Departamento de Antofagasta de la Sierra","stateId":3647,"stateCode":"K","stateName":"Catamarca","countryId":11,"countryCode":"AR","countryName":"Argentina","latitude":"-26.00000000","longitude":"-67.58333000","wikiDataId":"Q1190229"},{"id":846,"name":"Departamento de Capayán","stateId":3647,"stateCode":"K","stateName":"Catamarca","countryId":11,"countryCode":"AR","countryName":"Argentina","latitude":"-28.83333000","longitude":"-66.00000000","wikiDataId":"Q858107"},{"id":849,"name":"Departamento de Capital","stateId":3647,"stateCode":"K","stateName":"Catamarca","countryId":11,"countryCode":"AR","countryName":"Argentina","latitude":"-28.41667000","longitude":"-65.80000000","wikiDataId":"Q858182"},{"id":877,"name":"Departamento de El Alto","stateId":3647,"stateCode":"K","stateName":"Catamarca","countryId":11,"countryCode":"AR","countryName":"Argentina","latitude":"-28.41667000","longitude":"-65.41667000","wikiDataId":"Q899638"},{"id":884,"name":"Departamento de Fray Mamerto Esquiú","stateId":3647,"stateCode":"K","stateName":"Catamarca","countryId":11,"countryCode":"AR","countryName":"Argentina","latitude":"-28.30000000","longitude":"-65.75000000","wikiDataId":"Q775145"},{"id":918,"name":"Departamento de La Paz","stateId":3647,"stateCode":"K","stateName":"Catamarca","countryId":11,"countryCode":"AR","countryName":"Argentina","latitude":"-29.25000000","longitude":"-65.25000000","wikiDataId":"Q1127089"},{"id":959,"name":"Departamento de Pomán","stateId":3647,"stateCode":"K","stateName":"Catamarca","countryId":11,"countryCode":"AR","countryName":"Argentina","latitude":"-28.25000000","longitude":"-66.41667000","wikiDataId":"Q1190958"},{"id":1006,"name":"Departamento de Santa María","stateId":3647,"stateCode":"K","stateName":"Catamarca","countryId":11,"countryCode":"AR","countryName":"Argentina","latitude":"-26.66667000","longitude":"-66.41667000","wikiDataId":"Q1080656"},{"id":1007,"name":"Departamento de Santa Rosa","stateId":3647,"stateCode":"K","stateName":"Catamarca","countryId":11,"countryCode":"AR","countryName":"Argentina","latitude":"-28.08333000","longitude":"-65.25000000","wikiDataId":"Q638965"},{"id":1020,"name":"Departamento de Tinogasta","stateId":3647,"stateCode":"K","stateName":"Catamarca","countryId":11,"countryCode":"AR","countryName":"Argentina","latitude":"-27.50000000","longitude":"-68.00000000","wikiDataId":"Q1080210"},{"id":1030,"name":"Departamento de Valle Viejo","stateId":3647,"stateCode":"K","stateName":"Catamarca","countryId":11,"countryCode":"AR","countryName":"Argentina","latitude":"-28.58333000","longitude":"-65.75000000","wikiDataId":"Q288586"},{"id":1060,"name":"El Rodeo","stateId":3647,"stateCode":"K","stateName":"Catamarca","countryId":11,"countryCode":"AR","countryName":"Argentina","latitude":"-28.21518000","longitude":"-65.87420000","wikiDataId":"Q21842213"},{"id":1078,"name":"Fiambalá","stateId":3647,"stateCode":"K","stateName":"Catamarca","countryId":11,"countryCode":"AR","countryName":"Argentina","latitude":"-27.67225000","longitude":"-67.61870000","wikiDataId":"Q2613214"},{"id":1142,"name":"Hualfín","stateId":3647,"stateCode":"K","stateName":"Catamarca","countryId":11,"countryCode":"AR","countryName":"Argentina","latitude":"-27.22896000","longitude":"-66.83131000","wikiDataId":"Q1774287"},{"id":1145,"name":"Huillapima","stateId":3647,"stateCode":"K","stateName":"Catamarca","countryId":11,"countryCode":"AR","countryName":"Argentina","latitude":"-28.72533000","longitude":"-65.97870000","wikiDataId":"Q81653"},{"id":1149,"name":"Icaño","stateId":3647,"stateCode":"K","stateName":"Catamarca","countryId":11,"countryCode":"AR","countryName":"Argentina","latitude":"-28.91934000","longitude":"-65.32817000","wikiDataId":"Q3791626"},{"id":1197,"name":"La Puerta de San José","stateId":3647,"stateCode":"K","stateName":"Catamarca","countryId":11,"countryCode":"AR","countryName":"Argentina","latitude":"-27.55000000","longitude":"-67.01667000","wikiDataId":"Q1774215"},{"id":1239,"name":"Londres","stateId":3647,"stateCode":"K","stateName":"Catamarca","countryId":11,"countryCode":"AR","countryName":"Argentina","latitude":"-27.71439000","longitude":"-67.13349000","wikiDataId":"Q930973"},{"id":1243,"name":"Los Altos","stateId":3647,"stateCode":"K","stateName":"Catamarca","countryId":11,"countryCode":"AR","countryName":"Argentina","latitude":"-28.04845000","longitude":"-65.49945000","wikiDataId":"Q6681893"},{"id":1256,"name":"Los Varela","stateId":3647,"stateCode":"K","stateName":"Catamarca","countryId":11,"countryCode":"AR","countryName":"Argentina","latitude":"-27.93003000","longitude":"-65.87153000","wikiDataId":"Q1774269"},{"id":1294,"name":"Mutquín","stateId":3647,"stateCode":"K","stateName":"Catamarca","countryId":11,"countryCode":"AR","countryName":"Argentina","latitude":"-28.32104000","longitude":"-66.14253000","wikiDataId":"Q2387512"},{"id":1340,"name":"Pomán","stateId":3647,"stateCode":"K","stateName":"Catamarca","countryId":11,"countryCode":"AR","countryName":"Argentina","latitude":"-28.39455000","longitude":"-66.22052000","wikiDataId":"Q2437304"},{"id":1350,"name":"Puerta de Corral Quemado","stateId":3647,"stateCode":"K","stateName":"Catamarca","countryId":11,"countryCode":"AR","countryName":"Argentina","latitude":"-27.23000000","longitude":"-66.93635000","wikiDataId":"Q1774277"},{"id":1378,"name":"Recreo","stateId":3647,"stateCode":"K","stateName":"Catamarca","countryId":11,"countryCode":"AR","countryName":"Argentina","latitude":"-29.28184000","longitude":"-65.06096000","wikiDataId":"Q766923"},{"id":1408,"name":"San Antonio","stateId":3647,"stateCode":"K","stateName":"Catamarca","countryId":11,"countryCode":"AR","countryName":"Argentina","latitude":"-28.01009000","longitude":"-65.70874000","wikiDataId":"Q7413304"},{"id":1421,"name":"San Fernando del Valle de Catamarca","stateId":3647,"stateCode":"K","stateName":"Catamarca","countryId":11,"countryCode":"AR","countryName":"Argentina","latitude":"-28.46957000","longitude":"-65.78524000","wikiDataId":"Q44162"},{"id":1464,"name":"Santa María","stateId":3647,"stateCode":"K","stateName":"Catamarca","countryId":11,"countryCode":"AR","countryName":"Argentina","latitude":"-26.69547000","longitude":"-66.04732000","wikiDataId":"Q1012407"},{"id":1505,"name":"Tinogasta","stateId":3647,"stateCode":"K","stateName":"Catamarca","countryId":11,"countryCode":"AR","countryName":"Argentina","latitude":"-28.06319000","longitude":"-67.56488000","wikiDataId":"Q81563"},{"id":677,"name":"Aviá Terai","stateId":3640,"stateCode":"H","stateName":"Chaco","countryId":11,"countryCode":"AR","countryName":"Argentina","latitude":"-26.68532000","longitude":"-60.72920000","wikiDataId":"Q528399"},{"id":685,"name":"Barranqueras","stateId":3640,"stateCode":"H","stateName":"Chaco","countryId":11,"countryCode":"AR","countryName":"Argentina","latitude":"-27.48132000","longitude":"-58.93925000","wikiDataId":"Q2885504"},{"id":686,"name":"Basail","stateId":3640,"stateCode":"H","stateName":"Chaco","countryId":11,"countryCode":"AR","countryName":"Argentina","latitude":"-27.88539000","longitude":"-59.28245000","wikiDataId":"Q1578997"},{"id":719,"name":"Campo Largo","stateId":3640,"stateCode":"H","stateName":"Chaco","countryId":11,"countryCode":"AR","countryName":"Argentina","latitude":"-26.80077000","longitude":"-60.84215000","wikiDataId":"Q21843910"},{"id":730,"name":"Capitán Solari","stateId":3640,"stateCode":"H","stateName":"Chaco","countryId":11,"countryCode":"AR","countryName":"Argentina","latitude":"-26.80215000","longitude":"-59.56089000","wikiDataId":"Q1579019"},{"id":737,"name":"Castelli","stateId":3640,"stateCode":"H","stateName":"Chaco","countryId":11,"countryCode":"AR","countryName":"Argentina","latitude":"-25.94679000","longitude":"-60.61947000","wikiDataId":"Q568624"},{"id":753,"name":"Charadai","stateId":3640,"stateCode":"H","stateName":"Chaco","countryId":11,"countryCode":"AR","countryName":"Argentina","latitude":"-27.65503000","longitude":"-59.86291000","wikiDataId":"Q1578855"},{"id":754,"name":"Charata","stateId":3640,"stateCode":"H","stateName":"Chaco","countryId":11,"countryCode":"AR","countryName":"Argentina","latitude":"-27.21438000","longitude":"-61.18795000","wikiDataId":"Q1578300"},{"id":765,"name":"Chorotis","stateId":3640,"stateCode":"H","stateName":"Chaco","countryId":11,"countryCode":"AR","countryName":"Argentina","latitude":"-27.91578000","longitude":"-61.39982000","wikiDataId":"Q1579594"},{"id":767,"name":"Ciervo Petiso","stateId":3640,"stateCode":"H","stateName":"Chaco","countryId":11,"countryCode":"AR","countryName":"Argentina","latitude":"-26.58041000","longitude":"-59.63094000","wikiDataId":"Q5119715"},{"id":776,"name":"Colonia Benítez","stateId":3640,"stateCode":"H","stateName":"Chaco","countryId":11,"countryCode":"AR","countryName":"Argentina","latitude":"-27.33099000","longitude":"-58.94622000","wikiDataId":"Q1579162"},{"id":778,"name":"Colonia Elisa","stateId":3640,"stateCode":"H","stateName":"Chaco","countryId":11,"countryCode":"AR","countryName":"Argentina","latitude":"-26.93041000","longitude":"-59.51861000","wikiDataId":"Q1579265"},{"id":782,"name":"Colonias Unidas","stateId":3640,"stateCode":"H","stateName":"Chaco","countryId":11,"countryCode":"AR","countryName":"Argentina","latitude":"-26.69825000","longitude":"-59.63154000","wikiDataId":"Q1579067"},{"id":791,"name":"Concepción del Bermejo","stateId":3640,"stateCode":"H","stateName":"Chaco","countryId":11,"countryCode":"AR","countryName":"Argentina","latitude":"-26.59926000","longitude":"-60.94617000","wikiDataId":"Q785491"},{"id":799,"name":"Coronel Du Graty","stateId":3640,"stateCode":"H","stateName":"Chaco","countryId":11,"countryCode":"AR","countryName":"Argentina","latitude":"-27.68038000","longitude":"-60.91462000","wikiDataId":"Q1657891"},{"id":804,"name":"Corzuela","stateId":3640,"stateCode":"H","stateName":"Chaco","countryId":11,"countryCode":"AR","countryName":"Argentina","latitude":"-26.95374000","longitude":"-60.96928000","wikiDataId":"Q1135953"},{"id":807,"name":"Coté-Lai","stateId":3640,"stateCode":"H","stateName":"Chaco","countryId":11,"countryCode":"AR","countryName":"Argentina","latitude":"-27.50000000","longitude":"-59.60000000","wikiDataId":"Q21829400"},{"id":822,"name":"Departamento de Almirante Brown","stateId":3640,"stateCode":"H","stateName":"Chaco","countryId":11,"countryCode":"AR","countryName":"Argentina","latitude":"-25.81662000","longitude":"-61.45576000","wikiDataId":"Q1190331"},{"id":837,"name":"Departamento de Bermejo","stateId":3640,"stateCode":"H","stateName":"Chaco","countryId":11,"countryCode":"AR","countryName":"Argentina","latitude":"-27.00000000","longitude":"-58.66667000","wikiDataId":"Q792464"},{"id":865,"name":"Departamento de Comandante Fernández","stateId":3640,"stateCode":"H","stateName":"Chaco","countryId":11,"countryCode":"AR","countryName":"Argentina","latitude":"-26.83333000","longitude":"-60.50000000","wikiDataId":"Q868409"},{"id":875,"name":"Departamento de Doce de Octubre","stateId":3640,"stateCode":"H","stateName":"Chaco","countryId":11,"countryCode":"AR","countryName":"Argentina","latitude":"-27.41667000","longitude":"-61.33333000","wikiDataId":"Q899638"},{"id":876,"name":"Departamento de Dos de Abril","stateId":3640,"stateCode":"H","stateName":"Chaco","countryId":11,"countryCode":"AR","countryName":"Argentina","latitude":"-27.60932000","longitude":"-61.34473000","wikiDataId":"Q899638"},{"id":890,"name":"Departamento de General Donovan","stateId":3640,"stateCode":"H","stateName":"Chaco","countryId":11,"countryCode":"AR","countryName":"Argentina","latitude":"-27.16667000","longitude":"-59.33333000","wikiDataId":"Q922325"},{"id":892,"name":"Departamento de General Güemes","stateId":3640,"stateCode":"H","stateName":"Chaco","countryId":11,"countryCode":"AR","countryName":"Argentina","latitude":"-25.16667000","longitude":"-61.41667000","wikiDataId":"Q922325"},{"id":909,"name":"Departamento de Independencia","stateId":3640,"stateCode":"H","stateName":"Chaco","countryId":11,"countryCode":"AR","countryName":"Argentina","latitude":"-26.66667000","longitude":"-60.66667000","wikiDataId":"Q731983"},{"id":928,"name":"Departamento de Libertad","stateId":3640,"stateCode":"H","stateName":"Chaco","countryId":11,"countryCode":"AR","countryName":"Argentina","latitude":"-27.33333000","longitude":"-59.33333000","wikiDataId":"Q279489"},{"id":937,"name":"Departamento de Maipú","stateId":3640,"stateCode":"H","stateName":"Chaco","countryId":11,"countryCode":"AR","countryName":"Argentina","latitude":"-26.33333000","longitude":"-60.41667000","wikiDataId":"Q588032"},{"id":950,"name":"Departamento de Nueve de Julio","stateId":3640,"stateCode":"H","stateName":"Chaco","countryId":11,"countryCode":"AR","countryName":"Argentina","latitude":"-26.95331000","longitude":"-61.27627000","wikiDataId":"Q770031"},{"id":954,"name":"Departamento de O’Higgins","stateId":3640,"stateCode":"H","stateName":"Chaco","countryId":11,"countryCode":"AR","countryName":"Argentina","latitude":"-27.25000000","longitude":"-60.66667000","wikiDataId":"Q770031"},{"id":960,"name":"Departamento de Presidencia de la Plaza","stateId":3640,"stateCode":"H","stateName":"Chaco","countryId":11,"countryCode":"AR","countryName":"Argentina","latitude":"-27.00000000","longitude":"-59.75000000","wikiDataId":"Q1190958"},{"id":962,"name":"Departamento de Quitilipi","stateId":3640,"stateCode":"H","stateName":"Chaco","countryId":11,"countryCode":"AR","countryName":"Argentina","latitude":"-26.66667000","longitude":"-60.16667000","wikiDataId":"Q1063416"},{"id":986,"name":"Departamento de San Fernando","stateId":3640,"stateCode":"H","stateName":"Chaco","countryId":11,"countryCode":"AR","countryName":"Argentina","latitude":"-27.66667000","longitude":"-59.16667000","wikiDataId":"Q1063341"},{"id":994,"name":"Departamento de San Lorenzo","stateId":3640,"stateCode":"H","stateName":"Chaco","countryId":11,"countryCode":"AR","countryName":"Argentina","latitude":"-27.33333000","longitude":"-60.41667000","wikiDataId":"Q1191103"},{"id":1010,"name":"Departamento de Sargento Cabral","stateId":3640,"stateCode":"H","stateName":"Chaco","countryId":11,"countryCode":"AR","countryName":"Argentina","latitude":"-26.83333000","longitude":"-59.50000000","wikiDataId":"Q1063313"},{"id":1017,"name":"Departamento de Tapenagá","stateId":3640,"stateCode":"H","stateName":"Chaco","countryId":11,"countryCode":"AR","countryName":"Argentina","latitude":"-27.50000000","longitude":"-59.75000000","wikiDataId":"Q1063095"},{"id":1081,"name":"Fontana","stateId":3640,"stateCode":"H","stateName":"Chaco","countryId":11,"countryCode":"AR","countryName":"Argentina","latitude":"-27.41813000","longitude":"-59.02392000","wikiDataId":"Q923414"},{"id":1088,"name":"Gancedo","stateId":3640,"stateCode":"H","stateName":"Chaco","countryId":11,"countryCode":"AR","countryName":"Argentina","latitude":"-27.49038000","longitude":"-61.67571000","wikiDataId":"Q1578967"},{"id":1105,"name":"General José de San Martín","stateId":3640,"stateCode":"H","stateName":"Chaco","countryId":11,"countryCode":"AR","countryName":"Argentina","latitude":"-26.53743000","longitude":"-59.34158000","wikiDataId":"Q2220740"},{"id":1109,"name":"General Pinedo","stateId":3640,"stateCode":"H","stateName":"Chaco","countryId":11,"countryCode":"AR","countryName":"Argentina","latitude":"-27.31667000","longitude":"-61.28333000","wikiDataId":"Q611504"},{"id":1114,"name":"General Vedia","stateId":3640,"stateCode":"H","stateName":"Chaco","countryId":11,"countryCode":"AR","countryName":"Argentina","latitude":"-26.93382000","longitude":"-58.66040000","wikiDataId":"Q1656049"},{"id":1135,"name":"Hermoso Campo","stateId":3640,"stateCode":"H","stateName":"Chaco","countryId":11,"countryCode":"AR","countryName":"Argentina","latitude":"-27.60816000","longitude":"-61.34441000","wikiDataId":"Q751497"},{"id":1181,"name":"La Clotilde","stateId":3640,"stateCode":"H","stateName":"Chaco","countryId":11,"countryCode":"AR","countryName":"Argentina","latitude":"-27.13333000","longitude":"-60.66667000","wikiDataId":"Q1656083"},{"id":1186,"name":"La Eduvigis","stateId":3640,"stateCode":"H","stateName":"Chaco","countryId":11,"countryCode":"AR","countryName":"Argentina","latitude":"-26.83607000","longitude":"-59.06211000","wikiDataId":"Q1657326"},{"id":1187,"name":"La Escondida","stateId":3640,"stateCode":"H","stateName":"Chaco","countryId":11,"countryCode":"AR","countryName":"Argentina","latitude":"-27.10724000","longitude":"-59.44784000","wikiDataId":"Q1656012"},{"id":1191,"name":"La Leonesa","stateId":3640,"stateCode":"H","stateName":"Chaco","countryId":11,"countryCode":"AR","countryName":"Argentina","latitude":"-27.03786000","longitude":"-58.70347000","wikiDataId":"Q1657423"},{"id":1201,"name":"La Tigra","stateId":3640,"stateCode":"H","stateName":"Chaco","countryId":11,"countryCode":"AR","countryName":"Argentina","latitude":"-27.10996000","longitude":"-60.58719000","wikiDataId":"Q21838634"},{"id":1203,"name":"La Verde","stateId":3640,"stateCode":"H","stateName":"Chaco","countryId":11,"countryCode":"AR","countryName":"Argentina","latitude":"-27.12634000","longitude":"-59.37352000","wikiDataId":"Q1657869"},{"id":1208,"name":"Laguna Limpia","stateId":3640,"stateCode":"H","stateName":"Chaco","countryId":11,"countryCode":"AR","countryName":"Argentina","latitude":"-26.49565000","longitude":"-59.68083000","wikiDataId":"Q1656138"},{"id":1213,"name":"Lapachito","stateId":3640,"stateCode":"H","stateName":"Chaco","countryId":11,"countryCode":"AR","countryName":"Argentina","latitude":"-27.15997000","longitude":"-59.38605000","wikiDataId":"Q1657314"},{"id":1216,"name":"Las Breñas","stateId":3640,"stateCode":"H","stateName":"Chaco","countryId":11,"countryCode":"AR","countryName":"Argentina","latitude":"-27.08966000","longitude":"-61.08161000","wikiDataId":"Q1017552"},{"id":1218,"name":"Las Garcitas","stateId":3640,"stateCode":"H","stateName":"Chaco","countryId":11,"countryCode":"AR","countryName":"Argentina","latitude":"-26.61802000","longitude":"-59.80135000","wikiDataId":"Q1657855"},{"id":1249,"name":"Los Frentones","stateId":3640,"stateCode":"H","stateName":"Chaco","countryId":11,"countryCode":"AR","countryName":"Argentina","latitude":"-26.40770000","longitude":"-61.41367000","wikiDataId":"Q925007"},{"id":1260,"name":"Machagai","stateId":3640,"stateCode":"H","stateName":"Chaco","countryId":11,"countryCode":"AR","countryName":"Argentina","latitude":"-26.92614000","longitude":"-60.04955000","wikiDataId":"Q1579325"},{"id":1264,"name":"Makallé","stateId":3640,"stateCode":"H","stateName":"Chaco","countryId":11,"countryCode":"AR","countryName":"Argentina","latitude":"-27.20687000","longitude":"-59.28696000","wikiDataId":"Q602345"},{"id":1270,"name":"Margarita Belén","stateId":3640,"stateCode":"H","stateName":"Chaco","countryId":11,"countryCode":"AR","countryName":"Argentina","latitude":"-27.26160000","longitude":"-58.97219000","wikiDataId":"Q383019"},{"id":1296,"name":"Napenay","stateId":3640,"stateCode":"H","stateName":"Chaco","countryId":11,"countryCode":"AR","countryName":"Argentina","latitude":"-26.73333000","longitude":"-60.61667000","wikiDataId":"Q1579131"},{"id":1314,"name":"Pampa Almirón","stateId":3640,"stateCode":"H","stateName":"Chaco","countryId":11,"countryCode":"AR","countryName":"Argentina","latitude":"-26.70039000","longitude":"-59.12331000","wikiDataId":"Q1656116"},{"id":1316,"name":"Pampa del Indio","stateId":3640,"stateCode":"H","stateName":"Chaco","countryId":11,"countryCode":"AR","countryName":"Argentina","latitude":"-26.04982000","longitude":"-59.93728000","wikiDataId":"Q1656045"},{"id":1317,"name":"Pampa del Infierno","stateId":3640,"stateCode":"H","stateName":"Chaco","countryId":11,"countryCode":"AR","countryName":"Argentina","latitude":"-26.50517000","longitude":"-61.17436000","wikiDataId":"Q1578938"},{"id":1347,"name":"Presidencia de la Plaza","stateId":3640,"stateCode":"H","stateName":"Chaco","countryId":11,"countryCode":"AR","countryName":"Argentina","latitude":"-27.00147000","longitude":"-59.84243000","wikiDataId":"Q1656867"},{"id":1345,"name":"Presidencia Roca","stateId":3640,"stateCode":"H","stateName":"Chaco","countryId":11,"countryCode":"AR","countryName":"Argentina","latitude":"-26.14090000","longitude":"-59.59541000","wikiDataId":"Q1657374"},{"id":1346,"name":"Presidencia Roque Sáenz Peña","stateId":3640,"stateCode":"H","stateName":"Chaco","countryId":11,"countryCode":"AR","countryName":"Argentina","latitude":"-26.78522000","longitude":"-60.43876000","wikiDataId":"Q1656936"},{"id":1351,"name":"Puerto Bermejo","stateId":3640,"stateCode":"H","stateName":"Chaco","countryId":11,"countryCode":"AR","countryName":"Argentina","latitude":"-26.92739000","longitude":"-58.50917000","wikiDataId":"Q1656125"},{"id":1363,"name":"Puerto Tirol","stateId":3640,"stateCode":"H","stateName":"Chaco","countryId":11,"countryCode":"AR","countryName":"Argentina","latitude":"-27.37218000","longitude":"-59.08206000","wikiDataId":"Q1003738"},{"id":1364,"name":"Puerto Vilelas","stateId":3640,"stateCode":"H","stateName":"Chaco","countryId":11,"countryCode":"AR","countryName":"Argentina","latitude":"-27.51414000","longitude":"-58.93906000","wikiDataId":"Q1656101"},{"id":1370,"name":"Quitilipi","stateId":3640,"stateCode":"H","stateName":"Chaco","countryId":11,"countryCode":"AR","countryName":"Argentina","latitude":"-26.86913000","longitude":"-60.21683000","wikiDataId":"Q1656947"},{"id":1379,"name":"Resistencia","stateId":3640,"stateCode":"H","stateName":"Chaco","countryId":11,"countryCode":"AR","countryName":"Argentina","latitude":"-27.46056000","longitude":"-58.98389000","wikiDataId":"Q44206"},{"id":1405,"name":"Samuhú","stateId":3640,"stateCode":"H","stateName":"Chaco","countryId":11,"countryCode":"AR","countryName":"Argentina","latitude":"-27.52116000","longitude":"-60.39167000","wikiDataId":"Q7413040"},{"id":1414,"name":"San Bernardo","stateId":3640,"stateCode":"H","stateName":"Chaco","countryId":11,"countryCode":"AR","countryName":"Argentina","latitude":"-27.28782000","longitude":"-60.71252000","wikiDataId":"Q967629"},{"id":1471,"name":"Santa Sylvina","stateId":3640,"stateCode":"H","stateName":"Chaco","countryId":11,"countryCode":"AR","countryName":"Argentina","latitude":"-27.83261000","longitude":"-61.13747000","wikiDataId":"Q1015553"},{"id":1493,"name":"Taco Pozo","stateId":3640,"stateCode":"H","stateName":"Chaco","countryId":11,"countryCode":"AR","countryName":"Argentina","latitude":"-25.61557000","longitude":"-63.26708000","wikiDataId":"Q1579288"},{"id":1515,"name":"Tres Isletas","stateId":3640,"stateCode":"H","stateName":"Chaco","countryId":11,"countryCode":"AR","countryName":"Argentina","latitude":"-26.34067000","longitude":"-60.43207000","wikiDataId":"Q169222"},{"id":1586,"name":"Villa Ángela","stateId":3640,"stateCode":"H","stateName":"Chaco","countryId":11,"countryCode":"AR","countryName":"Argentina","latitude":"-27.57383000","longitude":"-60.71526000","wikiDataId":"Q1657303"},{"id":1542,"name":"Villa Berthet","stateId":3640,"stateCode":"H","stateName":"Chaco","countryId":11,"countryCode":"AR","countryName":"Argentina","latitude":"-27.29174000","longitude":"-60.41263000","wikiDataId":"Q1657333"},{"id":655,"name":"Alto Río Senguer","stateId":3651,"stateCode":"U","stateName":"Chubut","countryId":11,"countryCode":"AR","countryName":"Argentina","latitude":"-45.04105000","longitude":"-70.81982000","wikiDataId":"Q178740"},{"id":715,"name":"Camarones","stateId":3651,"stateCode":"U","stateName":"Chubut","countryId":11,"countryCode":"AR","countryName":"Argentina","latitude":"-44.79709000","longitude":"-65.70994000","wikiDataId":"Q972040"},{"id":787,"name":"Comodoro Rivadavia","stateId":3651,"stateCode":"U","stateName":"Chubut","countryId":11,"countryCode":"AR","countryName":"Argentina","latitude":"-45.86413000","longitude":"-67.49656000","wikiDataId":"Q221921"},{"id":839,"name":"Departamento de Biedma","stateId":3651,"stateCode":"U","stateName":"Chubut","countryId":11,"countryCode":"AR","countryName":"Argentina","latitude":"-42.41667000","longitude":"-65.00000000","wikiDataId":"Q573042"},{"id":873,"name":"Departamento de Cushamen","stateId":3651,"stateCode":"U","stateName":"Chubut","countryId":11,"countryCode":"AR","countryName":"Argentina","latitude":"-42.50000000","longitude":"-70.83333000","wikiDataId":"Q899638"},{"id":880,"name":"Departamento de Escalante","stateId":3651,"stateCode":"U","stateName":"Chubut","countryId":11,"countryCode":"AR","countryName":"Argentina","latitude":"-45.33333000","longitude":"-67.33333000","wikiDataId":"Q583893"},{"id":883,"name":"Departamento de Florentino Ameghino","stateId":3651,"stateCode":"U","stateName":"Chubut","countryId":11,"countryCode":"AR","countryName":"Argentina","latitude":"-44.41667000","longitude":"-66.16667000","wikiDataId":"Q991357"},{"id":885,"name":"Departamento de Futaleufú","stateId":3651,"stateCode":"U","stateName":"Chubut","countryId":11,"countryCode":"AR","countryName":"Argentina","latitude":"-43.08333000","longitude":"-71.41667000","wikiDataId":"Q775145"},{"id":886,"name":"Departamento de Gaimán","stateId":3651,"stateCode":"U","stateName":"Chubut","countryId":11,"countryCode":"AR","countryName":"Argentina","latitude":"-43.33333000","longitude":"-66.33333000","wikiDataId":"Q775145"},{"id":887,"name":"Departamento de Gastre","stateId":3651,"stateCode":"U","stateName":"Chubut","countryId":11,"countryCode":"AR","countryName":"Argentina","latitude":"-42.83333000","longitude":"-68.66667000","wikiDataId":"Q775145"},{"id":923,"name":"Departamento de Languiñeo","stateId":3651,"stateCode":"U","stateName":"Chubut","countryId":11,"countryCode":"AR","countryName":"Argentina","latitude":"-43.33333000","longitude":"-70.66667000","wikiDataId":"Q372333"},{"id":949,"name":"Departamento de Mártires","stateId":3651,"stateCode":"U","stateName":"Chubut","countryId":11,"countryCode":"AR","countryName":"Argentina","latitude":"-43.83333000","longitude":"-67.16667000","wikiDataId":"Q770031"},{"id":956,"name":"Departamento de Paso de Indios","stateId":3651,"stateCode":"U","stateName":"Chubut","countryId":11,"countryCode":"AR","countryName":"Argentina","latitude":"-44.00000000","longitude":"-68.83333000","wikiDataId":"Q770031"},{"id":963,"name":"Departamento de Rawson","stateId":3651,"stateCode":"U","stateName":"Chubut","countryId":11,"countryCode":"AR","countryName":"Argentina","latitude":"-43.12342000","longitude":"-65.10179000","wikiDataId":"Q1088518"},{"id":979,"name":"Departamento de Río Senguerr","stateId":3651,"stateCode":"U","stateName":"Chubut","countryId":11,"countryCode":"AR","countryName":"Argentina","latitude":"-45.33333000","longitude":"-70.83333000","wikiDataId":"Q1063078"},{"id":1012,"name":"Departamento de Sarmiento","stateId":3651,"stateCode":"U","stateName":"Chubut","countryId":11,"countryCode":"AR","countryName":"Argentina","latitude":"-45.33333000","longitude":"-69.00000000","wikiDataId":"Q1063313"},{"id":1018,"name":"Departamento de Tehuelches","stateId":3651,"stateCode":"U","stateName":"Chubut","countryId":11,"countryCode":"AR","countryName":"Argentina","latitude":"-44.22132000","longitude":"-70.25260000","wikiDataId":"Q980641"},{"id":1019,"name":"Departamento de Telsen","stateId":3651,"stateCode":"U","stateName":"Chubut","countryId":11,"countryCode":"AR","countryName":"Argentina","latitude":"-42.41667000","longitude":"-67.16667000","wikiDataId":"Q290328"},{"id":1042,"name":"Dolavón","stateId":3651,"stateCode":"U","stateName":"Chubut","countryId":11,"countryCode":"AR","countryName":"Argentina","latitude":"-43.30684000","longitude":"-65.70651000","wikiDataId":"Q106043"},{"id":1058,"name":"El Maitén","stateId":3651,"stateCode":"U","stateName":"Chubut","countryId":11,"countryCode":"AR","countryName":"Argentina","latitude":"-42.04924000","longitude":"-71.16693000","wikiDataId":"Q106050"},{"id":1070,"name":"Esquel","stateId":3651,"stateCode":"U","stateName":"Chubut","countryId":11,"countryCode":"AR","countryName":"Argentina","latitude":"-42.91147000","longitude":"-71.31947000","wikiDataId":"Q81656"},{"id":1087,"name":"Gaimán","stateId":3651,"stateCode":"U","stateName":"Chubut","countryId":11,"countryCode":"AR","countryName":"Argentina","latitude":"-43.28970000","longitude":"-65.49290000","wikiDataId":"Q106055"},{"id":1092,"name":"Gastre","stateId":3651,"stateCode":"U","stateName":"Chubut","countryId":11,"countryCode":"AR","countryName":"Argentina","latitude":"-42.26186000","longitude":"-69.22112000","wikiDataId":"Q1016275"},{"id":1115,"name":"Gobernador Costa","stateId":3651,"stateCode":"U","stateName":"Chubut","countryId":11,"countryCode":"AR","countryName":"Argentina","latitude":"-44.04992000","longitude":"-70.59798000","wikiDataId":"Q1773893"},{"id":1141,"name":"Hoyo de Epuyén","stateId":3651,"stateCode":"U","stateName":"Chubut","countryId":11,"countryCode":"AR","countryName":"Argentina","latitude":"-42.07189000","longitude":"-71.50811000","wikiDataId":"Q3720934"},{"id":1169,"name":"José de San Martín","stateId":3651,"stateCode":"U","stateName":"Chubut","countryId":11,"countryCode":"AR","countryName":"Argentina","latitude":"-44.05032000","longitude":"-70.46967000","wikiDataId":"Q1015513"},{"id":1206,"name":"Lago Puelo","stateId":3651,"stateCode":"U","stateName":"Chubut","countryId":11,"countryCode":"AR","countryName":"Argentina","latitude":"-42.06684000","longitude":"-71.60384000","wikiDataId":"Q3825767"},{"id":1229,"name":"Las Plumas","stateId":3651,"stateCode":"U","stateName":"Chubut","countryId":11,"countryCode":"AR","countryName":"Argentina","latitude":"-43.72058000","longitude":"-67.28319000","wikiDataId":"Q1530166"},{"id":1359,"name":"Puerto Madryn","stateId":3651,"stateCode":"U","stateName":"Chubut","countryId":11,"countryCode":"AR","countryName":"Argentina","latitude":"-42.76920000","longitude":"-65.03851000","wikiDataId":"Q748028"},{"id":1371,"name":"Rada Tilly","stateId":3651,"stateCode":"U","stateName":"Chubut","countryId":11,"countryCode":"AR","countryName":"Argentina","latitude":"-45.92462000","longitude":"-67.55424000","wikiDataId":"Q998325"},{"id":1374,"name":"Rawson","stateId":3651,"stateCode":"U","stateName":"Chubut","countryId":11,"countryCode":"AR","countryName":"Argentina","latitude":"-43.30016000","longitude":"-65.10228000","wikiDataId":"Q44208"},{"id":1393,"name":"Río Mayo","stateId":3651,"stateCode":"U","stateName":"Chubut","countryId":11,"countryCode":"AR","countryName":"Argentina","latitude":"-45.68573000","longitude":"-70.25797000","wikiDataId":"Q21833451"},{"id":1394,"name":"Río Pico","stateId":3651,"stateCode":"U","stateName":"Chubut","countryId":11,"countryCode":"AR","countryName":"Argentina","latitude":"-44.17905000","longitude":"-71.36847000","wikiDataId":"Q1774299"},{"id":1477,"name":"Sarmiento","stateId":3651,"stateCode":"U","stateName":"Chubut","countryId":11,"countryCode":"AR","countryName":"Argentina","latitude":"-45.58815000","longitude":"-69.06996000","wikiDataId":"Q106034"},{"id":1499,"name":"Tecka","stateId":3651,"stateCode":"U","stateName":"Chubut","countryId":11,"countryCode":"AR","countryName":"Argentina","latitude":"-43.49489000","longitude":"-70.81020000","wikiDataId":"Q2259996"},{"id":1512,"name":"Trelew","stateId":3651,"stateCode":"U","stateName":"Chubut","countryId":11,"countryCode":"AR","countryName":"Argentina","latitude":"-43.24895000","longitude":"-65.30505000","wikiDataId":"Q1009276"},{"id":1516,"name":"Trevelin","stateId":3651,"stateCode":"U","stateName":"Chubut","countryId":11,"countryCode":"AR","countryName":"Argentina","latitude":"-43.08580000","longitude":"-71.46386000","wikiDataId":"Q2368288"},{"id":639,"name":"Achiras","stateId":3642,"stateCode":"X","stateName":"Córdoba","countryId":11,"countryCode":"AR","countryName":"Argentina","latitude":"-33.17538000","longitude":"-64.99331000","wikiDataId":"Q8187413"},{"id":640,"name":"Adelia María","stateId":3642,"stateCode":"X","stateName":"Córdoba","countryId":11,"countryCode":"AR","countryName":"Argentina","latitude":"-33.63152000","longitude":"-64.02097000","wikiDataId":"Q5682817"},{"id":641,"name":"Agua de Oro","stateId":3642,"stateCode":"X","stateName":"Córdoba","countryId":11,"countryCode":"AR","countryName":"Argentina","latitude":"-31.06661000","longitude":"-64.30017000","wikiDataId":"Q2215108"},{"id":647,"name":"Alejandro Roca","stateId":3642,"stateCode":"X","stateName":"Córdoba","countryId":11,"countryCode":"AR","countryName":"Argentina","latitude":"-33.35369000","longitude":"-63.71849000","wikiDataId":"Q8194200"},{"id":648,"name":"Alejo Ledesma","stateId":3642,"stateCode":"X","stateName":"Córdoba","countryId":11,"countryCode":"AR","countryName":"Argentina","latitude":"-33.60643000","longitude":"-62.62304000","wikiDataId":"Q8194316"},{"id":651,"name":"Almafuerte","stateId":3642,"stateCode":"X","stateName":"Córdoba","countryId":11,"countryCode":"AR","countryName":"Argentina","latitude":"-32.19296000","longitude":"-64.25559000","wikiDataId":"Q1935889"},{"id":653,"name":"Alta Gracia","stateId":3642,"stateCode":"X","stateName":"Córdoba","countryId":11,"countryCode":"AR","countryName":"Argentina","latitude":"-31.65292000","longitude":"-64.42826000","wikiDataId":"Q48293"},{"id":656,"name":"Altos de Chipión","stateId":3642,"stateCode":"X","stateName":"Córdoba","countryId":11,"countryCode":"AR","countryName":"Argentina","latitude":"-30.95590000","longitude":"-62.33727000","wikiDataId":"Q3613347"},{"id":668,"name":"Arias","stateId":3642,"stateCode":"X","stateName":"Córdoba","countryId":11,"countryCode":"AR","countryName":"Argentina","latitude":"-33.64411000","longitude":"-62.40272000","wikiDataId":"Q2693020"},{"id":671,"name":"Arroyito","stateId":3642,"stateCode":"X","stateName":"Córdoba","countryId":11,"countryCode":"AR","countryName":"Argentina","latitude":"-31.42022000","longitude":"-63.05002000","wikiDataId":"Q671062"},{"id":672,"name":"Arroyo Cabral","stateId":3642,"stateCode":"X","stateName":"Córdoba","countryId":11,"countryCode":"AR","countryName":"Argentina","latitude":"-32.49119000","longitude":"-63.40126000","wikiDataId":"Q21845813"},{"id":681,"name":"Balnearia","stateId":3642,"stateCode":"X","stateName":"Córdoba","countryId":11,"countryCode":"AR","countryName":"Argentina","latitude":"-31.00880000","longitude":"-62.66733000","wikiDataId":"Q8240830"},{"id":688,"name":"Bell Ville","stateId":3642,"stateCode":"X","stateName":"Córdoba","countryId":11,"countryCode":"AR","countryName":"Argentina","latitude":"-32.62591000","longitude":"-62.68873000","wikiDataId":"Q284308"},{"id":695,"name":"Berrotarán","stateId":3642,"stateCode":"X","stateName":"Córdoba","countryId":11,"countryCode":"AR","countryName":"Argentina","latitude":"-32.45100000","longitude":"-64.38867000","wikiDataId":"Q8247020"},{"id":701,"name":"Brinkmann","stateId":3642,"stateCode":"X","stateName":"Córdoba","countryId":11,"countryCode":"AR","countryName":"Argentina","latitude":"-30.86589000","longitude":"-62.03742000","wikiDataId":"Q17297395"},{"id":702,"name":"Buchardo","stateId":3642,"stateCode":"X","stateName":"Córdoba","countryId":11,"countryCode":"AR","countryName":"Argentina","latitude":"-34.72263000","longitude":"-63.50920000","wikiDataId":"Q8253269"},{"id":716,"name":"Camilo Aldao","stateId":3642,"stateCode":"X","stateName":"Córdoba","countryId":11,"countryCode":"AR","countryName":"Argentina","latitude":"-33.12745000","longitude":"-62.09453000","wikiDataId":"Q2128078"},{"id":744,"name":"Cañada de Luque","stateId":3642,"stateCode":"X","stateName":"Córdoba","countryId":11,"countryCode":"AR","countryName":"Argentina","latitude":"-30.73341000","longitude":"-63.72375000","wikiDataId":"Q8343231"},{"id":723,"name":"Canals","stateId":3642,"stateCode":"X","stateName":"Córdoba","countryId":11,"countryCode":"AR","countryName":"Argentina","latitude":"-33.56542000","longitude":"-62.88927000","wikiDataId":"Q2594504"},{"id":727,"name":"Capilla del Monte","stateId":3642,"stateCode":"X","stateName":"Córdoba","countryId":11,"countryCode":"AR","countryName":"Argentina","latitude":"-30.86088000","longitude":"-64.52515000","wikiDataId":"Q1020576"},{"id":733,"name":"Carnerillo","stateId":3642,"stateCode":"X","stateName":"Córdoba","countryId":11,"countryCode":"AR","countryName":"Argentina","latitude":"-32.91371000","longitude":"-64.02175000","wikiDataId":"Q8338730"},{"id":734,"name":"Carrilobo","stateId":3642,"stateCode":"X","stateName":"Córdoba","countryId":11,"countryCode":"AR","countryName":"Argentina","latitude":"-31.87296000","longitude":"-63.11715000","wikiDataId":"Q8341370"},{"id":742,"name":"Cavanagh","stateId":3642,"stateCode":"X","stateName":"Córdoba","countryId":11,"countryCode":"AR","countryName":"Argentina","latitude":"-33.47606000","longitude":"-62.33888000","wikiDataId":"Q8342984"},{"id":755,"name":"Charras","stateId":3642,"stateCode":"X","stateName":"Córdoba","countryId":11,"countryCode":"AR","countryName":"Argentina","latitude":"-33.02400000","longitude":"-64.04719000","wikiDataId":"Q21844653"},{"id":757,"name":"Chazón","stateId":3642,"stateCode":"X","stateName":"Córdoba","countryId":11,"countryCode":"AR","countryName":"Argentina","latitude":"-33.07872000","longitude":"-63.27657000","wikiDataId":"Q8345116"},{"id":769,"name":"Cintra","stateId":3642,"stateCode":"X","stateName":"Córdoba","countryId":11,"countryCode":"AR","countryName":"Argentina","latitude":"-32.30673000","longitude":"-62.65214000","wikiDataId":"Q21842797"},{"id":780,"name":"Colonia La Tordilla","stateId":3642,"stateCode":"X","stateName":"Córdoba","countryId":11,"countryCode":"AR","countryName":"Argentina","latitude":"-31.23746000","longitude":"-63.06134000","wikiDataId":"Q21842946"},{"id":781,"name":"Colonia San Bartolomé","stateId":3642,"stateCode":"X","stateName":"Córdoba","countryId":11,"countryCode":"AR","countryName":"Argentina","latitude":"-31.52780000","longitude":"-62.72436000","wikiDataId":"Q5777842"},{"id":815,"name":"Córdoba","stateId":3642,"stateCode":"X","stateName":"Córdoba","countryId":11,"countryCode":"AR","countryName":"Argentina","latitude":"-31.41350000","longitude":"-64.18105000","wikiDataId":"Q44210"},{"id":797,"name":"Coronel Baigorria","stateId":3642,"stateCode":"X","stateName":"Córdoba","countryId":11,"countryCode":"AR","countryName":"Argentina","latitude":"-32.84770000","longitude":"-64.36107000","wikiDataId":"Q8351097"},{"id":800,"name":"Coronel Moldes","stateId":3642,"stateCode":"X","stateName":"Córdoba","countryId":11,"countryCode":"AR","countryName":"Argentina","latitude":"-33.62270000","longitude":"-64.59711000","wikiDataId":"Q21841360"},{"id":801,"name":"Corral de Bustos","stateId":3642,"stateCode":"X","stateName":"Córdoba","countryId":11,"countryCode":"AR","countryName":"Argentina","latitude":"-33.28205000","longitude":"-62.18463000","wikiDataId":"Q5172720"},{"id":802,"name":"Corralito","stateId":3642,"stateCode":"X","stateName":"Córdoba","countryId":11,"countryCode":"AR","countryName":"Argentina","latitude":"-32.02462000","longitude":"-64.19216000","wikiDataId":"Q21841392"},{"id":805,"name":"Cosquín","stateId":3642,"stateCode":"X","stateName":"Córdoba","countryId":11,"countryCode":"AR","countryName":"Argentina","latitude":"-31.24508000","longitude":"-64.46563000","wikiDataId":"Q48290"},{"id":806,"name":"Costa Sacate","stateId":3642,"stateCode":"X","stateName":"Córdoba","countryId":11,"countryCode":"AR","countryName":"Argentina","latitude":"-31.64770000","longitude":"-63.75935000","wikiDataId":"Q5574326"},{"id":809,"name":"Cruz Alta","stateId":3642,"stateCode":"X","stateName":"Córdoba","countryId":11,"countryCode":"AR","countryName":"Argentina","latitude":"-33.00887000","longitude":"-61.80746000","wikiDataId":"Q21841539"},{"id":811,"name":"Cruz del Eje","stateId":3642,"stateCode":"X","stateName":"Córdoba","countryId":11,"countryCode":"AR","countryName":"Argentina","latitude":"-30.72644000","longitude":"-64.80387000","wikiDataId":"Q1016873"},{"id":812,"name":"Cuesta Blanca","stateId":3642,"stateCode":"X","stateName":"Córdoba","countryId":11,"countryCode":"AR","countryName":"Argentina","latitude":"-31.48658000","longitude":"-64.57150000","wikiDataId":"Q637219"},{"id":816,"name":"Dalmacio Vélez Sársfield","stateId":3642,"stateCode":"X","stateName":"Córdoba","countryId":11,"countryCode":"AR","countryName":"Argentina","latitude":"-32.61072000","longitude":"-63.58038000","wikiDataId":"Q21841723"},{"id":1039,"name":"Deán Funes","stateId":3642,"stateCode":"X","stateName":"Córdoba","countryId":11,"countryCode":"AR","countryName":"Argentina","latitude":"-30.42036000","longitude":"-64.34984000","wikiDataId":"Q525817"},{"id":818,"name":"Del Campillo","stateId":3642,"stateCode":"X","stateName":"Córdoba","countryId":11,"countryCode":"AR","countryName":"Argentina","latitude":"-34.37659000","longitude":"-64.49504000","wikiDataId":"Q8354470"},{"id":842,"name":"Departamento de Calamuchita","stateId":3642,"stateCode":"X","stateName":"Córdoba","countryId":11,"countryCode":"AR","countryName":"Argentina","latitude":"-32.25000000","longitude":"-64.58333000","wikiDataId":"Q665082"},{"id":864,"name":"Departamento de Colón","stateId":3642,"stateCode":"X","stateName":"Córdoba","countryId":11,"countryCode":"AR","countryName":"Argentina","latitude":"-31.16667000","longitude":"-64.16667000","wikiDataId":"Q868409"},{"id":871,"name":"Departamento de Cruz del Eje","stateId":3642,"stateCode":"X","stateName":"Córdoba","countryId":11,"countryCode":"AR","countryName":"Argentina","latitude":"-30.75000000","longitude":"-65.00000000","wikiDataId":"Q635957"},{"id":896,"name":"Departamento de General Roca","stateId":3642,"stateCode":"X","stateName":"Córdoba","countryId":11,"countryCode":"AR","countryName":"Argentina","latitude":"-34.66667000","longitude":"-64.25000000","wikiDataId":"Q368679"},{"id":897,"name":"Departamento de General San Martín","stateId":3642,"stateCode":"X","stateName":"Córdoba","countryId":11,"countryCode":"AR","countryName":"Argentina","latitude":"-32.50000000","longitude":"-63.33333000","wikiDataId":"Q368679"},{"id":914,"name":"Departamento de Juárez Celman","stateId":3642,"stateCode":"X","stateName":"Córdoba","countryId":11,"countryCode":"AR","countryName":"Argentina","latitude":"-33.33333000","longitude":"-63.66667000","wikiDataId":"Q511702"},{"id":939,"name":"Departamento de Marcos Juárez","stateId":3642,"stateCode":"X","stateName":"Córdoba","countryId":11,"countryCode":"AR","countryName":"Argentina","latitude":"-33.00000000","longitude":"-62.25000000","wikiDataId":"Q784895"},{"id":943,"name":"Departamento de Minas","stateId":3642,"stateCode":"X","stateName":"Córdoba","countryId":11,"countryCode":"AR","countryName":"Argentina","latitude":"-31.00000000","longitude":"-65.33333000","wikiDataId":"Q591241"},{"id":961,"name":"Departamento de Presidente Roque Sáenz Peña","stateId":3642,"stateCode":"X","stateName":"Córdoba","countryId":11,"countryCode":"AR","countryName":"Argentina","latitude":"-34.25000000","longitude":"-63.50000000","wikiDataId":"Q1063416"},{"id":974,"name":"Departamento de Río Cuarto","stateId":3642,"stateCode":"X","stateName":"Córdoba","countryId":11,"countryCode":"AR","countryName":"Argentina","latitude":"-33.33333000","longitude":"-64.50000000","wikiDataId":"Q1063409"},{"id":976,"name":"Departamento de Río Primero","stateId":3642,"stateCode":"X","stateName":"Córdoba","countryId":11,"countryCode":"AR","countryName":"Argentina","latitude":"-31.08333000","longitude":"-63.50000000","wikiDataId":"Q1063403"},{"id":977,"name":"Departamento de Río Seco","stateId":3642,"stateCode":"X","stateName":"Córdoba","countryId":11,"countryCode":"AR","countryName":"Argentina","latitude":"-30.08333000","longitude":"-63.00000000","wikiDataId":"Q531018"},{"id":978,"name":"Departamento de Río Segundo","stateId":3642,"stateCode":"X","stateName":"Córdoba","countryId":11,"countryCode":"AR","countryName":"Argentina","latitude":"-31.75000000","longitude":"-63.50000000","wikiDataId":"Q1063078"},{"id":981,"name":"Departamento de San Alberto","stateId":3642,"stateCode":"X","stateName":"Córdoba","countryId":11,"countryCode":"AR","countryName":"Argentina","latitude":"-31.75000000","longitude":"-65.25000000","wikiDataId":"Q633783"},{"id":990,"name":"Departamento de San Javier","stateId":3642,"stateCode":"X","stateName":"Córdoba","countryId":11,"countryCode":"AR","countryName":"Argentina","latitude":"-32.08333000","longitude":"-65.16667000","wikiDataId":"Q777079"},{"id":991,"name":"Departamento de San Justo","stateId":3642,"stateCode":"X","stateName":"Córdoba","countryId":11,"countryCode":"AR","countryName":"Argentina","latitude":"-31.33333000","longitude":"-62.66667000","wikiDataId":"Q950820"},{"id":1016,"name":"Departamento de Sobremonte","stateId":3642,"stateCode":"X","stateName":"Córdoba","countryId":11,"countryCode":"AR","countryName":"Argentina","latitude":"-29.66667000","longitude":"-64.08333000","wikiDataId":"Q1063095"},{"id":1022,"name":"Departamento de Totoral","stateId":3642,"stateCode":"X","stateName":"Córdoba","countryId":11,"countryCode":"AR","countryName":"Argentina","latitude":"-30.83333000","longitude":"-63.91667000","wikiDataId":"Q1063056"},{"id":1024,"name":"Departamento de Tulumba","stateId":3642,"stateCode":"X","stateName":"Córdoba","countryId":11,"countryCode":"AR","countryName":"Argentina","latitude":"-30.25000000","longitude":"-63.91667000","wikiDataId":"Q972349"},{"id":1029,"name":"Departamento de Unión","stateId":3642,"stateCode":"X","stateName":"Córdoba","countryId":11,"countryCode":"AR","countryName":"Argentina","latitude":"-32.83333000","longitude":"-62.75000000","wikiDataId":"Q2317932"},{"id":1037,"name":"Despeñaderos","stateId":3642,"stateCode":"X","stateName":"Córdoba","countryId":11,"countryCode":"AR","countryName":"Argentina","latitude":"-31.81626000","longitude":"-64.28989000","wikiDataId":"Q5804390"},{"id":1038,"name":"Devoto","stateId":3642,"stateCode":"X","stateName":"Córdoba","countryId":11,"countryCode":"AR","countryName":"Argentina","latitude":"-31.40431000","longitude":"-62.30634000","wikiDataId":"Q21841792"},{"id":1049,"name":"El Arañado","stateId":3642,"stateCode":"X","stateName":"Córdoba","countryId":11,"countryCode":"AR","countryName":"Argentina","latitude":"-31.74120000","longitude":"-62.89322000","wikiDataId":"Q5820863"},{"id":1063,"name":"El Tío","stateId":3642,"stateCode":"X","stateName":"Córdoba","countryId":11,"countryCode":"AR","countryName":"Argentina","latitude":"-31.38357000","longitude":"-62.82938000","wikiDataId":"Q21842250"},{"id":1064,"name":"Elena","stateId":3642,"stateCode":"X","stateName":"Córdoba","countryId":11,"countryCode":"AR","countryName":"Argentina","latitude":"-32.57205000","longitude":"-64.39481000","wikiDataId":"Q21842056"},{"id":1066,"name":"Embalse","stateId":3642,"stateCode":"X","stateName":"Córdoba","countryId":11,"countryCode":"AR","countryName":"Argentina","latitude":"-32.18000000","longitude":"-64.41809000","wikiDataId":"Q1011693"},{"id":1073,"name":"Etruria","stateId":3642,"stateCode":"X","stateName":"Córdoba","countryId":11,"countryCode":"AR","countryName":"Argentina","latitude":"-32.94008000","longitude":"-63.24660000","wikiDataId":"Q1442288"},{"id":1096,"name":"General Baldissera","stateId":3642,"stateCode":"X","stateName":"Córdoba","countryId":11,"countryCode":"AR","countryName":"Argentina","latitude":"-33.12246000","longitude":"-62.30630000","wikiDataId":"Q932486"},{"id":1097,"name":"General Cabrera","stateId":3642,"stateCode":"X","stateName":"Córdoba","countryId":11,"countryCode":"AR","countryName":"Argentina","latitude":"-32.81313000","longitude":"-63.87243000","wikiDataId":"Q973090"},{"id":1106,"name":"General Levalle","stateId":3642,"stateCode":"X","stateName":"Córdoba","countryId":11,"countryCode":"AR","countryName":"Argentina","latitude":"-34.01472000","longitude":"-63.92413000","wikiDataId":"Q938803"},{"id":1111,"name":"General Roca","stateId":3642,"stateCode":"X","stateName":"Córdoba","countryId":11,"countryCode":"AR","countryName":"Argentina","latitude":"-32.73196000","longitude":"-61.91599000","wikiDataId":"Q21839890"},{"id":1129,"name":"Guatimozín","stateId":3642,"stateCode":"X","stateName":"Córdoba","countryId":11,"countryCode":"AR","countryName":"Argentina","latitude":"-33.46149000","longitude":"-62.43844000","wikiDataId":"Q21840259"},{"id":1136,"name":"Hernando","stateId":3642,"stateCode":"X","stateName":"Córdoba","countryId":11,"countryCode":"AR","countryName":"Argentina","latitude":"-32.42657000","longitude":"-63.73333000","wikiDataId":"Q2648980"},{"id":1143,"name":"Huanchillas","stateId":3642,"stateCode":"X","stateName":"Córdoba","countryId":11,"countryCode":"AR","countryName":"Argentina","latitude":"-33.66653000","longitude":"-63.63701000","wikiDataId":"Q21840489"},{"id":1144,"name":"Huerta Grande","stateId":3642,"stateCode":"X","stateName":"Córdoba","countryId":11,"countryCode":"AR","countryName":"Argentina","latitude":"-31.07524000","longitude":"-64.49063000","wikiDataId":"Q21840531"},{"id":1146,"name":"Huinca Renancó","stateId":3642,"stateCode":"X","stateName":"Córdoba","countryId":11,"countryCode":"AR","countryName":"Argentina","latitude":"-34.84038000","longitude":"-64.37580000","wikiDataId":"Q2638654"},{"id":1150,"name":"Idiazábal","stateId":3642,"stateCode":"X","stateName":"Córdoba","countryId":11,"countryCode":"AR","countryName":"Argentina","latitude":"-32.81411000","longitude":"-63.03252000","wikiDataId":"Q21840564"},{"id":1156,"name":"Inriville","stateId":3642,"stateCode":"X","stateName":"Córdoba","countryId":11,"countryCode":"AR","countryName":"Argentina","latitude":"-32.94424000","longitude":"-62.23028000","wikiDataId":"Q9008605"},{"id":1159,"name":"Isla Verde","stateId":3642,"stateCode":"X","stateName":"Córdoba","countryId":11,"countryCode":"AR","countryName":"Argentina","latitude":"-33.24104000","longitude":"-62.40297000","wikiDataId":"Q21840678"},{"id":1160,"name":"Italó","stateId":3642,"stateCode":"X","stateName":"Córdoba","countryId":11,"countryCode":"AR","countryName":"Argentina","latitude":"-34.79237000","longitude":"-63.78199000","wikiDataId":"Q21840687"},{"id":1165,"name":"James Craik","stateId":3642,"stateCode":"X","stateName":"Córdoba","countryId":11,"countryCode":"AR","countryName":"Argentina","latitude":"-32.16120000","longitude":"-63.46688000","wikiDataId":"Q2732721"},{"id":1167,"name":"Jesús María","stateId":3642,"stateCode":"X","stateName":"Córdoba","countryId":11,"countryCode":"AR","countryName":"Argentina","latitude":"-30.98153000","longitude":"-64.09424000","wikiDataId":"Q48288"},{"id":1173,"name":"Justiniano Posse","stateId":3642,"stateCode":"X","stateName":"Córdoba","countryId":11,"countryCode":"AR","countryName":"Argentina","latitude":"-32.88411000","longitude":"-62.67788000","wikiDataId":"Q524744"},{"id":1178,"name":"La Calera","stateId":3642,"stateCode":"X","stateName":"Córdoba","countryId":11,"countryCode":"AR","countryName":"Argentina","latitude":"-31.34377000","longitude":"-64.33529000","wikiDataId":"Q21840871"},{"id":1179,"name":"La Carlota","stateId":3642,"stateCode":"X","stateName":"Córdoba","countryId":11,"countryCode":"AR","countryName":"Argentina","latitude":"-33.41993000","longitude":"-63.29769000","wikiDataId":"Q2336157"},{"id":1180,"name":"La Cesira","stateId":3642,"stateCode":"X","stateName":"Córdoba","countryId":11,"countryCode":"AR","countryName":"Argentina","latitude":"-33.95115000","longitude":"-62.97238000","wikiDataId":"Q10315018"},{"id":1185,"name":"La Cumbre","stateId":3642,"stateCode":"X","stateName":"Córdoba","countryId":11,"countryCode":"AR","countryName":"Argentina","latitude":"-30.98201000","longitude":"-64.49139000","wikiDataId":"Q1798756"},{"id":1188,"name":"La Falda","stateId":3642,"stateCode":"X","stateName":"Córdoba","countryId":11,"countryCode":"AR","countryName":"Argentina","latitude":"-31.08841000","longitude":"-64.48987000","wikiDataId":"Q48294"},{"id":1189,"name":"La Francia","stateId":3642,"stateCode":"X","stateName":"Córdoba","countryId":11,"countryCode":"AR","countryName":"Argentina","latitude":"-31.40675000","longitude":"-62.63396000","wikiDataId":"Q9018548"},{"id":1190,"name":"La Granja","stateId":3642,"stateCode":"X","stateName":"Córdoba","countryId":11,"countryCode":"AR","countryName":"Argentina","latitude":"-31.00919000","longitude":"-64.26869000","wikiDataId":"Q21840995"},{"id":1194,"name":"La Para","stateId":3642,"stateCode":"X","stateName":"Córdoba","countryId":11,"countryCode":"AR","countryName":"Argentina","latitude":"-30.89416000","longitude":"-63.00107000","wikiDataId":"Q977211"},{"id":1196,"name":"La Playosa","stateId":3642,"stateCode":"X","stateName":"Córdoba","countryId":11,"countryCode":"AR","countryName":"Argentina","latitude":"-32.10002000","longitude":"-63.03088000","wikiDataId":"Q9018831"},{"id":1204,"name":"Laborde","stateId":3642,"stateCode":"X","stateName":"Córdoba","countryId":11,"countryCode":"AR","countryName":"Argentina","latitude":"-33.15319000","longitude":"-62.85661000","wikiDataId":"Q850581"},{"id":1205,"name":"Laboulaye","stateId":3642,"stateCode":"X","stateName":"Córdoba","countryId":11,"countryCode":"AR","countryName":"Argentina","latitude":"-34.12662000","longitude":"-63.39119000","wikiDataId":"Q2520086"},{"id":1207,"name":"Laguna Larga","stateId":3642,"stateCode":"X","stateName":"Córdoba","countryId":11,"countryCode":"AR","countryName":"Argentina","latitude":"-31.77652000","longitude":"-63.80104000","wikiDataId":"Q21838086"},{"id":1215,"name":"Las Acequias","stateId":3642,"stateCode":"X","stateName":"Córdoba","countryId":11,"countryCode":"AR","countryName":"Argentina","latitude":"-33.28155000","longitude":"-63.97610000","wikiDataId":"Q9020363"},{"id":1221,"name":"Las Higueras","stateId":3642,"stateCode":"X","stateName":"Córdoba","countryId":11,"countryCode":"AR","countryName":"Argentina","latitude":"-33.09231000","longitude":"-64.28899000","wikiDataId":"Q21838493"},{"id":1222,"name":"Las Junturas","stateId":3642,"stateCode":"X","stateName":"Córdoba","countryId":11,"countryCode":"AR","countryName":"Argentina","latitude":"-31.83125000","longitude":"-63.45016000","wikiDataId":"Q9020468"},{"id":1228,"name":"Las Perdices","stateId":3642,"stateCode":"X","stateName":"Córdoba","countryId":11,"countryCode":"AR","countryName":"Argentina","latitude":"-32.69794000","longitude":"-63.70634000","wikiDataId":"Q21838558"},{"id":1232,"name":"Las Varas","stateId":3642,"stateCode":"X","stateName":"Córdoba","countryId":11,"countryCode":"AR","countryName":"Argentina","latitude":"-31.80260000","longitude":"-62.61655000","wikiDataId":"Q21838615"},{"id":1233,"name":"Las Varillas","stateId":3642,"stateCode":"X","stateName":"Córdoba","countryId":11,"countryCode":"AR","countryName":"Argentina","latitude":"-31.87208000","longitude":"-62.71946000","wikiDataId":"Q10316445"},{"id":1234,"name":"Leones","stateId":3642,"stateCode":"X","stateName":"Córdoba","countryId":11,"countryCode":"AR","countryName":"Argentina","latitude":"-32.66174000","longitude":"-62.29678000","wikiDataId":"Q21838780"},{"id":1246,"name":"Los Cocos","stateId":3642,"stateCode":"X","stateName":"Córdoba","countryId":11,"countryCode":"AR","countryName":"Argentina","latitude":"-30.92497000","longitude":"-64.50207000","wikiDataId":"Q6682609"},{"id":1248,"name":"Los Cóndores","stateId":3642,"stateCode":"X","stateName":"Córdoba","countryId":11,"countryCode":"AR","countryName":"Argentina","latitude":"-32.31983000","longitude":"-64.27751000","wikiDataId":"Q21839069"},{"id":1254,"name":"Los Surgentes","stateId":3642,"stateCode":"X","stateName":"Córdoba","countryId":11,"countryCode":"AR","countryName":"Argentina","latitude":"-32.98454000","longitude":"-62.02191000","wikiDataId":"Q5487799"},{"id":1266,"name":"Malagueño","stateId":3642,"stateCode":"X","stateName":"Córdoba","countryId":11,"countryCode":"AR","countryName":"Argentina","latitude":"-31.46467000","longitude":"-64.35840000","wikiDataId":"Q1886644"},{"id":1267,"name":"Malvinas Argentinas","stateId":3642,"stateCode":"X","stateName":"Córdoba","countryId":11,"countryCode":"AR","countryName":"Argentina","latitude":"-31.38194000","longitude":"-64.05545000","wikiDataId":"Q503652"},{"id":1269,"name":"Marcos Juárez","stateId":3642,"stateCode":"X","stateName":"Córdoba","countryId":11,"countryCode":"AR","countryName":"Argentina","latitude":"-32.69780000","longitude":"-62.10672000","wikiDataId":"Q1016881"},{"id":1273,"name":"Marull","stateId":3642,"stateCode":"X","stateName":"Córdoba","countryId":11,"countryCode":"AR","countryName":"Argentina","latitude":"-30.99471000","longitude":"-62.82576000","wikiDataId":"Q2500565"},{"id":1274,"name":"Mattaldi","stateId":3642,"stateCode":"X","stateName":"Córdoba","countryId":11,"countryCode":"AR","countryName":"Argentina","latitude":"-34.48194000","longitude":"-64.17255000","wikiDataId":"Q21837152"},{"id":1277,"name":"Mendiolaza","stateId":3642,"stateCode":"X","stateName":"Córdoba","countryId":11,"countryCode":"AR","countryName":"Argentina","latitude":"-31.26738000","longitude":"-64.30087000","wikiDataId":"Q9031514"},{"id":1282,"name":"Mina Clavero","stateId":3642,"stateCode":"X","stateName":"Córdoba","countryId":11,"countryCode":"AR","countryName":"Argentina","latitude":"-31.72101000","longitude":"-65.00619000","wikiDataId":"Q48348"},{"id":1283,"name":"Miramar","stateId":3642,"stateCode":"X","stateName":"Córdoba","countryId":11,"countryCode":"AR","countryName":"Argentina","latitude":"-30.91859000","longitude":"-62.67814000","wikiDataId":"Q991707"},{"id":1286,"name":"Monte Buey","stateId":3642,"stateCode":"X","stateName":"Córdoba","countryId":11,"countryCode":"AR","countryName":"Argentina","latitude":"-32.91642000","longitude":"-62.45669000","wikiDataId":"Q2506369"},{"id":1288,"name":"Monte Cristo","stateId":3642,"stateCode":"X","stateName":"Córdoba","countryId":11,"countryCode":"AR","countryName":"Argentina","latitude":"-31.34312000","longitude":"-63.94437000","wikiDataId":"Q21837558"},{"id":1289,"name":"Monte Maíz","stateId":3642,"stateCode":"X","stateName":"Córdoba","countryId":11,"countryCode":"AR","countryName":"Argentina","latitude":"-33.20462000","longitude":"-62.60085000","wikiDataId":"Q9034750"},{"id":1292,"name":"Morrison","stateId":3642,"stateCode":"X","stateName":"Córdoba","countryId":11,"countryCode":"AR","countryName":"Argentina","latitude":"-32.59480000","longitude":"-62.83455000","wikiDataId":"Q21837657"},{"id":1293,"name":"Morteros","stateId":3642,"stateCode":"X","stateName":"Córdoba","countryId":11,"countryCode":"AR","countryName":"Argentina","latitude":"-30.71164000","longitude":"-61.99862000","wikiDataId":"Q953723"},{"id":1299,"name":"Noetinger","stateId":3642,"stateCode":"X","stateName":"Córdoba","countryId":11,"countryCode":"AR","countryName":"Argentina","latitude":"-32.36597000","longitude":"-62.31126000","wikiDataId":"Q525771"},{"id":1305,"name":"Obispo Trejo","stateId":3642,"stateCode":"X","stateName":"Córdoba","countryId":11,"countryCode":"AR","countryName":"Argentina","latitude":"-30.78128000","longitude":"-63.41349000","wikiDataId":"Q3482948"},{"id":1306,"name":"Oliva","stateId":3642,"stateCode":"X","stateName":"Córdoba","countryId":11,"countryCode":"AR","countryName":"Argentina","latitude":"-32.04158000","longitude":"-63.56978000","wikiDataId":"Q3111948"},{"id":1307,"name":"Oncativo","stateId":3642,"stateCode":"X","stateName":"Córdoba","countryId":11,"countryCode":"AR","countryName":"Argentina","latitude":"-31.91353000","longitude":"-63.68201000","wikiDataId":"Q2106471"},{"id":1308,"name":"Ordóñez","stateId":3642,"stateCode":"X","stateName":"Córdoba","countryId":11,"countryCode":"AR","countryName":"Argentina","latitude":"-32.84057000","longitude":"-62.86552000","wikiDataId":"Q10341376"},{"id":1321,"name":"Pascanas","stateId":3642,"stateCode":"X","stateName":"Córdoba","countryId":11,"countryCode":"AR","countryName":"Argentina","latitude":"-33.12550000","longitude":"-63.04084000","wikiDataId":"Q7141762"},{"id":1322,"name":"Pasco","stateId":3642,"stateCode":"X","stateName":"Córdoba","countryId":11,"countryCode":"AR","countryName":"Argentina","latitude":"-32.74733000","longitude":"-63.34232000","wikiDataId":"Q21835214"},{"id":1333,"name":"Pilar","stateId":3642,"stateCode":"X","stateName":"Córdoba","countryId":11,"countryCode":"AR","countryName":"Argentina","latitude":"-31.67890000","longitude":"-63.87964000","wikiDataId":"Q7193761"},{"id":1335,"name":"Piquillín","stateId":3642,"stateCode":"X","stateName":"Córdoba","countryId":11,"countryCode":"AR","countryName":"Argentina","latitude":"-31.30158000","longitude":"-63.75788000","wikiDataId":"Q6076671"},{"id":1341,"name":"Porteña","stateId":3642,"stateCode":"X","stateName":"Córdoba","countryId":11,"countryCode":"AR","countryName":"Argentina","latitude":"-31.01391000","longitude":"-62.06650000","wikiDataId":"Q2071003"},{"id":1343,"name":"Pozo del Molle","stateId":3642,"stateCode":"X","stateName":"Córdoba","countryId":11,"countryCode":"AR","countryName":"Argentina","latitude":"-32.01860000","longitude":"-62.91984000","wikiDataId":"Q3909741"},{"id":1368,"name":"Quilino","stateId":3642,"stateCode":"X","stateName":"Córdoba","countryId":11,"countryCode":"AR","countryName":"Argentina","latitude":"-30.21397000","longitude":"-64.50063000","wikiDataId":"Q21836395"},{"id":1388,"name":"Río Ceballos","stateId":3642,"stateCode":"X","stateName":"Córdoba","countryId":11,"countryCode":"AR","countryName":"Argentina","latitude":"-31.16486000","longitude":"-64.32241000","wikiDataId":"Q990605"},{"id":1390,"name":"Río Cuarto","stateId":3642,"stateCode":"X","stateName":"Córdoba","countryId":11,"countryCode":"AR","countryName":"Argentina","latitude":"-33.13067000","longitude":"-64.34992000","wikiDataId":"Q983451"},{"id":1395,"name":"Río Segundo","stateId":3642,"stateCode":"X","stateName":"Córdoba","countryId":11,"countryCode":"AR","countryName":"Argentina","latitude":"-31.65260000","longitude":"-63.90990000","wikiDataId":"Q1937588"},{"id":1396,"name":"Río Tercero","stateId":3642,"stateCode":"X","stateName":"Córdoba","countryId":11,"countryCode":"AR","countryName":"Argentina","latitude":"-32.17301000","longitude":"-64.11405000","wikiDataId":"Q994351"},{"id":1398,"name":"Sacanta","stateId":3642,"stateCode":"X","stateName":"Córdoba","countryId":11,"countryCode":"AR","countryName":"Argentina","latitude":"-31.66300000","longitude":"-63.04505000","wikiDataId":"Q9072519"},{"id":1400,"name":"Saldán","stateId":3642,"stateCode":"X","stateName":"Córdoba","countryId":11,"countryCode":"AR","countryName":"Argentina","latitude":"-31.30262000","longitude":"-64.30700000","wikiDataId":"Q2214082"},{"id":1401,"name":"Salsacate","stateId":3642,"stateCode":"X","stateName":"Córdoba","countryId":11,"countryCode":"AR","countryName":"Argentina","latitude":"-31.31842000","longitude":"-65.09003000","wikiDataId":"Q3111167"},{"id":1402,"name":"Salsipuedes","stateId":3642,"stateCode":"X","stateName":"Córdoba","countryId":11,"countryCode":"AR","countryName":"Argentina","latitude":"-31.13725000","longitude":"-64.29589000","wikiDataId":"Q21833759"},{"id":1404,"name":"Sampacho","stateId":3642,"stateCode":"X","stateName":"Córdoba","countryId":11,"countryCode":"AR","countryName":"Argentina","latitude":"-33.38390000","longitude":"-64.72211000","wikiDataId":"Q2982604"},{"id":1406,"name":"San Agustín","stateId":3642,"stateCode":"X","stateName":"Córdoba","countryId":11,"countryCode":"AR","countryName":"Argentina","latitude":"-31.97681000","longitude":"-64.37400000","wikiDataId":"Q1863952"},{"id":1410,"name":"San Antonio de Litín","stateId":3642,"stateCode":"X","stateName":"Córdoba","countryId":11,"countryCode":"AR","countryName":"Argentina","latitude":"-32.21377000","longitude":"-62.63237000","wikiDataId":"Q9073324"},{"id":1412,"name":"San Basilio","stateId":3642,"stateCode":"X","stateName":"Córdoba","countryId":11,"countryCode":"AR","countryName":"Argentina","latitude":"-33.49763000","longitude":"-64.31495000","wikiDataId":"Q21833822"},{"id":1415,"name":"San Carlos","stateId":3642,"stateCode":"X","stateName":"Córdoba","countryId":11,"countryCode":"AR","countryName":"Argentina","latitude":"-31.17761000","longitude":"-65.10245000","wikiDataId":"Q967364"},{"id":1422,"name":"San Francisco","stateId":3642,"stateCode":"X","stateName":"Córdoba","countryId":11,"countryCode":"AR","countryName":"Argentina","latitude":"-31.42797000","longitude":"-62.08266000","wikiDataId":"Q949535"},{"id":1424,"name":"San Francisco del Chañar","stateId":3642,"stateCode":"X","stateName":"Córdoba","countryId":11,"countryCode":"AR","countryName":"Argentina","latitude":"-29.78830000","longitude":"-63.94411000","wikiDataId":"Q3082023"},{"id":1432,"name":"San José de la Dormida","stateId":3642,"stateCode":"X","stateName":"Córdoba","countryId":11,"countryCode":"AR","countryName":"Argentina","latitude":"-30.35440000","longitude":"-63.94871000","wikiDataId":"Q6119038"},{"id":1457,"name":"Santa Eufemia","stateId":3642,"stateCode":"X","stateName":"Córdoba","countryId":11,"countryCode":"AR","countryName":"Argentina","latitude":"-33.17659000","longitude":"-63.28281000","wikiDataId":"Q10367830"},{"id":1462,"name":"Santa Magdalena","stateId":3642,"stateCode":"X","stateName":"Córdoba","countryId":11,"countryCode":"AR","countryName":"Argentina","latitude":"-34.51776000","longitude":"-63.94409000","wikiDataId":"Q1709980"},{"id":1467,"name":"Santa Rosa de Calamuchita","stateId":3642,"stateCode":"X","stateName":"Córdoba","countryId":11,"countryCode":"AR","countryName":"Argentina","latitude":"-32.06905000","longitude":"-64.53631000","wikiDataId":"Q15329"},{"id":1468,"name":"Santa Rosa de Río Primero","stateId":3642,"stateCode":"X","stateName":"Córdoba","countryId":11,"countryCode":"AR","countryName":"Argentina","latitude":"-31.15231000","longitude":"-63.40191000","wikiDataId":"Q2765854"},{"id":1472,"name":"Santiago Temple","stateId":3642,"stateCode":"X","stateName":"Córdoba","countryId":11,"countryCode":"AR","countryName":"Argentina","latitude":"-31.38731000","longitude":"-63.41821000","wikiDataId":"Q9074307"},{"id":1479,"name":"Saturnino M. Laspiur","stateId":3642,"stateCode":"X","stateName":"Córdoba","countryId":11,"countryCode":"AR","countryName":"Argentina","latitude":"-31.70287000","longitude":"-62.48202000","wikiDataId":"Q21834167"},{"id":1481,"name":"Sebastián Elcano","stateId":3642,"stateCode":"X","stateName":"Córdoba","countryId":11,"countryCode":"AR","countryName":"Argentina","latitude":"-30.16105000","longitude":"-63.59360000","wikiDataId":"Q21834217"},{"id":1484,"name":"Serrano","stateId":3642,"stateCode":"X","stateName":"Córdoba","countryId":11,"countryCode":"AR","countryName":"Argentina","latitude":"-34.46971000","longitude":"-63.53842000","wikiDataId":"Q974361"},{"id":1485,"name":"Serrezuela","stateId":3642,"stateCode":"X","stateName":"Córdoba","countryId":11,"countryCode":"AR","countryName":"Argentina","latitude":"-30.63761000","longitude":"-65.38692000","wikiDataId":"Q21834373"},{"id":1497,"name":"Tancacha","stateId":3642,"stateCode":"X","stateName":"Córdoba","countryId":11,"countryCode":"AR","countryName":"Argentina","latitude":"-32.24309000","longitude":"-63.98070000","wikiDataId":"Q21831429"},{"id":1502,"name":"Ticino","stateId":3642,"stateCode":"X","stateName":"Córdoba","countryId":11,"countryCode":"AR","countryName":"Argentina","latitude":"-32.69350000","longitude":"-63.43606000","wikiDataId":"Q21831530"},{"id":1517,"name":"Tío Pujio","stateId":3642,"stateCode":"X","stateName":"Córdoba","countryId":11,"countryCode":"AR","countryName":"Argentina","latitude":"-32.28790000","longitude":"-63.35598000","wikiDataId":"Q6154571"},{"id":1507,"name":"Toledo","stateId":3642,"stateCode":"X","stateName":"Córdoba","countryId":11,"countryCode":"AR","countryName":"Argentina","latitude":"-31.55574000","longitude":"-64.00947000","wikiDataId":"Q21831641"},{"id":1519,"name":"Ucacha","stateId":3642,"stateCode":"X","stateName":"Córdoba","countryId":11,"countryCode":"AR","countryName":"Argentina","latitude":"-33.03203000","longitude":"-63.50666000","wikiDataId":"Q2628025"},{"id":1521,"name":"Unquillo","stateId":3642,"stateCode":"X","stateName":"Córdoba","countryId":11,"countryCode":"AR","countryName":"Argentina","latitude":"-31.23073000","longitude":"-64.31615000","wikiDataId":"Q3120316"},{"id":1526,"name":"Valle Hermoso","stateId":3642,"stateCode":"X","stateName":"Córdoba","countryId":11,"countryCode":"AR","countryName":"Argentina","latitude":"-31.11732000","longitude":"-64.48084000","wikiDataId":"Q9092406"},{"id":1532,"name":"Viamonte","stateId":3642,"stateCode":"X","stateName":"Córdoba","countryId":11,"countryCode":"AR","countryName":"Argentina","latitude":"-33.74647000","longitude":"-63.09764000","wikiDataId":"Q21832337"},{"id":1535,"name":"Vicuña Mackenna","stateId":3642,"stateCode":"X","stateName":"Córdoba","countryId":11,"countryCode":"AR","countryName":"Argentina","latitude":"-33.91965000","longitude":"-64.39215000","wikiDataId":"Q918656"},{"id":1537,"name":"Villa Allende","stateId":3642,"stateCode":"X","stateName":"Córdoba","countryId":11,"countryCode":"AR","countryName":"Argentina","latitude":"-31.29458000","longitude":"-64.29538000","wikiDataId":"Q991758"},{"id":1538,"name":"Villa Ascasubi","stateId":3642,"stateCode":"X","stateName":"Córdoba","countryId":11,"countryCode":"AR","countryName":"Argentina","latitude":"-32.16351000","longitude":"-63.89157000","wikiDataId":"Q1973813"},{"id":1541,"name":"Villa Berna","stateId":3642,"stateCode":"X","stateName":"Córdoba","countryId":11,"countryCode":"AR","countryName":"Argentina","latitude":"-31.91419000","longitude":"-64.73249000","wikiDataId":"Q6162060"},{"id":1544,"name":"Villa Carlos Paz","stateId":3642,"stateCode":"X","stateName":"Córdoba","countryId":11,"countryCode":"AR","countryName":"Argentina","latitude":"-31.42414000","longitude":"-64.49778000","wikiDataId":"Q48285"},{"id":1546,"name":"Villa Concepción del Tío","stateId":3642,"stateCode":"X","stateName":"Córdoba","countryId":11,"countryCode":"AR","countryName":"Argentina","latitude":"-31.32259000","longitude":"-62.81354000","wikiDataId":"Q6162106"},{"id":1548,"name":"Villa Cura Brochero","stateId":3642,"stateCode":"X","stateName":"Córdoba","countryId":11,"countryCode":"AR","countryName":"Argentina","latitude":"-31.70578000","longitude":"-65.01796000","wikiDataId":"Q1818180"},{"id":1581,"name":"Villa de Soto","stateId":3642,"stateCode":"X","stateName":"Córdoba","countryId":11,"countryCode":"AR","countryName":"Argentina","latitude":"-30.85523000","longitude":"-64.99947000","wikiDataId":"Q9093952"},{"id":1582,"name":"Villa del Dique","stateId":3642,"stateCode":"X","stateName":"Córdoba","countryId":11,"countryCode":"AR","countryName":"Argentina","latitude":"-32.17667000","longitude":"-64.45543000","wikiDataId":"Q2170454"},{"id":1583,"name":"Villa del Rosario","stateId":3642,"stateCode":"X","stateName":"Córdoba","countryId":11,"countryCode":"AR","countryName":"Argentina","latitude":"-31.55660000","longitude":"-63.53452000","wikiDataId":"Q2314221"},{"id":1585,"name":"Villa del Totoral","stateId":3642,"stateCode":"X","stateName":"Córdoba","countryId":11,"countryCode":"AR","countryName":"Argentina","latitude":"-30.81667000","longitude":"-63.71667000","wikiDataId":"Q2636994"},{"id":1549,"name":"Villa Dolores","stateId":3642,"stateCode":"X","stateName":"Córdoba","countryId":11,"countryCode":"AR","countryName":"Argentina","latitude":"-31.94585000","longitude":"-65.18958000","wikiDataId":"Q374013"},{"id":1552,"name":"Villa General Belgrano","stateId":3642,"stateCode":"X","stateName":"Córdoba","countryId":11,"countryCode":"AR","countryName":"Argentina","latitude":"-31.97828000","longitude":"-64.55627000","wikiDataId":"Q1013424"},{"id":1556,"name":"Villa Giardino","stateId":3642,"stateCode":"X","stateName":"Córdoba","countryId":11,"countryCode":"AR","countryName":"Argentina","latitude":"-31.03333000","longitude":"-64.48333000","wikiDataId":"Q839912"},{"id":1558,"name":"Villa Huidobro","stateId":3642,"stateCode":"X","stateName":"Córdoba","countryId":11,"countryCode":"AR","countryName":"Argentina","latitude":"-34.83826000","longitude":"-64.58686000","wikiDataId":"Q2730365"},{"id":1560,"name":"Villa Las Rosas","stateId":3642,"stateCode":"X","stateName":"Córdoba","countryId":11,"countryCode":"AR","countryName":"Argentina","latitude":"-31.95021000","longitude":"-65.05354000","wikiDataId":"Q9093939"},{"id":1563,"name":"Villa María","stateId":3642,"stateCode":"X","stateName":"Córdoba","countryId":11,"countryCode":"AR","countryName":"Argentina","latitude":"-32.40751000","longitude":"-63.24016000","wikiDataId":"Q2525523"},{"id":1567,"name":"Villa Nueva","stateId":3642,"stateCode":"X","stateName":"Córdoba","countryId":11,"countryCode":"AR","countryName":"Argentina","latitude":"-32.43293000","longitude":"-63.24763000","wikiDataId":"Q6162298"},{"id":1573,"name":"Villa Reducción","stateId":3642,"stateCode":"X","stateName":"Córdoba","countryId":11,"countryCode":"AR","countryName":"Argentina","latitude":"-33.20105000","longitude":"-63.86234000","wikiDataId":"Q11071461"},{"id":1575,"name":"Villa Rumipal","stateId":3642,"stateCode":"X","stateName":"Córdoba","countryId":11,"countryCode":"AR","countryName":"Argentina","latitude":"-32.18790000","longitude":"-64.48027000","wikiDataId":"Q10391476"},{"id":1578,"name":"Villa Tulumba","stateId":3642,"stateCode":"X","stateName":"Córdoba","countryId":11,"countryCode":"AR","countryName":"Argentina","latitude":"-30.39552000","longitude":"-64.12241000","wikiDataId":"Q3111419"},{"id":1580,"name":"Villa Valeria","stateId":3642,"stateCode":"X","stateName":"Córdoba","countryId":11,"countryCode":"AR","countryName":"Argentina","latitude":"-34.34093000","longitude":"-64.92030000","wikiDataId":"Q9093936"},{"id":1591,"name":"Wenceslao Escalante","stateId":3642,"stateCode":"X","stateName":"Córdoba","countryId":11,"countryCode":"AR","countryName":"Argentina","latitude":"-33.17303000","longitude":"-62.77078000","wikiDataId":"Q10393380"},{"id":658,"name":"Alvear","stateId":3638,"stateCode":"W","stateName":"Corrientes","countryId":11,"countryCode":"AR","countryName":"Argentina","latitude":"-29.09683000","longitude":"-56.55043000","wikiDataId":"Q2658439"},{"id":696,"name":"Berón de Astrada","stateId":3638,"stateCode":"W","stateName":"Corrientes","countryId":11,"countryCode":"AR","countryName":"Argentina","latitude":"-27.55067000","longitude":"-57.53460000","wikiDataId":"Q55856"},{"id":698,"name":"Bonpland","stateId":3638,"stateCode":"W","stateName":"Corrientes","countryId":11,"countryCode":"AR","countryName":"Argentina","latitude":"-29.81708000","longitude":"-57.42974000","wikiDataId":"Q4942564"},{"id":756,"name":"Chavarría","stateId":3638,"stateCode":"W","stateName":"Corrientes","countryId":11,"countryCode":"AR","countryName":"Argentina","latitude":"-28.95489000","longitude":"-58.57277000","wikiDataId":"Q5088475"},{"id":789,"name":"Concepción","stateId":3638,"stateCode":"W","stateName":"Corrientes","countryId":11,"countryCode":"AR","countryName":"Argentina","latitude":"-28.39175000","longitude":"-57.88777000","wikiDataId":"Q1016869"},{"id":803,"name":"Corrientes","stateId":3638,"stateCode":"W","stateName":"Corrientes","countryId":11,"countryCode":"AR","countryName":"Argentina","latitude":"-27.46784000","longitude":"-58.83440000","wikiDataId":"Q44211"},{"id":810,"name":"Cruz de los Milagros","stateId":3638,"stateCode":"W","stateName":"Corrientes","countryId":11,"countryCode":"AR","countryName":"Argentina","latitude":"-28.83646000","longitude":"-59.00476000","wikiDataId":"Q21829416"},{"id":813,"name":"Curuzú Cuatiá","stateId":3638,"stateCode":"W","stateName":"Corrientes","countryId":11,"countryCode":"AR","countryName":"Argentina","latitude":"-29.79171000","longitude":"-58.05460000","wikiDataId":"Q2364886"},{"id":836,"name":"Departamento de Bella Vista","stateId":3638,"stateCode":"W","stateName":"Corrientes","countryId":11,"countryCode":"AR","countryName":"Argentina","latitude":"-28.50000000","longitude":"-58.83333000","wikiDataId":"Q792464"},{"id":838,"name":"Departamento de Berón de Astrada","stateId":3638,"stateCode":"W","stateName":"Corrientes","countryId":11,"countryCode":"AR","countryName":"Argentina","latitude":"-27.50000000","longitude":"-57.66667000","wikiDataId":"Q573042"},{"id":847,"name":"Departamento de Capital","stateId":3638,"stateCode":"W","stateName":"Corrientes","countryId":11,"countryCode":"AR","countryName":"Argentina","latitude":"-27.50000000","longitude":"-58.75000000","wikiDataId":"Q858107"},{"id":866,"name":"Departamento de Concepción","stateId":3638,"stateCode":"W","stateName":"Corrientes","countryId":11,"countryCode":"AR","countryName":"Argentina","latitude":"-28.33333000","longitude":"-58.00000000","wikiDataId":"Q868674"},{"id":872,"name":"Departamento de Curuzú Cuatiá","stateId":3638,"stateCode":"W","stateName":"Corrientes","countryId":11,"countryCode":"AR","countryName":"Argentina","latitude":"-29.50000000","longitude":"-58.50000000","wikiDataId":"Q899638"},{"id":879,"name":"Departamento de Empedrado","stateId":3638,"stateCode":"W","stateName":"Corrientes","countryId":11,"countryCode":"AR","countryName":"Argentina","latitude":"-27.83333000","longitude":"-58.66667000","wikiDataId":"Q583893"},{"id":881,"name":"Departamento de Esquina","stateId":3638,"stateCode":"W","stateName":"Corrientes","countryId":11,"countryCode":"AR","countryName":"Argentina","latitude":"-30.00000000","longitude":"-59.33333000","wikiDataId":"Q991357"},{"id":888,"name":"Departamento de General Alvear","stateId":3638,"stateCode":"W","stateName":"Corrientes","countryId":11,"countryCode":"AR","countryName":"Argentina","latitude":"-28.83333000","longitude":"-56.50000000","wikiDataId":"Q691062"},{"id":895,"name":"Departamento de General Paz","stateId":3638,"stateCode":"W","stateName":"Corrientes","countryId":11,"countryCode":"AR","countryName":"Argentina","latitude":"-27.75000000","longitude":"-57.83333000","wikiDataId":"Q368679"},{"id":899,"name":"Departamento de Goya","stateId":3638,"stateCode":"W","stateName":"Corrientes","countryId":11,"countryCode":"AR","countryName":"Argentina","latitude":"-29.50000000","longitude":"-59.50000000","wikiDataId":"Q372623"},{"id":912,"name":"Departamento de Itatí","stateId":3638,"stateCode":"W","stateName":"Corrientes","countryId":11,"countryCode":"AR","countryName":"Argentina","latitude":"-27.33333000","longitude":"-58.00000000","wikiDataId":"Q774170"},{"id":913,"name":"Departamento de Ituzaingó","stateId":3638,"stateCode":"W","stateName":"Corrientes","countryId":11,"countryCode":"AR","countryName":"Argentina","latitude":"-27.90085000","longitude":"-56.86604000","wikiDataId":"Q511702"},{"id":925,"name":"Departamento de Lavalle","stateId":3638,"stateCode":"W","stateName":"Corrientes","countryId":11,"countryCode":"AR","countryName":"Argentina","latitude":"-29.00000000","longitude":"-58.91667000","wikiDataId":"Q764565"},{"id":940,"name":"Departamento de Mburucuyá","stateId":3638,"stateCode":"W","stateName":"Corrientes","countryId":11,"countryCode":"AR","countryName":"Argentina","latitude":"-28.00000000","longitude":"-58.25000000","wikiDataId":"Q921040"},{"id":941,"name":"Departamento de Mercedes","stateId":3638,"stateCode":"W","stateName":"Corrientes","countryId":11,"countryCode":"AR","countryName":"Argentina","latitude":"-29.00000000","longitude":"-57.83333000","wikiDataId":"Q1088713"},{"id":945,"name":"Departamento de Monte Caseros","stateId":3638,"stateCode":"W","stateName":"Corrientes","countryId":11,"countryCode":"AR","countryName":"Argentina","latitude":"-30.25000000","longitude":"-57.83333000","wikiDataId":"Q584331"},{"id":957,"name":"Departamento de Paso de los Libres","stateId":3638,"stateCode":"W","stateName":"Corrientes","countryId":11,"countryCode":"AR","countryName":"Argentina","latitude":"-29.66667000","longitude":"-57.25000000","wikiDataId":"Q1953119"},{"id":980,"name":"Departamento de Saladas","stateId":3638,"stateCode":"W","stateName":"Corrientes","countryId":11,"countryCode":"AR","countryName":"Argentina","latitude":"-28.25000000","longitude":"-58.75000000","wikiDataId":"Q1088710"},{"id":984,"name":"Departamento de San Cosme","stateId":3638,"stateCode":"W","stateName":"Corrientes","countryId":11,"countryCode":"AR","countryName":"Argentina","latitude":"-27.33333000","longitude":"-58.50000000","wikiDataId":"Q374940"},{"id":995,"name":"Departamento de San Luis del Palmar","stateId":3638,"stateCode":"W","stateName":"Corrientes","countryId":11,"countryCode":"AR","countryName":"Argentina","latitude":"-27.50000000","longitude":"-58.25000000","wikiDataId":"Q1191103"},{"id":996,"name":"Departamento de San Martín","stateId":3638,"stateCode":"W","stateName":"Corrientes","countryId":11,"countryCode":"AR","countryName":"Argentina","latitude":"-28.83333000","longitude":"-56.91667000","wikiDataId":"Q1063365"},{"id":1001,"name":"Departamento de San Miguel","stateId":3638,"stateCode":"W","stateName":"Corrientes","countryId":11,"countryCode":"AR","countryName":"Argentina","latitude":"-27.91667000","longitude":"-57.50000000","wikiDataId":"Q1063338"},{"id":1004,"name":"Departamento de San Roque","stateId":3638,"stateCode":"W","stateName":"Corrientes","countryId":11,"countryCode":"AR","countryName":"Argentina","latitude":"-28.66667000","longitude":"-58.75000000","wikiDataId":"Q374562"},{"id":1009,"name":"Departamento de Santo Tomé","stateId":3638,"stateCode":"W","stateName":"Corrientes","countryId":11,"countryCode":"AR","countryName":"Argentina","latitude":"-28.25000000","longitude":"-56.25000000","wikiDataId":"Q967023"},{"id":1014,"name":"Departamento de Sauce","stateId":3638,"stateCode":"W","stateName":"Corrientes","countryId":11,"countryCode":"AR","countryName":"Argentina","latitude":"-30.00000000","longitude":"-58.66667000","wikiDataId":"Q630600"},{"id":1068,"name":"Empedrado","stateId":3638,"stateCode":"W","stateName":"Corrientes","countryId":11,"countryCode":"AR","countryName":"Argentina","latitude":"-27.95178000","longitude":"-58.80584000","wikiDataId":"Q2792846"},{"id":1071,"name":"Esquina","stateId":3638,"stateCode":"W","stateName":"Corrientes","countryId":11,"countryCode":"AR","countryName":"Argentina","latitude":"-30.01476000","longitude":"-59.52890000","wikiDataId":"Q55860"},{"id":1077,"name":"Felipe Yofré","stateId":3638,"stateCode":"W","stateName":"Corrientes","countryId":11,"countryCode":"AR","countryName":"Argentina","latitude":"-29.10226000","longitude":"-58.33772000","wikiDataId":"Q21828202"},{"id":1089,"name":"Garruchos","stateId":3638,"stateCode":"W","stateName":"Corrientes","countryId":11,"countryCode":"AR","countryName":"Argentina","latitude":"-28.17208000","longitude":"-55.65406000","wikiDataId":"Q5875555"},{"id":1118,"name":"Gobernador Juan E. Martínez","stateId":3638,"stateCode":"W","stateName":"Corrientes","countryId":11,"countryCode":"AR","countryName":"Argentina","latitude":"-28.91161000","longitude":"-58.93594000","wikiDataId":"Q5881697"},{"id":1121,"name":"Gobernador Virasora","stateId":3638,"stateCode":"W","stateName":"Corrientes","countryId":11,"countryCode":"AR","countryName":"Argentina","latitude":"-28.05000000","longitude":"-56.03333000","wikiDataId":"Q2100648"},{"id":1123,"name":"Goya","stateId":3638,"stateCode":"W","stateName":"Corrientes","countryId":11,"countryCode":"AR","countryName":"Argentina","latitude":"-29.13995000","longitude":"-59.26343000","wikiDataId":"Q55862"},{"id":1134,"name":"Herlitzka","stateId":3638,"stateCode":"W","stateName":"Corrientes","countryId":11,"countryCode":"AR","countryName":"Argentina","latitude":"-27.56516000","longitude":"-58.25557000","wikiDataId":"Q5894887"},{"id":1163,"name":"Itá Ibaté","stateId":3638,"stateCode":"W","stateName":"Corrientes","countryId":11,"countryCode":"AR","countryName":"Argentina","latitude":"-27.42573000","longitude":"-57.33758000","wikiDataId":"Q5923221"},{"id":1161,"name":"Itatí","stateId":3638,"stateCode":"W","stateName":"Corrientes","countryId":11,"countryCode":"AR","countryName":"Argentina","latitude":"-27.27043000","longitude":"-58.24458000","wikiDataId":"Q549659"},{"id":1162,"name":"Ituzaingó","stateId":3638,"stateCode":"W","stateName":"Corrientes","countryId":11,"countryCode":"AR","countryName":"Argentina","latitude":"-27.58162000","longitude":"-56.68231000","wikiDataId":"Q1470601"},{"id":1171,"name":"Juan Pujol","stateId":3638,"stateCode":"W","stateName":"Corrientes","countryId":11,"countryCode":"AR","countryName":"Argentina","latitude":"-30.41873000","longitude":"-57.85612000","wikiDataId":"Q2313682"},{"id":1184,"name":"La Cruz","stateId":3638,"stateCode":"W","stateName":"Corrientes","countryId":11,"countryCode":"AR","countryName":"Argentina","latitude":"-29.17443000","longitude":"-56.64326000","wikiDataId":"Q1016042"},{"id":1235,"name":"Libertad","stateId":3638,"stateCode":"W","stateName":"Corrientes","countryId":11,"countryCode":"AR","countryName":"Argentina","latitude":"-30.04300000","longitude":"-57.82020000","wikiDataId":"Q21826989"},{"id":1237,"name":"Lomas de Vallejos","stateId":3638,"stateCode":"W","stateName":"Corrientes","countryId":11,"countryCode":"AR","countryName":"Argentina","latitude":"-27.73501000","longitude":"-57.91850000","wikiDataId":"Q5638031"},{"id":1242,"name":"Loreto","stateId":3638,"stateCode":"W","stateName":"Corrientes","countryId":11,"countryCode":"AR","countryName":"Argentina","latitude":"-27.76834000","longitude":"-57.27531000","wikiDataId":"Q21827027"},{"id":1271,"name":"Mariano I. Loza","stateId":3638,"stateCode":"W","stateName":"Corrientes","countryId":11,"countryCode":"AR","countryName":"Argentina","latitude":"-29.37667000","longitude":"-58.19436000","wikiDataId":"Q5997783"},{"id":1275,"name":"Mburucuyá","stateId":3638,"stateCode":"W","stateName":"Corrientes","countryId":11,"countryCode":"AR","countryName":"Argentina","latitude":"-28.04532000","longitude":"-58.22835000","wikiDataId":"Q1015504"},{"id":1279,"name":"Mercedes","stateId":3638,"stateCode":"W","stateName":"Corrientes","countryId":11,"countryCode":"AR","countryName":"Argentina","latitude":"-29.18416000","longitude":"-58.07519000","wikiDataId":"Q1783539"},{"id":1284,"name":"Mocoretá","stateId":3638,"stateCode":"W","stateName":"Corrientes","countryId":11,"countryCode":"AR","countryName":"Argentina","latitude":"-30.61891000","longitude":"-57.96344000","wikiDataId":"Q55861"},{"id":1287,"name":"Monte Caseros","stateId":3638,"stateCode":"W","stateName":"Corrientes","countryId":11,"countryCode":"AR","countryName":"Argentina","latitude":"-30.25359000","longitude":"-57.63626000","wikiDataId":"Q765820"},{"id":1301,"name":"Nuestra Señora del Rosario de Caa Catí","stateId":3638,"stateCode":"W","stateName":"Corrientes","countryId":11,"countryCode":"AR","countryName":"Argentina","latitude":"-27.75072000","longitude":"-57.62073000","wikiDataId":"Q682849"},{"id":1303,"name":"Nueve de Julio","stateId":3638,"stateCode":"W","stateName":"Corrientes","countryId":11,"countryCode":"AR","countryName":"Argentina","latitude":"-28.84051000","longitude":"-58.82650000","wikiDataId":"Q7068654"},{"id":1311,"name":"Palmar Grande","stateId":3638,"stateCode":"W","stateName":"Corrientes","countryId":11,"countryCode":"AR","countryName":"Argentina","latitude":"-27.94195000","longitude":"-57.90057000","wikiDataId":"Q21827359"},{"id":1323,"name":"Paso de la Patria","stateId":3638,"stateCode":"W","stateName":"Corrientes","countryId":11,"countryCode":"AR","countryName":"Argentina","latitude":"-27.31676000","longitude":"-58.57197000","wikiDataId":"Q9056608"},{"id":1324,"name":"Paso de los Libres","stateId":3638,"stateCode":"W","stateName":"Corrientes","countryId":11,"countryCode":"AR","countryName":"Argentina","latitude":"-29.71251000","longitude":"-57.08771000","wikiDataId":"Q9056608"},{"id":1325,"name":"Pedro R. Fernández","stateId":3638,"stateCode":"W","stateName":"Corrientes","countryId":11,"countryCode":"AR","countryName":"Argentina","latitude":"-28.75097000","longitude":"-58.65583000","wikiDataId":"Q6069905"},{"id":1327,"name":"Perugorría","stateId":3638,"stateCode":"W","stateName":"Corrientes","countryId":11,"countryCode":"AR","countryName":"Argentina","latitude":"-29.34132000","longitude":"-58.61059000","wikiDataId":"Q6073076"},{"id":1349,"name":"Pueblo Libertador","stateId":3638,"stateCode":"W","stateName":"Corrientes","countryId":11,"countryCode":"AR","countryName":"Argentina","latitude":"-30.22087000","longitude":"-59.38981000","wikiDataId":"Q5394748"},{"id":1382,"name":"Riachuelo","stateId":3638,"stateCode":"W","stateName":"Corrientes","countryId":11,"countryCode":"AR","countryName":"Argentina","latitude":"-27.58191000","longitude":"-58.74497000","wikiDataId":"Q21827593"},{"id":1399,"name":"Saladas","stateId":3638,"stateCode":"W","stateName":"Corrientes","countryId":11,"countryCode":"AR","countryName":"Argentina","latitude":"-28.25384000","longitude":"-58.62591000","wikiDataId":"Q544023"},{"id":1416,"name":"San Carlos","stateId":3638,"stateCode":"W","stateName":"Corrientes","countryId":11,"countryCode":"AR","countryName":"Argentina","latitude":"-27.74586000","longitude":"-55.89731000","wikiDataId":"Q21827699"},{"id":1419,"name":"San Cosme","stateId":3638,"stateCode":"W","stateName":"Corrientes","countryId":11,"countryCode":"AR","countryName":"Argentina","latitude":"-27.37123000","longitude":"-58.51214000","wikiDataId":"Q21827707"},{"id":1437,"name":"San Lorenzo","stateId":3638,"stateCode":"W","stateName":"Corrientes","countryId":11,"countryCode":"AR","countryName":"Argentina","latitude":"-28.13306000","longitude":"-58.76733000","wikiDataId":"Q21827760"},{"id":1439,"name":"San Luis del Palmar","stateId":3638,"stateCode":"W","stateName":"Corrientes","countryId":11,"countryCode":"AR","countryName":"Argentina","latitude":"-27.50790000","longitude":"-58.55454000","wikiDataId":"Q1016055"},{"id":1443,"name":"San Miguel","stateId":3638,"stateCode":"W","stateName":"Corrientes","countryId":11,"countryCode":"AR","countryName":"Argentina","latitude":"-27.99585000","longitude":"-57.58964000","wikiDataId":"Q1016019"},{"id":1461,"name":"Santa Lucía","stateId":3638,"stateCode":"W","stateName":"Corrientes","countryId":11,"countryCode":"AR","countryName":"Argentina","latitude":"-28.98746000","longitude":"-59.10287000","wikiDataId":"Q3949073"},{"id":1466,"name":"Santa Rosa","stateId":3638,"stateCode":"W","stateName":"Corrientes","countryId":11,"countryCode":"AR","countryName":"Argentina","latitude":"-28.26318000","longitude":"-58.11891000","wikiDataId":"Q21827837"},{"id":1476,"name":"Santo Tomé","stateId":3638,"stateCode":"W","stateName":"Corrientes","countryId":11,"countryCode":"AR","countryName":"Argentina","latitude":"-28.54939000","longitude":"-56.04077000","wikiDataId":"Q2031463"},{"id":1594,"name":"Yapeyú","stateId":3638,"stateCode":"W","stateName":"Corrientes","countryId":11,"countryCode":"AR","countryName":"Argentina","latitude":"-29.46914000","longitude":"-56.81841000","wikiDataId":"Q55854"},{"id":1595,"name":"Yataity Calle","stateId":3638,"stateCode":"W","stateName":"Corrientes","countryId":11,"countryCode":"AR","countryName":"Argentina","latitude":"-29.01913000","longitude":"-58.90846000","wikiDataId":"Q21825635"},{"id":645,"name":"Aldea San Antonio","stateId":3654,"stateCode":"E","stateName":"Entre Ríos","countryId":11,"countryCode":"AR","countryName":"Argentina","latitude":"-32.62317000","longitude":"-58.70512000","wikiDataId":"Q4713475"},{"id":665,"name":"Aranguren","stateId":3654,"stateCode":"E","stateName":"Entre Ríos","countryId":11,"countryCode":"AR","countryName":"Argentina","latitude":"-32.24252000","longitude":"-60.16107000","wikiDataId":"Q4784111"},{"id":700,"name":"Bovril","stateId":3654,"stateCode":"E","stateName":"Entre Ríos","countryId":11,"countryCode":"AR","countryName":"Argentina","latitude":"-31.34311000","longitude":"-59.44512000","wikiDataId":"Q2626346"},{"id":735,"name":"Caseros","stateId":3654,"stateCode":"E","stateName":"Entre Ríos","countryId":11,"countryCode":"AR","countryName":"Argentina","latitude":"-32.46325000","longitude":"-58.47872000","wikiDataId":"Q5048424"},{"id":745,"name":"Ceibas","stateId":3654,"stateCode":"E","stateName":"Entre Ríos","countryId":11,"countryCode":"AR","countryName":"Argentina","latitude":"-33.43333000","longitude":"-58.75000000","wikiDataId":"Q5057355"},{"id":751,"name":"Chajarí","stateId":3654,"stateCode":"E","stateName":"Entre Ríos","countryId":11,"countryCode":"AR","countryName":"Argentina","latitude":"-30.75048000","longitude":"-57.97962000","wikiDataId":"Q2654603"},{"id":783,"name":"Colón","stateId":3654,"stateCode":"E","stateName":"Entre Ríos","countryId":11,"countryCode":"AR","countryName":"Argentina","latitude":"-32.22312000","longitude":"-58.14426000","wikiDataId":"Q52591"},{"id":779,"name":"Colonia Elía","stateId":3654,"stateCode":"E","stateName":"Entre Ríos","countryId":11,"countryCode":"AR","countryName":"Argentina","latitude":"-32.67144000","longitude":"-58.32538000","wikiDataId":"Q385453"},{"id":792,"name":"Concepción del Uruguay","stateId":3654,"stateCode":"E","stateName":"Entre Ríos","countryId":11,"countryCode":"AR","countryName":"Argentina","latitude":"-32.48463000","longitude":"-58.23217000","wikiDataId":"Q727464"},{"id":793,"name":"Concordia","stateId":3654,"stateCode":"E","stateName":"Entre Ríos","countryId":11,"countryCode":"AR","countryName":"Argentina","latitude":"-31.39296000","longitude":"-58.02089000","wikiDataId":"Q52578"},{"id":794,"name":"Conscripto Bernardi","stateId":3654,"stateCode":"E","stateName":"Entre Ríos","countryId":11,"countryCode":"AR","countryName":"Argentina","latitude":"-31.04837000","longitude":"-59.08435000","wikiDataId":"Q8349932"},{"id":808,"name":"Crespo","stateId":3654,"stateCode":"E","stateName":"Entre Ríos","countryId":11,"countryCode":"AR","countryName":"Argentina","latitude":"-32.02873000","longitude":"-60.30658000","wikiDataId":"Q2486561"},{"id":902,"name":"Departamento de Gualeguaychú","stateId":3654,"stateCode":"E","stateName":"Entre Ríos","countryId":11,"countryCode":"AR","countryName":"Argentina","latitude":"-33.25000000","longitude":"-59.00000000","wikiDataId":"Q1028486"},{"id":955,"name":"Departamento de Paraná","stateId":3654,"stateCode":"E","stateName":"Entre Ríos","countryId":11,"countryCode":"AR","countryName":"Argentina","latitude":"-31.66667000","longitude":"-60.00000000","wikiDataId":"Q770031"},{"id":1040,"name":"Diamante","stateId":3654,"stateCode":"E","stateName":"Entre Ríos","countryId":11,"countryCode":"AR","countryName":"Argentina","latitude":"-32.06641000","longitude":"-60.63837000","wikiDataId":"Q2381636"},{"id":1043,"name":"Domínguez","stateId":3654,"stateCode":"E","stateName":"Entre Ríos","countryId":11,"countryCode":"AR","countryName":"Argentina","latitude":"-31.98710000","longitude":"-58.96197000","wikiDataId":"Q922694"},{"id":1075,"name":"Federación","stateId":3654,"stateCode":"E","stateName":"Entre Ríos","countryId":11,"countryCode":"AR","countryName":"Argentina","latitude":"-31.00621000","longitude":"-57.89962000","wikiDataId":"Q52595"},{"id":1076,"name":"Federal","stateId":3654,"stateCode":"E","stateName":"Entre Ríos","countryId":11,"countryCode":"AR","countryName":"Argentina","latitude":"-30.95465000","longitude":"-58.78326000","wikiDataId":"Q2158248"},{"id":1098,"name":"General Campos","stateId":3654,"stateCode":"E","stateName":"Entre Ríos","countryId":11,"countryCode":"AR","countryName":"Argentina","latitude":"-31.52311000","longitude":"-58.40490000","wikiDataId":"Q1982713"},{"id":1104,"name":"General Galarza","stateId":3654,"stateCode":"E","stateName":"Entre Ríos","countryId":11,"countryCode":"AR","countryName":"Argentina","latitude":"-32.72034000","longitude":"-59.39615000","wikiDataId":"Q2220740"},{"id":1110,"name":"General Ramírez","stateId":3654,"stateCode":"E","stateName":"Entre Ríos","countryId":11,"countryCode":"AR","countryName":"Argentina","latitude":"-32.17601000","longitude":"-60.20079000","wikiDataId":"Q5532145"},{"id":1119,"name":"Gobernador Mansilla","stateId":3654,"stateCode":"E","stateName":"Entre Ríos","countryId":11,"countryCode":"AR","countryName":"Argentina","latitude":"-32.54453000","longitude":"-59.35480000","wikiDataId":"Q5575454"},{"id":1126,"name":"Gualeguay","stateId":3654,"stateCode":"E","stateName":"Entre Ríos","countryId":11,"countryCode":"AR","countryName":"Argentina","latitude":"-33.14156000","longitude":"-59.30966000","wikiDataId":"Q52602"},{"id":1127,"name":"Gualeguaychú","stateId":3654,"stateCode":"E","stateName":"Entre Ríos","countryId":11,"countryCode":"AR","countryName":"Argentina","latitude":"-33.00937000","longitude":"-58.51722000","wikiDataId":"Q52585"},