[{"id":97919,"name":"Bezhanitsy","stateId":1863,"stateCode":"PSK","stateName":"Pskov Oblast","countryId":182,"countryCode":"RU","countryName":"Russia","latitude":"56.97669000","longitude":"29.89065000","wikiDataId":"Q2008933"},{"id":98256,"name":"Dedovichi","stateId":1863,"stateCode":"PSK","stateName":"Pskov Oblast","countryId":182,"countryCode":"RU","countryName":"Russia","latitude":"57.55166000","longitude":"29.95018000","wikiDataId":"Q989537"},{"id":98290,"name":"Dno","stateId":1863,"stateCode":"PSK","stateName":"Pskov Oblast","countryId":182,"countryCode":"RU","countryName":"Russia","latitude":"57.82772000","longitude":"29.96368000","wikiDataId":"Q135370"},{"id":98470,"name":"Gdov","stateId":1863,"stateCode":"PSK","stateName":"Pskov Oblast","countryId":182,"countryCode":"RU","countryName":"Russia","latitude":"58.74424000","longitude":"27.81977000","wikiDataId":"Q134396"},{"id":98471,"name":"Gdovskiy Rayon","stateId":1863,"stateCode":"PSK","stateName":"Pskov Oblast","countryId":182,"countryCode":"RU","countryName":"Russia","latitude":"58.75000000","longitude":"28.00000000","wikiDataId":"Q2723487"},{"id":98630,"name":"Idritsa","stateId":1863,"stateCode":"PSK","stateName":"Pskov Oblast","countryId":182,"countryCode":"RU","countryName":"Russia","latitude":"56.33157000","longitude":"28.89884000","wikiDataId":"Q3742447"},{"id":98745,"name":"Izborsk","stateId":1863,"stateCode":"PSK","stateName":"Pskov Oblast","countryId":182,"countryCode":"RU","countryName":"Russia","latitude":"57.70757000","longitude":"27.86291000","wikiDataId":"Q1135534"},{"id":99302,"name":"Krasnogorodsk","stateId":1863,"stateCode":"PSK","stateName":"Pskov Oblast","countryId":182,"countryCode":"RU","countryName":"Russia","latitude":"56.83568000","longitude":"28.28224000","wikiDataId":"Q3739436"},{"id":99368,"name":"Krasnyy Luch","stateId":1863,"stateCode":"PSK","stateName":"Pskov Oblast","countryId":182,"countryCode":"RU","countryName":"Russia","latitude":"57.06676000","longitude":"30.09032000","wikiDataId":"Q3742743"},{"id":99448,"name":"Kun’inskiy Rayon","stateId":1863,"stateCode":"PSK","stateName":"Pskov Oblast","countryId":182,"countryCode":"RU","countryName":"Russia","latitude":"56.25000000","longitude":"31.00000000","wikiDataId":"Q2533424"},{"id":99651,"name":"Loknya","stateId":1863,"stateCode":"PSK","stateName":"Pskov Oblast","countryId":182,"countryCode":"RU","countryName":"Russia","latitude":"56.82998000","longitude":"30.14665000","wikiDataId":"Q3740846"},{"id":100115,"name":"Nevel’","stateId":1863,"stateCode":"PSK","stateName":"Pskov Oblast","countryId":182,"countryCode":"RU","countryName":"Russia","latitude":"56.02094000","longitude":"29.92844000","wikiDataId":"Q165773"},{"id":100291,"name":"Novorzhev","stateId":1863,"stateCode":"PSK","stateName":"Pskov Oblast","countryId":182,"countryCode":"RU","countryName":"Russia","latitude":"57.02942000","longitude":"29.33378000","wikiDataId":"Q175209"},{"id":100292,"name":"Novorzhevskiy Rayon","stateId":1863,"stateCode":"PSK","stateName":"Pskov Oblast","countryId":182,"countryCode":"RU","countryName":"Russia","latitude":"57.08333000","longitude":"29.41667000","wikiDataId":"Q2706889"},{"id":100309,"name":"Novosokol’nicheskiy Rayon","stateId":1863,"stateCode":"PSK","stateName":"Pskov Oblast","countryId":182,"countryCode":"RU","countryName":"Russia","latitude":"56.41667000","longitude":"30.00000000","wikiDataId":"Q2533365"},{"id":100310,"name":"Novosokol’niki","stateId":1863,"stateCode":"PSK","stateName":"Pskov Oblast","countryId":182,"countryCode":"RU","countryName":"Russia","latitude":"56.34634000","longitude":"30.15778000","wikiDataId":"Q175353"},{"id":100343,"name":"Novyy Izborsk","stateId":1863,"stateCode":"PSK","stateName":"Pskov Oblast","countryId":182,"countryCode":"RU","countryName":"Russia","latitude":"57.77079000","longitude":"27.97306000","wikiDataId":"Q37898872"},{"id":100455,"name":"Opochka","stateId":1863,"stateCode":"PSK","stateName":"Pskov Oblast","countryId":182,"countryCode":"RU","countryName":"Russia","latitude":"56.71357000","longitude":"28.66388000","wikiDataId":"Q145906"},{"id":100496,"name":"Ostrov","stateId":1863,"stateCode":"PSK","stateName":"Pskov Oblast","countryId":182,"countryCode":"RU","countryName":"Russia","latitude":"57.34395000","longitude":"28.35368000","wikiDataId":"Q176773"},{"id":100498,"name":"Ostrovskiy Rayon","stateId":1863,"stateCode":"PSK","stateName":"Pskov Oblast","countryId":182,"countryCode":"RU","countryName":"Russia","latitude":"57.25000000","longitude":"28.33333000","wikiDataId":"Q2628853"},{"id":100531,"name":"Palkino","stateId":1863,"stateCode":"PSK","stateName":"Pskov Oblast","countryId":182,"countryCode":"RU","countryName":"Russia","latitude":"57.54089000","longitude":"28.01257000","wikiDataId":"Q3739373"},{"id":100532,"name":"Palkinskiy Rayon","stateId":1863,"stateCode":"PSK","stateName":"Pskov Oblast","countryId":182,"countryCode":"RU","countryName":"Russia","latitude":"57.50000000","longitude":"28.00000000","wikiDataId":"Q2706882"},{"id":100588,"name":"Pechorskiy Rayon","stateId":1863,"stateCode":"PSK","stateName":"Pskov Oblast","countryId":182,"countryCode":"RU","countryName":"Russia","latitude":"57.75000000","longitude":"27.75000000","wikiDataId":"Q2534084"},{"id":100589,"name":"Pechory","stateId":1863,"stateCode":"PSK","stateName":"Pskov Oblast","countryId":182,"countryCode":"RU","countryName":"Russia","latitude":"57.81642000","longitude":"27.61190000","wikiDataId":"Q179407"},{"id":100704,"name":"Plyussa","stateId":1863,"stateCode":"PSK","stateName":"Pskov Oblast","countryId":182,"countryCode":"RU","countryName":"Russia","latitude":"58.43078000","longitude":"29.36537000","wikiDataId":"Q3739471"},{"id":100777,"name":"Porkhov","stateId":1863,"stateCode":"PSK","stateName":"Pskov Oblast","countryId":182,"countryCode":"RU","countryName":"Russia","latitude":"57.76502000","longitude":"29.55612000","wikiDataId":"Q183106"},{"id":100778,"name":"Porkhovskiy Rayon","stateId":1863,"stateCode":"PSK","stateName":"Pskov Oblast","countryId":182,"countryCode":"RU","countryName":"Russia","latitude":"57.75000000","longitude":"29.50000000","wikiDataId":"Q2629904"},{"id":100881,"name":"Pskov","stateId":1863,"stateCode":"PSK","stateName":"Pskov Oblast","countryId":182,"countryCode":"RU","countryName":"Russia","latitude":"57.81360000","longitude":"28.34960000","wikiDataId":"Q2214"},{"id":100882,"name":"Pskovskiy Rayon","stateId":1863,"stateCode":"PSK","stateName":"Pskov Oblast","countryId":182,"countryCode":"RU","countryName":"Russia","latitude":"57.75000000","longitude":"28.25000000","wikiDataId":"Q2706915"},{"id":100899,"name":"Pushkino-Gorskiy Rayon","stateId":1863,"stateCode":"PSK","stateName":"Pskov Oblast","countryId":182,"countryCode":"RU","countryName":"Russia","latitude":"57.00000000","longitude":"28.75000000","wikiDataId":"Q1146500"},{"id":100901,"name":"Pushkinskiye Gory","stateId":1863,"stateCode":"PSK","stateName":"Pskov Oblast","countryId":182,"countryCode":"RU","countryName":"Russia","latitude":"57.02085000","longitude":"28.91030000","wikiDataId":"Q3743663"},{"id":100902,"name":"Pustoshka","stateId":1863,"stateCode":"PSK","stateName":"Pskov Oblast","countryId":182,"countryCode":"RU","countryName":"Russia","latitude":"56.33547000","longitude":"29.36901000","wikiDataId":"Q184242"},{"id":100903,"name":"Pustoshkinskiy Rayon","stateId":1863,"stateCode":"PSK","stateName":"Pskov Oblast","countryId":182,"countryCode":"RU","countryName":"Russia","latitude":"56.41667000","longitude":"29.41667000","wikiDataId":"Q2533406"},{"id":100918,"name":"Pytalovo","stateId":1863,"stateCode":"PSK","stateName":"Pskov Oblast","countryId":182,"countryCode":"RU","countryName":"Russia","latitude":"57.06791000","longitude":"27.91384000","wikiDataId":"Q184361"},{"id":100919,"name":"Pytalovskiy Rayon","stateId":1863,"stateCode":"PSK","stateName":"Pskov Oblast","countryId":182,"countryCode":"RU","countryName":"Russia","latitude":"57.00000000","longitude":"28.00000000","wikiDataId":"Q2533375"},{"id":101143,"name":"Sebezh","stateId":1863,"stateCode":"PSK","stateName":"Pskov Oblast","countryId":182,"countryCode":"RU","countryName":"Russia","latitude":"56.28511000","longitude":"28.48187000","wikiDataId":"Q193641"},{"id":101144,"name":"Sebezhskiy Rayon","stateId":1863,"stateCode":"PSK","stateName":"Pskov Oblast","countryId":182,"countryCode":"RU","countryName":"Russia","latitude":"56.25000000","longitude":"28.50000000","wikiDataId":"Q366986"},{"id":101197,"name":"Serëdka","stateId":1863,"stateCode":"PSK","stateName":"Pskov Oblast","countryId":182,"countryCode":"RU","countryName":"Russia","latitude":"58.15838000","longitude":"28.18576000","wikiDataId":"Q37958070"},{"id":101633,"name":"Strugi-Krasnyye","stateId":1863,"stateCode":"PSK","stateName":"Pskov Oblast","countryId":182,"countryCode":"RU","countryName":"Russia","latitude":"58.26754000","longitude":"29.11137000","wikiDataId":"Q37956999"},{"id":101634,"name":"Strugo-Krasnenskiy Rayon","stateId":1863,"stateCode":"PSK","stateName":"Pskov Oblast","countryId":182,"countryCode":"RU","countryName":"Russia","latitude":"58.33333000","longitude":"29.00000000","wikiDataId":"Q2706863"},{"id":102147,"name":"Usvyaty","stateId":1863,"stateCode":"PSK","stateName":"Pskov Oblast","countryId":182,"countryCode":"RU","countryName":"Russia","latitude":"55.74556000","longitude":"30.75333000","wikiDataId":"Q2625702"},{"id":102213,"name":"Velikiye Luki","stateId":1863,"stateCode":"PSK","stateName":"Pskov Oblast","countryId":182,"countryCode":"RU","countryName":"Russia","latitude":"56.34000000","longitude":"30.54517000","wikiDataId":"Q101825"},{"id":102215,"name":"Velikolukskiy Rayon","stateId":1863,"stateCode":"PSK","stateName":"Pskov Oblast","countryId":182,"countryCode":"RU","countryName":"Russia","latitude":"56.50000000","longitude":"30.58333000","wikiDataId":"Q2573291"},{"id":102425,"name":"Vybor","stateId":1863,"stateCode":"PSK","stateName":"Pskov Oblast","countryId":182,"countryCode":"RU","countryName":"Russia","latitude":"57.22716000","longitude":"29.16630000","wikiDataId":"Q102307"}]