[{"id":39294,"name":"Aix-en-Provence","stateId":4812,"stateCode":"PAC","stateName":"Provence-Alpes-Côte-d’Azur","countryId":75,"countryCode":"FR","countryName":"France","latitude":"43.52830000","longitude":"5.44973000","wikiDataId":"Q34795880"},{"id":39322,"name":"Allauch","stateId":4812,"stateCode":"PAC","stateName":"Provence-Alpes-Côte-d’Azur","countryId":75,"countryCode":"FR","countryName":"France","latitude":"43.33573000","longitude":"5.48201000","wikiDataId":"Q269862"},{"id":39323,"name":"Alleins","stateId":4812,"stateCode":"PAC","stateName":"Provence-Alpes-Côte-d’Azur","countryId":75,"countryCode":"FR","countryName":"France","latitude":"43.70387000","longitude":"5.16203000","wikiDataId":"Q330451"},{"id":39335,"name":"Alpes-de-Haute-Provence","stateId":4812,"stateCode":"PAC","stateName":"Provence-Alpes-Côte-d’Azur","countryId":75,"countryCode":"FR","countryName":"France","latitude":"44.09829000","longitude":"6.26537000","wikiDataId":"Q3131"},{"id":39334,"name":"Alpes-Maritimes","stateId":4812,"stateCode":"PAC","stateName":"Provence-Alpes-Côte-d’Azur","countryId":75,"countryCode":"FR","countryName":"France","latitude":"43.91307000","longitude":"7.20436000","wikiDataId":"Q3139"},{"id":39337,"name":"Althen-des-Paluds","stateId":4812,"stateCode":"PAC","stateName":"Provence-Alpes-Côte-d’Azur","countryId":75,"countryCode":"FR","countryName":"France","latitude":"44.00405000","longitude":"4.95861000","wikiDataId":"Q275778"},{"id":39424,"name":"Annot","stateId":4812,"stateCode":"PAC","stateName":"Provence-Alpes-Côte-d’Azur","countryId":75,"countryCode":"FR","countryName":"France","latitude":"43.96528000","longitude":"6.66879000","wikiDataId":"Q157724"},{"id":39429,"name":"Ansouis","stateId":4812,"stateCode":"PAC","stateName":"Provence-Alpes-Côte-d’Azur","countryId":75,"countryCode":"FR","countryName":"France","latitude":"43.73771000","longitude":"5.46356000","wikiDataId":"Q322270"},{"id":39432,"name":"Antibes","stateId":4812,"stateCode":"PAC","stateName":"Provence-Alpes-Côte-d’Azur","countryId":75,"countryCode":"FR","countryName":"France","latitude":"43.58579000","longitude":"7.10831000","wikiDataId":"Q126898"},{"id":39446,"name":"Apt","stateId":4812,"stateCode":"PAC","stateName":"Provence-Alpes-Côte-d’Azur","countryId":75,"countryCode":"FR","countryName":"France","latitude":"43.87638000","longitude":"5.39635000","wikiDataId":"Q1087744"},{"id":39470,"name":"Arenc","stateId":4812,"stateCode":"PAC","stateName":"Provence-Alpes-Côte-d’Azur","countryId":75,"countryCode":"FR","countryName":"France","latitude":"43.31583000","longitude":"5.36698000","wikiDataId":"Q262456"},{"id":39489,"name":"Arles","stateId":4812,"stateCode":"PAC","stateName":"Provence-Alpes-Côte-d’Azur","countryId":75,"countryCode":"FR","countryName":"France","latitude":"43.67681000","longitude":"4.63031000","wikiDataId":"Q48292"},{"id":39550,"name":"Aspremont","stateId":4812,"stateCode":"PAC","stateName":"Provence-Alpes-Côte-d’Azur","countryId":75,"countryCode":"FR","countryName":"France","latitude":"43.78342000","longitude":"7.24406000","wikiDataId":"Q191415"},{"id":39566,"name":"Aubagne","stateId":4812,"stateCode":"PAC","stateName":"Provence-Alpes-Côte-d’Azur","countryId":75,"countryCode":"FR","countryName":"France","latitude":"43.29276000","longitude":"5.57067000","wikiDataId":"Q184047"},{"id":39578,"name":"Aubignan","stateId":4812,"stateCode":"PAC","stateName":"Provence-Alpes-Côte-d’Azur","countryId":75,"countryCode":"FR","countryName":"France","latitude":"44.09971000","longitude":"5.02526000","wikiDataId":"Q658812"},{"id":39622,"name":"Aups","stateId":4812,"stateCode":"PAC","stateName":"Provence-Alpes-Côte-d’Azur","countryId":75,"countryCode":"FR","countryName":"France","latitude":"43.62841000","longitude":"6.22477000","wikiDataId":"Q688183"},{"id":39626,"name":"Aureille","stateId":4812,"stateCode":"PAC","stateName":"Provence-Alpes-Côte-d’Azur","countryId":75,"countryCode":"FR","countryName":"France","latitude":"43.70821000","longitude":"4.94728000","wikiDataId":"Q271387"},{"id":39628,"name":"Auribeau-sur-Siagne","stateId":4812,"stateCode":"PAC","stateName":"Provence-Alpes-Côte-d’Azur","countryId":75,"countryCode":"FR","countryName":"France","latitude":"43.60063000","longitude":"6.90992000","wikiDataId":"Q640639"},{"id":39631,"name":"Auriol","stateId":4812,"stateCode":"PAC","stateName":"Provence-Alpes-Côte-d’Azur","countryId":75,"countryCode":"FR","countryName":"France","latitude":"43.37161000","longitude":"5.63410000","wikiDataId":"Q174234"},{"id":39669,"name":"Avignon","stateId":4812,"stateCode":"PAC","stateName":"Provence-Alpes-Côte-d’Azur","countryId":75,"countryCode":"FR","countryName":"France","latitude":"43.94834000","longitude":"4.80892000","wikiDataId":"Q6397"},{"id":39712,"name":"Bagnols-en-Forêt","stateId":4812,"stateCode":"PAC","stateName":"Provence-Alpes-Côte-d’Azur","countryId":75,"countryCode":"FR","countryName":"France","latitude":"43.53752000","longitude":"6.69814000","wikiDataId":"Q208943"},{"id":39721,"name":"Baille","stateId":4812,"stateCode":"PAC","stateName":"Provence-Alpes-Côte-d’Azur","countryId":75,"countryCode":"FR","countryName":"France","latitude":"43.28770000","longitude":"5.39804000","wikiDataId":"Q1073102"},{"id":39759,"name":"Bandol","stateId":4812,"stateCode":"PAC","stateName":"Provence-Alpes-Côte-d’Azur","countryId":75,"countryCode":"FR","countryName":"France","latitude":"43.14247000","longitude":"5.74718000","wikiDataId":"Q467338"},{"id":39772,"name":"Barbentane","stateId":4812,"stateCode":"PAC","stateName":"Provence-Alpes-Côte-d’Azur","countryId":75,"countryCode":"FR","countryName":"France","latitude":"43.89939000","longitude":"4.74756000","wikiDataId":"Q330430"},{"id":39779,"name":"Barcelonnette","stateId":4812,"stateCode":"PAC","stateName":"Provence-Alpes-Côte-d’Azur","countryId":75,"countryCode":"FR","countryName":"France","latitude":"44.38691000","longitude":"6.65179000","wikiDataId":"Q207577"},{"id":39783,"name":"Bargemon","stateId":4812,"stateCode":"PAC","stateName":"Provence-Alpes-Côte-d’Azur","countryId":75,"countryCode":"FR","countryName":"France","latitude":"43.61899000","longitude":"6.54957000","wikiDataId":"Q808155"},{"id":39785,"name":"Barjols","stateId":4812,"stateCode":"PAC","stateName":"Provence-Alpes-Côte-d’Azur","countryId":75,"countryCode":"FR","countryName":"France","latitude":"43.55805000","longitude":"6.00752000","wikiDataId":"Q658840"},{"id":39855,"name":"Beaulieu-sur-Mer","stateId":4812,"stateCode":"PAC","stateName":"Provence-Alpes-Côte-d’Azur","countryId":75,"countryCode":"FR","countryName":"France","latitude":"43.70692000","longitude":"7.33135000","wikiDataId":"Q271315"},{"id":39857,"name":"Beaumes-de-Venise","stateId":4812,"stateCode":"PAC","stateName":"Provence-Alpes-Côte-d’Azur","countryId":75,"countryCode":"FR","countryName":"France","latitude":"44.12227000","longitude":"5.03065000","wikiDataId":"Q381313"},{"id":39864,"name":"Beaumont-de-Pertuis","stateId":4812,"stateCode":"PAC","stateName":"Provence-Alpes-Côte-d’Azur","countryId":75,"countryCode":"FR","countryName":"France","latitude":"43.73737000","longitude":"5.68959000","wikiDataId":"Q381313"},{"id":39886,"name":"Beausoleil","stateId":4812,"stateCode":"PAC","stateName":"Provence-Alpes-Côte-d’Azur","countryId":75,"countryCode":"FR","countryName":"France","latitude":"43.74311000","longitude":"7.42250000","wikiDataId":"Q274740"},{"id":40413,"name":"Bédarrides","stateId":4812,"stateCode":"PAC","stateName":"Provence-Alpes-Côte-d’Azur","countryId":75,"countryCode":"FR","countryName":"France","latitude":"44.04022000","longitude":"4.89819000","wikiDataId":"Q377384"},{"id":40414,"name":"Bédoin","stateId":4812,"stateCode":"PAC","stateName":"Provence-Alpes-Côte-d’Azur","countryId":75,"countryCode":"FR","countryName":"France","latitude":"44.12432000","longitude":"5.18040000","wikiDataId":"Q379954"},{"id":39903,"name":"Belcodène","stateId":4812,"stateCode":"PAC","stateName":"Provence-Alpes-Côte-d’Azur","countryId":75,"countryCode":"FR","countryName":"France","latitude":"43.42612000","longitude":"5.58878000","wikiDataId":"Q62838"},{"id":39905,"name":"Belgentier","stateId":4812,"stateCode":"PAC","stateName":"Provence-Alpes-Côte-d’Azur","countryId":75,"countryCode":"FR","countryName":"France","latitude":"43.24535000","longitude":"5.99933000","wikiDataId":"Q687913"},{"id":39909,"name":"Belle de Mai","stateId":4812,"stateCode":"PAC","stateName":"Provence-Alpes-Côte-d’Azur","countryId":75,"countryCode":"FR","countryName":"France","latitude":"43.31184000","longitude":"5.38541000","wikiDataId":"Q214597"},{"id":39935,"name":"Belsunce","stateId":4812,"stateCode":"PAC","stateName":"Provence-Alpes-Côte-d’Azur","countryId":75,"countryCode":"FR","countryName":"France","latitude":"43.29834000","longitude":"5.37660000","wikiDataId":"Q193546"},{"id":39959,"name":"Berre-l'Étang","stateId":4812,"stateCode":"PAC","stateName":"Provence-Alpes-Côte-d’Azur","countryId":75,"countryCode":"FR","countryName":"France","latitude":"43.47809000","longitude":"5.17044000","wikiDataId":"Q317809"},{"id":39960,"name":"Berre-les-Alpes","stateId":4812,"stateCode":"PAC","stateName":"Provence-Alpes-Côte-d’Azur","countryId":75,"countryCode":"FR","countryName":"France","latitude":"43.83052000","longitude":"7.32877000","wikiDataId":"Q843023"},{"id":39977,"name":"Besse-sur-Issole","stateId":4812,"stateCode":"PAC","stateName":"Provence-Alpes-Côte-d’Azur","countryId":75,"countryCode":"FR","countryName":"France","latitude":"43.34892000","longitude":"6.17656000","wikiDataId":"Q1419629"},{"id":40029,"name":"Biot","stateId":4812,"stateCode":"PAC","stateName":"Provence-Alpes-Côte-d’Azur","countryId":75,"countryCode":"FR","countryName":"France","latitude":"43.62852000","longitude":"7.09530000","wikiDataId":"Q21749"},{"id":40059,"name":"Blausasc","stateId":4812,"stateCode":"PAC","stateName":"Provence-Alpes-Côte-d’Azur","countryId":75,"countryCode":"FR","countryName":"France","latitude":"43.80572000","longitude":"7.36477000","wikiDataId":"Q775404"},{"id":40105,"name":"Bollène","stateId":4812,"stateCode":"PAC","stateName":"Provence-Alpes-Côte-d’Azur","countryId":75,"countryCode":"FR","countryName":"France","latitude":"44.28124000","longitude":"4.74891000","wikiDataId":"Q326352"},{"id":40109,"name":"Bon-Secours","stateId":4812,"stateCode":"PAC","stateName":"Provence-Alpes-Côte-d’Azur","countryId":75,"countryCode":"FR","countryName":"France","latitude":"43.31923000","longitude":"5.38426000","wikiDataId":"Q24758"},{"id":40125,"name":"Bonneveine","stateId":4812,"stateCode":"PAC","stateName":"Provence-Alpes-Côte-d’Azur","countryId":75,"countryCode":"FR","countryName":"France","latitude":"43.25000000","longitude":"5.38333000","wikiDataId":"Q670957"},{"id":40127,"name":"Bonnieux","stateId":4812,"stateCode":"PAC","stateName":"Provence-Alpes-Côte-d’Azur","countryId":75,"countryCode":"FR","countryName":"France","latitude":"43.82396000","longitude":"5.30759000","wikiDataId":"Q247260"},{"id":40139,"name":"Borel","stateId":4812,"stateCode":"PAC","stateName":"Provence-Alpes-Côte-d’Azur","countryId":75,"countryCode":"FR","countryName":"France","latitude":"43.36486000","longitude":"5.36681000","wikiDataId":"Q1078534"},{"id":40141,"name":"Bormes-les-Mimosas","stateId":4812,"stateCode":"PAC","stateName":"Provence-Alpes-Côte-d’Azur","countryId":75,"countryCode":"FR","countryName":"France","latitude":"43.15169000","longitude":"6.34220000","wikiDataId":"Q1078534"},{"id":40149,"name":"Bouc-Bel-Air","stateId":4812,"stateCode":"PAC","stateName":"Provence-Alpes-Côte-d’Azur","countryId":75,"countryCode":"FR","countryName":"France","latitude":"43.45217000","longitude":"5.41300000","wikiDataId":"Q117438"},{"id":40165,"name":"Boulbon","stateId":4812,"stateCode":"PAC","stateName":"Provence-Alpes-Côte-d’Azur","countryId":75,"countryCode":"FR","countryName":"France","latitude":"43.86232000","longitude":"4.69391000","wikiDataId":"Q22093"},{"id":40258,"name":"Bras","stateId":4812,"stateCode":"PAC","stateName":"Provence-Alpes-Côte-d’Azur","countryId":75,"countryCode":"FR","countryName":"France","latitude":"43.47163000","longitude":"5.95486000","wikiDataId":"Q266840"},{"id":40273,"name":"Breil-sur-Roya","stateId":4812,"stateCode":"PAC","stateName":"Provence-Alpes-Côte-d’Azur","countryId":75,"countryCode":"FR","countryName":"France","latitude":"43.93755000","longitude":"7.51472000","wikiDataId":"Q321111"},{"id":40300,"name":"Briançon","stateId":4812,"stateCode":"PAC","stateName":"Provence-Alpes-Côte-d’Azur","countryId":75,"countryCode":"FR","countryName":"France","latitude":"44.89978000","longitude":"6.64201000","wikiDataId":"Q203298"},{"id":40313,"name":"Brignoles","stateId":4812,"stateCode":"PAC","stateName":"Provence-Alpes-Côte-d’Azur","countryId":75,"countryCode":"FR","countryName":"France","latitude":"43.40580000","longitude":"6.06172000","wikiDataId":"Q207584"},{"id":40441,"name":"Cabannes","stateId":4812,"stateCode":"PAC","stateName":"Provence-Alpes-Côte-d’Azur","countryId":75,"countryCode":"FR","countryName":"France","latitude":"43.86015000","longitude":"4.95192000","wikiDataId":"Q22798"},{"id":40443,"name":"Cabasse","stateId":4812,"stateCode":"PAC","stateName":"Provence-Alpes-Côte-d’Azur","countryId":75,"countryCode":"FR","countryName":"France","latitude":"43.42646000","longitude":"6.21917000","wikiDataId":"Q34789070"},{"id":40448,"name":"Cabriès","stateId":4812,"stateCode":"PAC","stateName":"Provence-Alpes-Côte-d’Azur","countryId":75,"countryCode":"FR","countryName":"France","latitude":"43.44127000","longitude":"5.37884000","wikiDataId":"Q384367"},{"id":40446,"name":"Cabris","stateId":4812,"stateCode":"PAC","stateName":"Provence-Alpes-Côte-d’Azur","countryId":75,"countryCode":"FR","countryName":"France","latitude":"43.65617000","longitude":"6.87358000","wikiDataId":"Q741972"},{"id":40453,"name":"Cadenet","stateId":4812,"stateCode":"PAC","stateName":"Provence-Alpes-Côte-d’Azur","countryId":75,"countryCode":"FR","countryName":"France","latitude":"43.73500000","longitude":"5.37339000","wikiDataId":"Q243873"},{"id":40454,"name":"Caderousse","stateId":4812,"stateCode":"PAC","stateName":"Provence-Alpes-Côte-d’Azur","countryId":75,"countryCode":"FR","countryName":"France","latitude":"44.10327000","longitude":"4.75672000","wikiDataId":"Q468578"},{"id":40456,"name":"Cadolive","stateId":4812,"stateCode":"PAC","stateName":"Provence-Alpes-Côte-d’Azur","countryId":75,"countryCode":"FR","countryName":"France","latitude":"43.39694000","longitude":"5.54526000","wikiDataId":"Q474020"},{"id":40459,"name":"Cagnes-sur-Mer","stateId":4812,"stateCode":"PAC","stateName":"Provence-Alpes-Côte-d’Azur","countryId":75,"countryCode":"FR","countryName":"France","latitude":"43.66352000","longitude":"7.14790000","wikiDataId":"Q193832"},{"id":40472,"name":"Callas","stateId":4812,"stateCode":"PAC","stateName":"Provence-Alpes-Côte-d’Azur","countryId":75,"countryCode":"FR","countryName":"France","latitude":"43.59284000","longitude":"6.53840000","wikiDataId":"Q223699"},{"id":40473,"name":"Callian","stateId":4812,"stateCode":"PAC","stateName":"Provence-Alpes-Côte-d’Azur","countryId":75,"countryCode":"FR","countryName":"France","latitude":"43.62210000","longitude":"6.75269000","wikiDataId":"Q223699"},{"id":40481,"name":"Camaret-sur-Aigues","stateId":4812,"stateCode":"PAC","stateName":"Provence-Alpes-Côte-d’Azur","countryId":75,"countryCode":"FR","countryName":"France","latitude":"44.16375000","longitude":"4.87310000","wikiDataId":"Q29769"},{"id":40501,"name":"Camps-la-Source","stateId":4812,"stateCode":"PAC","stateName":"Provence-Alpes-Côte-d’Azur","countryId":75,"countryCode":"FR","countryName":"France","latitude":"43.38626000","longitude":"6.09607000","wikiDataId":"Q34789515"},{"id":40512,"name":"Cannes","stateId":4812,"stateCode":"PAC","stateName":"Provence-Alpes-Côte-d’Azur","countryId":75,"countryCode":"FR","countryName":"France","latitude":"43.55135000","longitude":"7.01275000","wikiDataId":"Q39984"},{"id":40517,"name":"Cantaron","stateId":4812,"stateCode":"PAC","stateName":"Provence-Alpes-Côte-d’Azur","countryId":75,"countryCode":"FR","countryName":"France","latitude":"43.76203000","longitude":"7.31756000","wikiDataId":"Q3259"},{"id":40524,"name":"Cap-d’Ail","stateId":4812,"stateCode":"PAC","stateName":"Provence-Alpes-Côte-d’Azur","countryId":75,"countryCode":"FR","countryName":"France","latitude":"43.72126000","longitude":"7.40556000","wikiDataId":"Q457587"},{"id":40540,"name":"Carcès","stateId":4812,"stateCode":"PAC","stateName":"Provence-Alpes-Côte-d’Azur","countryId":75,"countryCode":"FR","countryName":"France","latitude":"43.47585000","longitude":"6.18257000","wikiDataId":"Q686784"},{"id":40551,"name":"Carnoules","stateId":4812,"stateCode":"PAC","stateName":"Provence-Alpes-Côte-d’Azur","countryId":75,"countryCode":"FR","countryName":"France","latitude":"43.30187000","longitude":"6.18733000","wikiDataId":"Q696746"},{"id":40552,"name":"Carnoux-en-Provence","stateId":4812,"stateCode":"PAC","stateName":"Provence-Alpes-Côte-d’Azur","countryId":75,"countryCode":"FR","countryName":"France","latitude":"43.25639000","longitude":"5.56444000","wikiDataId":"Q596771"},{"id":40554,"name":"Caromb","stateId":4812,"stateCode":"PAC","stateName":"Provence-Alpes-Côte-d’Azur","countryId":75,"countryCode":"FR","countryName":"France","latitude":"44.11106000","longitude":"5.10738000","wikiDataId":"Q677953"},{"id":40555,"name":"Carpentras","stateId":4812,"stateCode":"PAC","stateName":"Provence-Alpes-Côte-d’Azur","countryId":75,"countryCode":"FR","countryName":"France","latitude":"44.05507000","longitude":"5.04813000","wikiDataId":"Q202560"},{"id":40558,"name":"Carqueiranne","stateId":4812,"stateCode":"PAC","stateName":"Provence-Alpes-Côte-d’Azur","countryId":75,"countryCode":"FR","countryName":"France","latitude":"43.09495000","longitude":"6.07349000","wikiDataId":"Q34790092"},{"id":40561,"name":"Carros","stateId":4812,"stateCode":"PAC","stateName":"Provence-Alpes-Côte-d’Azur","countryId":75,"countryCode":"FR","countryName":"France","latitude":"43.79246000","longitude":"7.18745000","wikiDataId":"Q609047"},{"id":40562,"name":"Carry-le-Rouet","stateId":4812,"stateCode":"PAC","stateName":"Provence-Alpes-Côte-d’Azur","countryId":75,"countryCode":"FR","countryName":"France","latitude":"43.33139000","longitude":"5.15237000","wikiDataId":"Q609047"},{"id":40571,"name":"Cassis","stateId":4812,"stateCode":"PAC","stateName":"Provence-Alpes-Côte-d’Azur","countryId":75,"countryCode":"FR","countryName":"France","latitude":"43.21571000","longitude":"5.53855000","wikiDataId":"Q243002"},{"id":40574,"name":"Castagniers","stateId":4812,"stateCode":"PAC","stateName":"Provence-Alpes-Côte-d’Azur","countryId":75,"countryCode":"FR","countryName":"France","latitude":"43.79134000","longitude":"7.23162000","wikiDataId":"Q34790248"},{"id":40579,"name":"Castellane","stateId":4812,"stateCode":"PAC","stateName":"Provence-Alpes-Côte-d’Azur","countryId":75,"countryCode":"FR","countryName":"France","latitude":"43.84707000","longitude":"6.51283000","wikiDataId":"Q207083"},{"id":40609,"name":"Caumont-sur-Durance","stateId":4812,"stateCode":"PAC","stateName":"Provence-Alpes-Côte-d’Azur","countryId":75,"countryCode":"FR","countryName":"France","latitude":"43.89356000","longitude":"4.94745000","wikiDataId":"Q34790513"},{"id":40617,"name":"Cavaillon","stateId":4812,"stateCode":"PAC","stateName":"Provence-Alpes-Côte-d’Azur","countryId":75,"countryCode":"FR","countryName":"France","latitude":"43.83125000","longitude":"5.03586000","wikiDataId":"Q208798"},{"id":40618,"name":"Cavalaire-sur-Mer","stateId":4812,"stateCode":"PAC","stateName":"Provence-Alpes-Côte-d’Azur","countryId":75,"countryCode":"FR","countryName":"France","latitude":"43.17261000","longitude":"6.52959000","wikiDataId":"Q475816"},{"id":41396,"name":"Céreste","stateId":4812,"stateCode":"PAC","stateName":"Provence-Alpes-Côte-d’Azur","countryId":75,"countryCode":"FR","countryName":"France","latitude":"43.85580000","longitude":"5.58685000","wikiDataId":"Q865855"},{"id":40666,"name":"Ceyreste","stateId":4812,"stateCode":"PAC","stateName":"Provence-Alpes-Côte-d’Azur","countryId":75,"countryCode":"FR","countryName":"France","latitude":"43.21352000","longitude":"5.62946000","wikiDataId":"Q326520"},{"id":40800,"name":"Charleval","stateId":4812,"stateCode":"PAC","stateName":"Provence-Alpes-Côte-d’Azur","countryId":75,"countryCode":"FR","countryName":"France","latitude":"43.71864000","longitude":"5.24546000","wikiDataId":"Q212793"},{"id":40961,"name":"Châteauneuf-de-Gadagne","stateId":4812,"stateCode":"PAC","stateName":"Provence-Alpes-Côte-d’Azur","countryId":75,"countryCode":"FR","countryName":"France","latitude":"43.92683000","longitude":"4.94453000","wikiDataId":"Q377797"},{"id":40964,"name":"Châteauneuf-du-Pape","stateId":4812,"stateCode":"PAC","stateName":"Provence-Alpes-Côte-d’Azur","countryId":75,"countryCode":"FR","countryName":"France","latitude":"44.05638000","longitude":"4.83244000","wikiDataId":"Q338877"},{"id":40960,"name":"Châteauneuf-Grasse","stateId":4812,"stateCode":"PAC","stateName":"Provence-Alpes-Côte-d’Azur","countryId":75,"countryCode":"FR","countryName":"France","latitude":"43.66667000","longitude":"6.98333000","wikiDataId":"Q324244"},{"id":40969,"name":"Châteauneuf-le-Rouge","stateId":4812,"stateCode":"PAC","stateName":"Provence-Alpes-Côte-d’Azur","countryId":75,"countryCode":"FR","countryName":"France","latitude":"43.48936000","longitude":"5.56921000","wikiDataId":"Q474041"},{"id":40970,"name":"Châteauneuf-les-Martigues","stateId":4812,"stateCode":"PAC","stateName":"Provence-Alpes-Côte-d’Azur","countryId":75,"countryCode":"FR","countryName":"France","latitude":"43.38383000","longitude":"5.16403000","wikiDataId":"Q474041"},{"id":40977,"name":"Châteaurenard","stateId":4812,"stateCode":"PAC","stateName":"Provence-Alpes-Côte-d’Azur","countryId":75,"countryCode":"FR","countryName":"France","latitude":"43.88169000","longitude":"4.85493000","wikiDataId":"Q474021"},{"id":40892,"name":"Cheval-Blanc","stateId":4812,"stateCode":"PAC","stateName":"Provence-Alpes-Côte-d’Azur","countryId":75,"countryCode":"FR","countryName":"France","latitude":"43.80189000","longitude":"5.06229000","wikiDataId":"Q470532"},{"id":40926,"name":"Chorges","stateId":4812,"stateCode":"PAC","stateName":"Provence-Alpes-Côte-d’Azur","countryId":75,"countryCode":"FR","countryName":"France","latitude":"44.54879000","longitude":"6.27727000","wikiDataId":"Q185066"},{"id":40929,"name":"Chutes-Lavie","stateId":4812,"stateCode":"PAC","stateName":"Provence-Alpes-Côte-d’Azur","countryId":75,"countryCode":"FR","countryName":"France","latitude":"43.31017000","longitude":"5.39464000","wikiDataId":"Q681259"},{"id":41020,"name":"Cinq Avenues","stateId":4812,"stateCode":"PAC","stateName":"Provence-Alpes-Côte-d’Azur","countryId":75,"countryCode":"FR","countryName":"France","latitude":"43.30375000","longitude":"5.39761000","wikiDataId":"Q235208"},{"id":41083,"name":"Cogolin","stateId":4812,"stateCode":"PAC","stateName":"Provence-Alpes-Côte-d’Azur","countryId":75,"countryCode":"FR","countryName":"France","latitude":"43.25294000","longitude":"6.52981000","wikiDataId":"Q34795924"},{"id":41092,"name":"Collobrières","stateId":4812,"stateCode":"PAC","stateName":"Provence-Alpes-Côte-d’Azur","countryId":75,"countryCode":"FR","countryName":"France","latitude":"43.23718000","longitude":"6.30901000","wikiDataId":"Q254829"},{"id":41097,"name":"Colomars","stateId":4812,"stateCode":"PAC","stateName":"Provence-Alpes-Côte-d’Azur","countryId":75,"countryCode":"FR","countryName":"France","latitude":"43.76320000","longitude":"7.22191000","wikiDataId":"Q34796059"},{"id":41155,"name":"Contes","stateId":4812,"stateCode":"PAC","stateName":"Provence-Alpes-Côte-d’Azur","countryId":75,"countryCode":"FR","countryName":"France","latitude":"43.81278000","longitude":"7.31444000","wikiDataId":"Q34796422"},{"id":41194,"name":"Cornillon-Confoux","stateId":4812,"stateCode":"PAC","stateName":"Provence-Alpes-Côte-d’Azur","countryId":75,"countryCode":"FR","countryName":"France","latitude":"43.56267000","longitude":"5.07162000","wikiDataId":"Q384393"},{"id":41211,"name":"Cotignac","stateId":4812,"stateCode":"PAC","stateName":"Provence-Alpes-Côte-d’Azur","countryId":75,"countryCode":"FR","countryName":"France","latitude":"43.52876000","longitude":"6.14955000","wikiDataId":"Q688450"},{"id":41221,"name":"Coudoux","stateId":4812,"stateCode":"PAC","stateName":"Provence-Alpes-Côte-d’Azur","countryId":75,"countryCode":"FR","countryName":"France","latitude":"43.55800000","longitude":"5.24889000","wikiDataId":"Q692732"},{"id":41269,"name":"Courthézon","stateId":4812,"stateCode":"PAC","stateName":"Provence-Alpes-Côte-d’Azur","countryId":75,"countryCode":"FR","countryName":"France","latitude":"44.08760000","longitude":"4.88407000","wikiDataId":"Q377943"},{"id":41358,"name":"Cucuron","stateId":4812,"stateCode":"PAC","stateName":"Provence-Alpes-Côte-d’Azur","countryId":75,"countryCode":"FR","countryName":"France","latitude":"43.77298000","longitude":"5.43858000","wikiDataId":"Q322680"},{"id":41359,"name":"Cuers","stateId":4812,"stateCode":"PAC","stateName":"Provence-Alpes-Côte-d’Azur","countryId":75,"countryCode":"FR","countryName":"France","latitude":"43.23754000","longitude":"6.07178000","wikiDataId":"Q322680"},{"id":41363,"name":"Cuges-les-Pins","stateId":4812,"stateCode":"PAC","stateName":"Provence-Alpes-Côte-d’Azur","countryId":75,"countryCode":"FR","countryName":"France","latitude":"43.27607000","longitude":"5.69955000","wikiDataId":"Q34797907"},{"id":41634,"name":"Département des Bouches-du-Rhône","stateId":4812,"stateCode":"PAC","stateName":"Provence-Alpes-Côte-d’Azur","countryId":75,"countryCode":"FR","countryName":"France","latitude":"43.52366000","longitude":"5.42450000","wikiDataId":"Q3240"},{"id":41647,"name":"Département du Vaucluse","stateId":4812,"stateCode":"PAC","stateName":"Provence-Alpes-Côte-d’Azur","countryId":75,"countryCode":"FR","countryName":"France","latitude":"44.00000000","longitude":"5.16667000","wikiDataId":"Q12792"},{"id":41478,"name":"Digne-les-Bains","stateId":4812,"stateCode":"PAC","stateName":"Provence-Alpes-Côte-d’Azur","countryId":75,"countryCode":"FR","countryName":"France","latitude":"44.09252000","longitude":"6.23199000","wikiDataId":"Q181306"},{"id":41566,"name":"Draguignan","stateId":4812,"stateCode":"PAC","stateName":"Provence-Alpes-Côte-d’Azur","countryId":75,"countryCode":"FR","countryName":"France","latitude":"43.53692000","longitude":"6.46458000","wikiDataId":"Q194141"},{"id":41569,"name":"Drap","stateId":4812,"stateCode":"PAC","stateName":"Provence-Alpes-Côte-d’Azur","countryId":75,"countryCode":"FR","countryName":"France","latitude":"43.75508000","longitude":"7.32152000","wikiDataId":"Q194141"},{"id":48061,"name":"Éguilles","stateId":4812,"stateCode":"PAC","stateName":"Provence-Alpes-Côte-d’Azur","countryId":75,"countryCode":"FR","countryName":"France","latitude":"43.56867000","longitude":"5.35575000","wikiDataId":"Q274553"},{"id":41666,"name":"Embrun","stateId":4812,"stateCode":"PAC","stateName":"Provence-Alpes-Côte-d’Azur","countryId":75,"countryCode":"FR","countryName":"France","latitude":"44.56387000","longitude":"6.49526000","wikiDataId":"Q23073"},{"id":41677,"name":"Ensuès-la-Redonne","stateId":4812,"stateCode":"PAC","stateName":"Provence-Alpes-Côte-d’Azur","countryId":75,"countryCode":"FR","countryName":"France","latitude":"43.35464000","longitude":"5.20357000","wikiDataId":"Q498224"},{"id":41678,"name":"Entraigues-sur-la-Sorgue","stateId":4812,"stateCode":"PAC","stateName":"Provence-Alpes-Côte-d’Azur","countryId":75,"countryCode":"FR","countryName":"France","latitude":"44.00320000","longitude":"4.92657000","wikiDataId":"Q49349748"},{"id":48068,"name":"Éoures","stateId":4812,"stateCode":"PAC","stateName":"Provence-Alpes-Côte-d’Azur","countryId":75,"countryCode":"FR","countryName":"France","latitude":"43.30045000","longitude":"5.52193000","wikiDataId":"Q274801"},{"id":48117,"name":"Évenos","stateId":4812,"stateCode":"PAC","stateName":"Provence-Alpes-Côte-d’Azur","countryId":75,"countryCode":"FR","countryName":"France","latitude":"43.16365000","longitude":"5.84628000","wikiDataId":"Q291343"},{"id":41752,"name":"Eygalières","stateId":4812,"stateCode":"PAC","stateName":"Provence-Alpes-Côte-d’Azur","countryId":75,"countryCode":"FR","countryName":"France","latitude":"43.76099000","longitude":"4.94968000","wikiDataId":"Q384239"},{"id":41753,"name":"Eyguières","stateId":4812,"stateCode":"PAC","stateName":"Provence-Alpes-Côte-d’Azur","countryId":75,"countryCode":"FR","countryName":"France","latitude":"43.69481000","longitude":"5.03131000","wikiDataId":"Q384438"},{"id":41756,"name":"Eyragues","stateId":4812,"stateCode":"PAC","stateName":"Provence-Alpes-Côte-d’Azur","countryId":75,"countryCode":"FR","countryName":"France","latitude":"43.84103000","longitude":"4.84231000","wikiDataId":"Q1078961"},{"id":48035,"name":"Èze","stateId":4812,"stateCode":"PAC","stateName":"Provence-Alpes-Côte-d’Azur","countryId":75,"countryCode":"FR","countryName":"France","latitude":"43.72799000","longitude":"7.36194000","wikiDataId":"Q242617"},{"id":41767,"name":"Falicon","stateId":4812,"stateCode":"PAC","stateName":"Provence-Alpes-Côte-d’Azur","countryId":75,"countryCode":"FR","countryName":"France","latitude":"43.74861000","longitude":"7.27856000","wikiDataId":"Q867129"},{"id":41789,"name":"Fayence","stateId":4812,"stateCode":"PAC","stateName":"Provence-Alpes-Côte-d’Azur","countryId":75,"countryCode":"FR","countryName":"France","latitude":"43.62570000","longitude":"6.69531000","wikiDataId":"Q687823"},{"id":41817,"name":"Figanières","stateId":4812,"stateCode":"PAC","stateName":"Provence-Alpes-Côte-d’Azur","countryId":75,"countryCode":"FR","countryName":"France","latitude":"43.56882000","longitude":"6.49722000","wikiDataId":"Q13600"},{"id":41829,"name":"Flassans-sur-Issole","stateId":4812,"stateCode":"PAC","stateName":"Provence-Alpes-Côte-d’Azur","countryId":75,"countryCode":"FR","countryName":"France","latitude":"43.36856000","longitude":"6.22154000","wikiDataId":"Q840276"},{"id":41835,"name":"Flayosc","stateId":4812,"stateCode":"PAC","stateName":"Provence-Alpes-Côte-d’Azur","countryId":75,"countryCode":"FR","countryName":"France","latitude":"43.53396000","longitude":"6.39660000","wikiDataId":"Q910050"},{"id":41907,"name":"Fontvieille","stateId":4812,"stateCode":"PAC","stateName":"Provence-Alpes-Côte-d’Azur","countryId":75,"countryCode":"FR","countryName":"France","latitude":"43.72806000","longitude":"4.70953000","wikiDataId":"Q632276"},{"id":41909,"name":"Forcalqueiret","stateId":4812,"stateCode":"PAC","stateName":"Provence-Alpes-Côte-d’Azur","countryId":75,"countryCode":"FR","countryName":"France","latitude":"43.33618000","longitude":"6.08346000","wikiDataId":"Q22703"},{"id":41910,"name":"Forcalquier","stateId":4812,"stateCode":"PAC","stateName":"Provence-Alpes-Côte-d’Azur","countryId":75,"countryCode":"FR","countryName":"France","latitude":"43.95927000","longitude":"5.77945000","wikiDataId":"Q104431"},{"id":41919,"name":"Fos-sur-Mer","stateId":4812,"stateCode":"PAC","stateName":"Provence-Alpes-Côte-d’Azur","countryId":75,"countryCode":"FR","countryName":"France","latitude":"43.43774000","longitude":"4.94457000","wikiDataId":"Q455657"},{"id":41985,"name":"Fréjus","stateId":4812,"stateCode":"PAC","stateName":"Provence-Alpes-Côte-d’Azur","countryId":75,"countryCode":"FR","countryName":"France","latitude":"43.43325000","longitude":"6.73555000","wikiDataId":"Q215155"},{"id":41996,"name":"Fuveau","stateId":4812,"stateCode":"PAC","stateName":"Provence-Alpes-Côte-d’Azur","countryId":75,"countryCode":"FR","countryName":"France","latitude":"43.45578000","longitude":"5.56149000","wikiDataId":"Q637279"},{"id":42031,"name":"Gap","stateId":4812,"stateCode":"PAC","stateName":"Provence-Alpes-Côte-d’Azur","countryId":75,"countryCode":"FR","countryName":"France","latitude":"44.55858000","longitude":"6.07868000","wikiDataId":"Q175081"},{"id":42037,"name":"Gardanne","stateId":4812,"stateCode":"PAC","stateName":"Provence-Alpes-Côte-d’Azur","countryId":75,"countryCode":"FR","countryName":"France","latitude":"43.45491000","longitude":"5.46913000","wikiDataId":"Q318085"},{"id":42048,"name":"Garéoult","stateId":4812,"stateCode":"PAC","stateName":"Provence-Alpes-Côte-d’Azur","countryId":75,"countryCode":"FR","countryName":"France","latitude":"43.32833000","longitude":"6.04616000","wikiDataId":"Q1343957"},{"id":42041,"name":"Gargas","stateId":4812,"stateCode":"PAC","stateName":"Provence-Alpes-Côte-d’Azur","countryId":75,"countryCode":"FR","countryName":"France","latitude":"43.90196000","longitude":"5.35814000","wikiDataId":"Q1078919"},{"id":42050,"name":"Gassin","stateId":4812,"stateCode":"PAC","stateName":"Provence-Alpes-Côte-d’Azur","countryId":75,"countryCode":"FR","countryName":"France","latitude":"43.22882000","longitude":"6.58549000","wikiDataId":"Q1073294"},{"id":42052,"name":"Gattières","stateId":4812,"stateCode":"PAC","stateName":"Provence-Alpes-Côte-d’Azur","countryId":75,"countryCode":"FR","countryName":"France","latitude":"43.75951000","longitude":"7.17574000","wikiDataId":"Q1073294"},{"id":42293,"name":"Gémenos","stateId":4812,"stateCode":"PAC","stateName":"Provence-Alpes-Côte-d’Azur","countryId":75,"countryCode":"FR","countryName":"France","latitude":"43.29751000","longitude":"5.62843000","wikiDataId":"Q822213"},{"id":42092,"name":"Gignac-la-Nerthe","stateId":4812,"stateCode":"PAC","stateName":"Provence-Alpes-Côte-d’Azur","countryId":75,"countryCode":"FR","countryName":"France","latitude":"43.39287000","longitude":"5.23586000","wikiDataId":"Q208851"},{"id":42093,"name":"Gilette","stateId":4812,"stateCode":"PAC","stateName":"Provence-Alpes-Côte-d’Azur","countryId":75,"countryCode":"FR","countryName":"France","latitude":"43.84976000","longitude":"7.16346000","wikiDataId":"Q208851"},{"id":42098,"name":"Ginasservis","stateId":4812,"stateCode":"PAC","stateName":"Provence-Alpes-Côte-d’Azur","countryId":75,"countryCode":"FR","countryName":"France","latitude":"43.67088000","longitude":"5.84911000","wikiDataId":"Q1151797"},{"id":42130,"name":"Gonfaron","stateId":4812,"stateCode":"PAC","stateName":"Provence-Alpes-Côte-d’Azur","countryId":75,"countryCode":"FR","countryName":"France","latitude":"43.32036000","longitude":"6.28929000","wikiDataId":"Q612401"},{"id":42134,"name":"Gorbio","stateId":4812,"stateCode":"PAC","stateName":"Provence-Alpes-Côte-d’Azur","countryId":75,"countryCode":"FR","countryName":"France","latitude":"43.78678000","longitude":"7.44375000","wikiDataId":"Q612401"},{"id":42136,"name":"Gordes","stateId":4812,"stateCode":"PAC","stateName":"Provence-Alpes-Côte-d’Azur","countryId":75,"countryCode":"FR","countryName":"France","latitude":"43.91290000","longitude":"5.19892000","wikiDataId":"Q272308"},{"id":42148,"name":"Goult","stateId":4812,"stateCode":"PAC","stateName":"Provence-Alpes-Côte-d’Azur","countryId":75,"countryCode":"FR","countryName":"France","latitude":"43.86297000","longitude":"5.24390000","wikiDataId":"Q1019030"},{"id":42169,"name":"Grambois","stateId":4812,"stateCode":"PAC","stateName":"Provence-Alpes-Côte-d’Azur","countryId":75,"countryCode":"FR","countryName":"France","latitude":"43.76233000","longitude":"5.58860000","wikiDataId":"Q623883"},{"id":42184,"name":"Grans","stateId":4812,"stateCode":"PAC","stateName":"Provence-Alpes-Côte-d’Azur","countryId":75,"countryCode":"FR","countryName":"France","latitude":"43.60862000","longitude":"5.06290000","wikiDataId":"Q675950"},{"id":42186,"name":"Grasse","stateId":4812,"stateCode":"PAC","stateName":"Provence-Alpes-Côte-d’Azur","countryId":75,"countryCode":"FR","countryName":"France","latitude":"43.65783000","longitude":"6.92537000","wikiDataId":"Q173705"},{"id":42190,"name":"Graveson","stateId":4812,"stateCode":"PAC","stateName":"Provence-Alpes-Côte-d’Azur","countryId":75,"countryCode":"FR","countryName":"France","latitude":"43.85051000","longitude":"4.77361000","wikiDataId":"Q269854"},{"id":42233,"name":"Gréasque","stateId":4812,"stateCode":"PAC","stateName":"Provence-Alpes-Côte-d’Azur","countryId":75,"countryCode":"FR","countryName":"France","latitude":"43.43310000","longitude":"5.54449000","wikiDataId":"Q676005"},{"id":42234,"name":"Gréoux-les-Bains","stateId":4812,"stateCode":"PAC","stateName":"Provence-Alpes-Côte-d’Azur","countryId":75,"countryCode":"FR","countryName":"France","latitude":"43.75844000","longitude":"5.88351000","wikiDataId":"Q455660"},{"id":42213,"name":"Grillon","stateId":4812,"stateCode":"PAC","stateName":"Provence-Alpes-Côte-d’Azur","countryId":75,"countryCode":"FR","countryName":"France","latitude":"44.39508000","longitude":"4.92954000","wikiDataId":"Q384722"},{"id":42214,"name":"Grimaud","stateId":4812,"stateCode":"PAC","stateName":"Provence-Alpes-Côte-d’Azur","countryId":75,"countryCode":"FR","countryName":"France","latitude":"43.27329000","longitude":"6.52171000","wikiDataId":"Q384722"},{"id":42261,"name":"Guillestre","stateId":4812,"stateCode":"PAC","stateName":"Provence-Alpes-Côte-d’Azur","countryId":75,"countryCode":"FR","countryName":"France","latitude":"44.65950000","longitude":"6.64948000","wikiDataId":"Q382624"},{"id":42351,"name":"Hautes-Alpes","stateId":4812,"stateCode":"PAC","stateName":"Provence-Alpes-Côte-d’Azur","countryId":75,"countryCode":"FR","countryName":"France","latitude":"44.68055000","longitude":"6.28969000","wikiDataId":"Q3125"},{"id":42448,"name":"Hyères","stateId":4812,"stateCode":"PAC","stateName":"Provence-Alpes-Côte-d’Azur","countryId":75,"countryCode":"FR","countryName":"France","latitude":"43.12038000","longitude":"6.12857000","wikiDataId":"Q192574"},{"id":42510,"name":"Istres","stateId":4812,"stateCode":"PAC","stateName":"Provence-Alpes-Côte-d’Azur","countryId":75,"countryCode":"FR","countryName":"France","latitude":"43.51345000","longitude":"4.98747000","wikiDataId":"Q203759"},{"id":42542,"name":"Jausiers","stateId":4812,"stateCode":"PAC","stateName":"Provence-Alpes-Côte-d’Azur","countryId":75,"countryCode":"FR","countryName":"France","latitude":"44.41705000","longitude":"6.72947000","wikiDataId":"Q217065"},{"id":42558,"name":"Jonquerettes","stateId":4812,"stateCode":"PAC","stateName":"Provence-Alpes-Côte-d’Azur","countryId":75,"countryCode":"FR","countryName":"France","latitude":"43.94655000","longitude":"4.93286000","wikiDataId":"Q472395"},{"id":42559,"name":"Jonquières","stateId":4812,"stateCode":"PAC","stateName":"Provence-Alpes-Côte-d’Azur","countryId":75,"countryCode":"FR","countryName":"France","latitude":"44.11603000","longitude":"4.89989000","wikiDataId":"Q472395"},{"id":42570,"name":"Jouques","stateId":4812,"stateCode":"PAC","stateName":"Provence-Alpes-Côte-d’Azur","countryId":75,"countryCode":"FR","countryName":"France","latitude":"43.63710000","longitude":"5.63672000","wikiDataId":"Q640906"},{"id":42625,"name":"L'Estaque","stateId":4812,"stateCode":"PAC","stateName":"Provence-Alpes-Côte-d’Azur","countryId":75,"countryCode":"FR","countryName":"France","latitude":"43.36385000","longitude":"5.30854000","wikiDataId":"Q22147"},{"id":43701,"name":"L’Escale","stateId":4812,"stateCode":"PAC","stateName":"Provence-Alpes-Côte-d’Azur","countryId":75,"countryCode":"FR","countryName":"France","latitude":"44.08162000","longitude":"6.02379000","wikiDataId":"Q1148196"},{"id":43702,"name":"L’Escarène","stateId":4812,"stateCode":"PAC","stateName":"Provence-Alpes-Côte-d’Azur","countryId":75,"countryCode":"FR","countryName":"France","latitude":"43.83492000","longitude":"7.35542000","wikiDataId":"Q1002059"},{"id":43707,"name":"L’Isle-sur-la-Sorgue","stateId":4812,"stateCode":"PAC","stateName":"Provence-Alpes-Côte-d’Azur","countryId":75,"countryCode":"FR","countryName":"France","latitude":"43.91971000","longitude":"5.05141000","wikiDataId":"Q504204"},{"id":42632,"name":"La Barasse","stateId":4812,"stateCode":"PAC","stateName":"Provence-Alpes-Côte-d’Azur","countryId":75,"countryCode":"FR","countryName":"France","latitude":"43.28433000","longitude":"5.48664000","wikiDataId":"Q35707322"},{"id":42636,"name":"La Bastide-des-Jourdans","stateId":4812,"stateCode":"PAC","stateName":"Provence-Alpes-Côte-d’Azur","countryId":75,"countryCode":"FR","countryName":"France","latitude":"43.78531000","longitude":"5.63446000","wikiDataId":"Q375151"},{"id":42660,"name":"La Bâtie-Neuve","stateId":4812,"stateCode":"PAC","stateName":"Provence-Alpes-Côte-d’Azur","countryId":75,"countryCode":"FR","countryName":"France","latitude":"44.56680000","longitude":"6.19587000","wikiDataId":"Q35707560"},{"id":42643,"name":"La Blancarde","stateId":4812,"stateCode":"PAC","stateName":"Provence-Alpes-Côte-d’Azur","countryId":75,"countryCode":"FR","countryName":"France","latitude":"43.30047000","longitude":"5.40563000","wikiDataId":"Q1001591"},{"id":42649,"name":"La Bouilladisse","stateId":4812,"stateCode":"PAC","stateName":"Provence-Alpes-Côte-d’Azur","countryId":75,"countryCode":"FR","countryName":"France","latitude":"43.39619000","longitude":"5.59307000","wikiDataId":"Q35707487"},{"id":42662,"name":"La Cabucelle","stateId":4812,"stateCode":"PAC","stateName":"Provence-Alpes-Côte-d’Azur","countryId":75,"countryCode":"FR","countryName":"France","latitude":"43.33189000","longitude":"5.36111000","wikiDataId":"Q35707560"},{"id":42663,"name":"La Calade","stateId":4812,"stateCode":"PAC","stateName":"Provence-Alpes-Côte-d’Azur","countryId":75,"countryCode":"FR","countryName":"France","latitude":"43.33895000","longitude":"5.35111000","wikiDataId":"Q35707560"},{"id":42666,"name":"La Capelette","stateId":4812,"stateCode":"PAC","stateName":"Provence-Alpes-Côte-d’Azur","countryId":75,"countryCode":"FR","countryName":"France","latitude":"43.28086000","longitude":"5.40600000","wikiDataId":"Q35707560"},{"id":42670,"name":"La Celle","stateId":4812,"stateCode":"PAC","stateName":"Provence-Alpes-Côte-d’Azur","countryId":75,"countryCode":"FR","countryName":"France","latitude":"43.39523000","longitude":"6.03750000","wikiDataId":"Q632608"},{"id":42708,"name":"La Ciotat","stateId":4812,"stateCode":"PAC","stateName":"Provence-Alpes-Côte-d’Azur","countryId":75,"countryCode":"FR","countryName":"France","latitude":"43.17476000","longitude":"5.60449000","wikiDataId":"Q231554"},{"id":42712,"name":"La Colle-sur-Loup","stateId":4812,"stateCode":"PAC","stateName":"Provence-Alpes-Côte-d’Azur","countryId":75,"countryCode":"FR","countryName":"France","latitude":"43.68648000","longitude":"7.10376000","wikiDataId":"Q231554"},{"id":42713,"name":"La Conception","stateId":4812,"stateCode":"PAC","stateName":"Provence-Alpes-Côte-d’Azur","countryId":75,"countryCode":"FR","countryName":"France","latitude":"43.29174000","longitude":"5.39391000","wikiDataId":"Q231554"},{"id":42721,"name":"La Crau","stateId":4812,"stateCode":"PAC","stateName":"Provence-Alpes-Côte-d’Azur","countryId":75,"countryCode":"FR","countryName":"France","latitude":"43.14962000","longitude":"6.07399000","wikiDataId":"Q636893"},{"id":42722,"name":"La Croix-Rouge","stateId":4812,"stateCode":"PAC","stateName":"Provence-Alpes-Côte-d’Azur","countryId":75,"countryCode":"FR","countryName":"France","latitude":"43.33329000","longitude":"5.45403000","wikiDataId":"Q636893"},{"id":42723,"name":"La Croix-Valmer","stateId":4812,"stateCode":"PAC","stateName":"Provence-Alpes-Côte-d’Azur","countryId":75,"countryCode":"FR","countryName":"France","latitude":"43.20755000","longitude":"6.56796000","wikiDataId":"Q636893"},{"id":42729,"name":"La Delorme","stateId":4812,"stateCode":"PAC","stateName":"Provence-Alpes-Côte-d’Azur","countryId":75,"countryCode":"FR","countryName":"France","latitude":"43.34405000","longitude":"5.37251000","wikiDataId":"Q987729"},{"id":42730,"name":"La Destrousse","stateId":4812,"stateCode":"PAC","stateName":"Provence-Alpes-Côte-d’Azur","countryId":75,"countryCode":"FR","countryName":"France","latitude":"43.37505000","longitude":"5.60560000","wikiDataId":"Q474040"},{"id":42732,"name":"La Fare-les-Oliviers","stateId":4812,"stateCode":"PAC","stateName":"Provence-Alpes-Côte-d’Azur","countryId":75,"countryCode":"FR","countryName":"France","latitude":"43.55104000","longitude":"5.19430000","wikiDataId":"Q640862"},{"id":42733,"name":"La Farlède","stateId":4812,"stateCode":"PAC","stateName":"Provence-Alpes-Côte-d’Azur","countryId":75,"countryCode":"FR","countryName":"France","latitude":"43.16866000","longitude":"6.04323000","wikiDataId":"Q640862"},{"id":42755,"name":"La Fourragère","stateId":4812,"stateCode":"PAC","stateName":"Provence-Alpes-Côte-d’Azur","countryId":75,"countryCode":"FR","countryName":"France","latitude":"43.30382000","longitude":"5.43138000","wikiDataId":"Q35708545"},{"id":42761,"name":"La Garde","stateId":4812,"stateCode":"PAC","stateName":"Provence-Alpes-Côte-d’Azur","countryId":75,"countryCode":"FR","countryName":"France","latitude":"43.12468000","longitude":"6.01033000","wikiDataId":"Q35708592"},{"id":42763,"name":"La Garde-Freinet","stateId":4812,"stateCode":"PAC","stateName":"Provence-Alpes-Côte-d’Azur","countryId":75,"countryCode":"FR","countryName":"France","latitude":"43.31710000","longitude":"6.46946000","wikiDataId":"Q696791"},{"id":42767,"name":"La Gaude","stateId":4812,"stateCode":"PAC","stateName":"Provence-Alpes-Côte-d’Azur","countryId":75,"countryCode":"FR","countryName":"France","latitude":"43.72209000","longitude":"7.15296000","wikiDataId":"Q35708608"},{"id":42786,"name":"La Joliette","stateId":4812,"stateCode":"PAC","stateName":"Provence-Alpes-Côte-d’Azur","countryId":75,"countryCode":"FR","countryName":"France","latitude":"43.30485000","longitude":"5.36654000","wikiDataId":"Q35708814"},{"id":42792,"name":"La Londe-les-Maures","stateId":4812,"stateCode":"PAC","stateName":"Provence-Alpes-Côte-d’Azur","countryId":75,"countryCode":"FR","countryName":"France","latitude":"43.13839000","longitude":"6.23362000","wikiDataId":"Q282326"},{"id":42807,"name":"La Millère","stateId":4812,"stateCode":"PAC","stateName":"Provence-Alpes-Côte-d’Azur","countryId":75,"countryCode":"FR","countryName":"France","latitude":"43.28128000","longitude":"5.49804000","wikiDataId":"Q1384163"},{"id":42813,"name":"La Motte","stateId":4812,"stateCode":"PAC","stateName":"Provence-Alpes-Côte-d’Azur","countryId":75,"countryCode":"FR","countryName":"France","latitude":"43.49403000","longitude":"6.53519000","wikiDataId":"Q35709055"},{"id":42826,"name":"La Page","stateId":4812,"stateCode":"PAC","stateName":"Provence-Alpes-Côte-d’Azur","countryId":75,"countryCode":"FR","countryName":"France","latitude":"43.26627000","longitude":"5.37377000","wikiDataId":"Q1165993"},{"id":42828,"name":"La Panouse","stateId":4812,"stateCode":"PAC","stateName":"Provence-Alpes-Côte-d’Azur","countryId":75,"countryCode":"FR","countryName":"France","latitude":"43.25576000","longitude":"5.42963000","wikiDataId":"Q1165993"},{"id":42829,"name":"La Penne-sur-Huveaune","stateId":4812,"stateCode":"PAC","stateName":"Provence-Alpes-Côte-d’Azur","countryId":75,"countryCode":"FR","countryName":"France","latitude":"43.28208000","longitude":"5.51642000","wikiDataId":"Q389455"},{"id":42833,"name":"La Pointe Rouge","stateId":4812,"stateCode":"PAC","stateName":"Provence-Alpes-Côte-d’Azur","countryId":75,"countryCode":"FR","countryName":"France","latitude":"43.23853000","longitude":"5.37679000","wikiDataId":"Q1064425"},{"id":42834,"name":"La Pomme","stateId":4812,"stateCode":"PAC","stateName":"Provence-Alpes-Côte-d’Azur","countryId":75,"countryCode":"FR","countryName":"France","latitude":"43.28987000","longitude":"5.44153000","wikiDataId":"Q1064425"},{"id":42857,"name":"La Roche-des-Arnauds","stateId":4812,"stateCode":"PAC","stateName":"Provence-Alpes-Côte-d’Azur","countryId":75,"countryCode":"FR","countryName":"France","latitude":"44.56188000","longitude":"5.95541000","wikiDataId":"Q1626121"},{"id":42865,"name":"La Roque-d’Anthéron","stateId":4812,"stateCode":"PAC","stateName":"Provence-Alpes-Côte-d’Azur","countryId":75,"countryCode":"FR","countryName":"France","latitude":"43.71544000","longitude":"5.30973000","wikiDataId":"Q675868"},{"id":42866,"name":"La Roquebrussanne","stateId":4812,"stateCode":"PAC","stateName":"Provence-Alpes-Côte-d’Azur","countryId":75,"countryCode":"FR","countryName":"France","latitude":"43.34030000","longitude":"5.97603000","wikiDataId":"Q675868"},{"id":42867,"name":"La Roquette-sur-Siagne","stateId":4812,"stateCode":"PAC","stateName":"Provence-Alpes-Côte-d’Azur","countryId":75,"countryCode":"FR","countryName":"France","latitude":"43.59873000","longitude":"6.95671000","wikiDataId":"Q662120"},{"id":42868,"name":"La Rose","stateId":4812,"stateCode":"PAC","stateName":"Provence-Alpes-Côte-d’Azur","countryId":75,"countryCode":"FR","countryName":"France","latitude":"43.32889000","longitude":"5.42859000","wikiDataId":"Q662120"},{"id":42878,"name":"La Seyne-sur-Mer","stateId":4812,"stateCode":"PAC","stateName":"Provence-Alpes-Côte-d’Azur","countryId":75,"countryCode":"FR","countryName":"France","latitude":"43.10322000","longitude":"5.87816000","wikiDataId":"Q208866"},{"id":42888,"name":"La Timone","stateId":4812,"stateCode":"PAC","stateName":"Provence-Alpes-Côte-d’Azur","countryId":75,"countryCode":"FR","countryName":"France","latitude":"43.28847000","longitude":"5.41447000","wikiDataId":"Q233133"},{"id":42898,"name":"La Trinité","stateId":4812,"stateCode":"PAC","stateName":"Provence-Alpes-Côte-d’Azur","countryId":75,"countryCode":"FR","countryName":"France","latitude":"43.74050000","longitude":"7.31400000","wikiDataId":"Q1106266"},{"id":42902,"name":"La Turbie","stateId":4812,"stateCode":"PAC","stateName":"Provence-Alpes-Côte-d’Azur","countryId":75,"countryCode":"FR","countryName":"France","latitude":"43.74540000","longitude":"7.40046000","wikiDataId":"Q244709"},{"id":42903,"name":"La Valbarelle","stateId":4812,"stateCode":"PAC","stateName":"Provence-Alpes-Côte-d’Azur","countryId":75,"countryCode":"FR","countryName":"France","latitude":"43.28494000","longitude":"5.45387000","wikiDataId":"Q244709"},{"id":42904,"name":"La Valentine","stateId":4812,"stateCode":"PAC","stateName":"Provence-Alpes-Côte-d’Azur","countryId":75,"countryCode":"FR","countryName":"France","latitude":"43.29757000","longitude":"5.48432000","wikiDataId":"Q244709"},{"id":42905,"name":"La Valette-du-Var","stateId":4812,"stateCode":"PAC","stateName":"Provence-Alpes-Côte-d’Azur","countryId":75,"countryCode":"FR","countryName":"France","latitude":"43.13763000","longitude":"5.98317000","wikiDataId":"Q244709"},{"id":42916,"name":"La Villette","stateId":4812,"stateCode":"PAC","stateName":"Provence-Alpes-Côte-d’Azur","countryId":75,"countryCode":"FR","countryName":"France","latitude":"43.31181000","longitude":"5.37391000","wikiDataId":"Q835527"},{"id":42917,"name":"La Viste","stateId":4812,"stateCode":"PAC","stateName":"Provence-Alpes-Côte-d’Azur","countryId":75,"countryCode":"FR","countryName":"France","latitude":"43.35936000","longitude":"5.35649000","wikiDataId":"Q835527"},{"id":42956,"name":"Lagnes","stateId":4812,"stateCode":"PAC","stateName":"Provence-Alpes-Côte-d’Azur","countryId":75,"countryCode":"FR","countryName":"France","latitude":"43.89348000","longitude":"5.11454000","wikiDataId":"Q625954"},{"id":42980,"name":"Lamanon","stateId":4812,"stateCode":"PAC","stateName":"Provence-Alpes-Côte-d’Azur","countryId":75,"countryCode":"FR","countryName":"France","latitude":"43.69979000","longitude":"5.08871000","wikiDataId":"Q675980"},{"id":42987,"name":"Lambesc","stateId":4812,"stateCode":"PAC","stateName":"Provence-Alpes-Côte-d’Azur","countryId":75,"countryCode":"FR","countryName":"France","latitude":"43.65382000","longitude":"5.26211000","wikiDataId":"Q474025"},{"id":43056,"name":"Lançon-Provence","stateId":4812,"stateCode":"PAC","stateName":"Provence-Alpes-Côte-d’Azur","countryId":75,"countryCode":"FR","countryName":"France","latitude":"43.59266000","longitude":"5.12789000","wikiDataId":"Q428333"},{"id":43050,"name":"Lantosque","stateId":4812,"stateCode":"PAC","stateName":"Provence-Alpes-Côte-d’Azur","countryId":75,"countryCode":"FR","countryName":"France","latitude":"43.97446000","longitude":"7.31174000","wikiDataId":"Q383077"},{"id":43059,"name":"Lapalud","stateId":4812,"stateCode":"PAC","stateName":"Provence-Alpes-Côte-d’Azur","countryId":75,"countryCode":"FR","countryName":"France","latitude":"44.30780000","longitude":"4.68946000","wikiDataId":"Q1092026"},{"id":43065,"name":"Laragne-Montéglin","stateId":4812,"stateCode":"PAC","stateName":"Provence-Alpes-Côte-d’Azur","countryId":75,"countryCode":"FR","countryName":"France","latitude":"44.31667000","longitude":"5.81667000","wikiDataId":"Q1020876"},{"id":43099,"name":"Lauris","stateId":4812,"stateCode":"PAC","stateName":"Provence-Alpes-Côte-d’Azur","countryId":75,"countryCode":"FR","countryName":"France","latitude":"43.74716000","longitude":"5.31346000","wikiDataId":"Q625678"},{"id":43125,"name":"Le Bar-sur-Loup","stateId":4812,"stateCode":"PAC","stateName":"Provence-Alpes-Côte-d’Azur","countryId":75,"countryCode":"FR","countryName":"France","latitude":"43.70000000","longitude":"6.98333000","wikiDataId":"Q728033"},{"id":43128,"name":"Le Beausset","stateId":4812,"stateCode":"PAC","stateName":"Provence-Alpes-Côte-d’Azur","countryId":75,"countryCode":"FR","countryName":"France","latitude":"43.19822000","longitude":"5.80267000","wikiDataId":"Q688547"},{"id":43146,"name":"Le Broc","stateId":4812,"stateCode":"PAC","stateName":"Provence-Alpes-Côte-d’Azur","countryId":75,"countryCode":"FR","countryName":"France","latitude":"43.80878000","longitude":"7.16882000","wikiDataId":"Q192461"},{"id":43147,"name":"Le Brusquet","stateId":4812,"stateCode":"PAC","stateName":"Provence-Alpes-Côte-d’Azur","countryId":75,"countryCode":"FR","countryName":"France","latitude":"44.16126000","longitude":"6.30925000","wikiDataId":"Q644032"},{"id":43150,"name":"Le Cabot","stateId":4812,"stateCode":"PAC","stateName":"Provence-Alpes-Côte-d’Azur","countryId":75,"countryCode":"FR","countryName":"France","latitude":"43.25884000","longitude":"5.41729000","wikiDataId":"Q634086"},{"id":43152,"name":"Le Camas","stateId":4812,"stateCode":"PAC","stateName":"Provence-Alpes-Côte-d’Azur","countryId":75,"countryCode":"FR","countryName":"France","latitude":"43.29469000","longitude":"5.39415000","wikiDataId":"Q844798"},{"id":43153,"name":"Le Canet","stateId":4812,"stateCode":"PAC","stateName":"Provence-Alpes-Côte-d’Azur","countryId":75,"countryCode":"FR","countryName":"France","latitude":"43.32611000","longitude":"5.37230000","wikiDataId":"Q844798"},{"id":43154,"name":"Le Cannet","stateId":4812,"stateCode":"PAC","stateName":"Provence-Alpes-Côte-d’Azur","countryId":75,"countryCode":"FR","countryName":"France","latitude":"43.57662000","longitude":"7.01912000","wikiDataId":"Q207967"},{"id":43155,"name":"Le Cannet-des-Maures","stateId":4812,"stateCode":"PAC","stateName":"Provence-Alpes-Côte-d’Azur","countryId":75,"countryCode":"FR","countryName":"France","latitude":"43.39236000","longitude":"6.33966000","wikiDataId":"Q688110"},{"id":43157,"name":"Le Castellet","stateId":4812,"stateCode":"PAC","stateName":"Provence-Alpes-Côte-d’Azur","countryId":75,"countryCode":"FR","countryName":"France","latitude":"43.20291000","longitude":"5.77657000","wikiDataId":"Q35713173"},{"id":43164,"name":"Le Chapitre","stateId":4812,"stateCode":"PAC","stateName":"Provence-Alpes-Côte-d’Azur","countryId":75,"countryCode":"FR","countryName":"France","latitude":"43.30053000","longitude":"5.38433000","wikiDataId":"Q1069650"},{"id":43212,"name":"Le Lavandou","stateId":4812,"stateCode":"PAC","stateName":"Provence-Alpes-Côte-d’Azur","countryId":75,"countryCode":"FR","countryName":"France","latitude":"43.13700000","longitude":"6.36600000","wikiDataId":"Q579445"},{"id":43217,"name":"Le Luc","stateId":4812,"stateCode":"PAC","stateName":"Provence-Alpes-Côte-d’Azur","countryId":75,"countryCode":"FR","countryName":"France","latitude":"43.39453000","longitude":"6.31253000","wikiDataId":"Q1163353"},{"id":43225,"name":"Le Merlan","stateId":4812,"stateCode":"PAC","stateName":"Provence-Alpes-Côte-d’Azur","countryId":75,"countryCode":"FR","countryName":"France","latitude":"43.33875000","longitude":"5.40773000","wikiDataId":"Q325445"},{"id":43237,"name":"Le Monêtier-les-Bains","stateId":4812,"stateCode":"PAC","stateName":"Provence-Alpes-Côte-d’Azur","countryId":75,"countryCode":"FR","countryName":"France","latitude":"44.97604000","longitude":"6.50898000","wikiDataId":"Q1020881"},{"id":43238,"name":"Le Muy","stateId":4812,"stateCode":"PAC","stateName":"Provence-Alpes-Côte-d’Azur","countryId":75,"countryCode":"FR","countryName":"France","latitude":"43.47280000","longitude":"6.56637000","wikiDataId":"Q817832"},{"id":43255,"name":"Le Pharo","stateId":4812,"stateCode":"PAC","stateName":"Provence-Alpes-Côte-d’Azur","countryId":75,"countryCode":"FR","countryName":"France","latitude":"43.29140000","longitude":"5.35829000","wikiDataId":"Q268362"},{"id":43262,"name":"Le Plan-de-la-Tour","stateId":4812,"stateCode":"PAC","stateName":"Provence-Alpes-Côte-d’Azur","countryId":75,"countryCode":"FR","countryName":"France","latitude":"43.33333000","longitude":"6.55000000","wikiDataId":"Q35714156"},{"id":43275,"name":"Le Pontet","stateId":4812,"stateCode":"PAC","stateName":"Provence-Alpes-Côte-d’Azur","countryId":75,"countryCode":"FR","countryName":"France","latitude":"43.96119000","longitude":"4.86008000","wikiDataId":"Q35714175"},{"id":43283,"name":"Le Pradet","stateId":4812,"stateCode":"PAC","stateName":"Provence-Alpes-Côte-d’Azur","countryId":75,"countryCode":"FR","countryName":"France","latitude":"43.10545000","longitude":"6.02350000","wikiDataId":"Q636299"},{"id":43286,"name":"Le Puy-Sainte-Réparade","stateId":4812,"stateCode":"PAC","stateName":"Provence-Alpes-Côte-d’Azur","countryId":75,"countryCode":"FR","countryName":"France","latitude":"43.66393000","longitude":"5.43493000","wikiDataId":"Q676037"},{"id":43292,"name":"Le Redon","stateId":4812,"stateCode":"PAC","stateName":"Provence-Alpes-Côte-d’Azur","countryId":75,"countryCode":"FR","countryName":"France","latitude":"43.24604000","longitude":"5.42889000","wikiDataId":"Q259203"},{"id":43294,"name":"Le Revest-les-Eaux","stateId":4812,"stateCode":"PAC","stateName":"Provence-Alpes-Côte-d’Azur","countryId":75,"countryCode":"FR","countryName":"France","latitude":"43.17612000","longitude":"5.92667000","wikiDataId":"Q35714273"},{"id":43296,"name":"Le Rouret","stateId":4812,"stateCode":"PAC","stateName":"Provence-Alpes-Côte-d’Azur","countryId":75,"countryCode":"FR","countryName":"France","latitude":"43.67873000","longitude":"7.01521000","wikiDataId":"Q1160023"},{"id":43297,"name":"Le Rove","stateId":4812,"stateCode":"PAC","stateName":"Provence-Alpes-Côte-d’Azur","countryId":75,"countryCode":"FR","countryName":"France","latitude":"43.36987000","longitude":"5.25112000","wikiDataId":"Q640736"},{"id":43314,"name":"Le Tholonet","stateId":4812,"stateCode":"PAC","stateName":"Provence-Alpes-Côte-d’Azur","countryId":75,"countryCode":"FR","countryName":"France","latitude":"43.52176000","longitude":"5.51115000","wikiDataId":"Q734334"},{"id":43316,"name":"Le Thor","stateId":4812,"stateCode":"PAC","stateName":"Provence-Alpes-Côte-d’Azur","countryId":75,"countryCode":"FR","countryName":"France","latitude":"43.92943000","longitude":"4.99543000","wikiDataId":"Q686591"},{"id":43317,"name":"Le Thoronet","stateId":4812,"stateCode":"PAC","stateName":"Provence-Alpes-Côte-d’Azur","countryId":75,"countryCode":"FR","countryName":"France","latitude":"43.45174000","longitude":"6.30391000","wikiDataId":"Q848676"},{"id":43320,"name":"Le Tignet","stateId":4812,"stateCode":"PAC","stateName":"Provence-Alpes-Côte-d’Azur","countryId":75,"countryCode":"FR","countryName":"France","latitude":"43.63979000","longitude":"6.84625000","wikiDataId":"Q35714431"},{"id":43326,"name":"Le Val","stateId":4812,"stateCode":"PAC","stateName":"Provence-Alpes-Côte-d’Azur","countryId":75,"countryCode":"FR","countryName":"France","latitude":"43.43928000","longitude":"6.07335000","wikiDataId":"Q840082"},{"id":43356,"name":"Les Accates","stateId":4812,"stateCode":"PAC","stateName":"Provence-Alpes-Côte-d’Azur","countryId":75,"countryCode":"FR","countryName":"France","latitude":"43.29989000","longitude":"5.49726000","wikiDataId":"Q843636"},{"id":43364,"name":"Les Arcs","stateId":4812,"stateCode":"PAC","stateName":"Provence-Alpes-Côte-d’Azur","countryId":75,"countryCode":"FR","countryName":"France","latitude":"43.46328000","longitude":"6.47876000","wikiDataId":"Q35715220"},{"id":43365,"name":"Les Arnavaux","stateId":4812,"stateCode":"PAC","stateName":"Provence-Alpes-Côte-d’Azur","countryId":75,"countryCode":"FR","countryName":"France","latitude":"43.33506000","longitude":"5.37969000","wikiDataId":"Q35715220"},{"id":43370,"name":"Les Aygalades","stateId":4812,"stateCode":"PAC","stateName":"Provence-Alpes-Côte-d’Azur","countryId":75,"countryCode":"FR","countryName":"France","latitude":"43.35711000","longitude":"5.37116000","wikiDataId":"Q35715235"},{"id":43371,"name":"Les Baumettes","stateId":4812,"stateCode":"PAC","stateName":"Provence-Alpes-Côte-d’Azur","countryId":75,"countryCode":"FR","countryName":"France","latitude":"43.22641000","longitude":"5.41642000","wikiDataId":"Q35715235"},{"id":43373,"name":"Les Caillols","stateId":4812,"stateCode":"PAC","stateName":"Provence-Alpes-Côte-d’Azur","countryId":75,"countryCode":"FR","countryName":"France","latitude":"43.30221000","longitude":"5.44811000","wikiDataId":"Q1171327"},{"id":43374,"name":"Les Camoins","stateId":4812,"stateCode":"PAC","stateName":"Provence-Alpes-Côte-d’Azur","countryId":75,"countryCode":"FR","countryName":"France","latitude":"43.30607000","longitude":"5.51745000","wikiDataId":"Q1171327"},{"id":43376,"name":"Les Chartreux","stateId":4812,"stateCode":"PAC","stateName":"Provence-Alpes-Côte-d’Azur","countryId":75,"countryCode":"FR","countryName":"France","latitude":"43.31112000","longitude":"5.40480000","wikiDataId":"Q35715291"},{"id":43381,"name":"Les Crottes","stateId":4812,"stateCode":"PAC","stateName":"Provence-Alpes-Côte-d’Azur","countryId":75,"countryCode":"FR","countryName":"France","latitude":"43.32302000","longitude":"5.36809000","wikiDataId":"Q477987"},{"id":43393,"name":"Les Grands Carmes","stateId":4812,"stateCode":"PAC","stateName":"Provence-Alpes-Côte-d’Azur","countryId":75,"countryCode":"FR","countryName":"France","latitude":"43.30038000","longitude":"5.37275000","wikiDataId":"Q35715431"},{"id":43413,"name":"Les Médecins","stateId":4812,"stateCode":"PAC","stateName":"Provence-Alpes-Côte-d’Azur","countryId":75,"countryCode":"FR","countryName":"France","latitude":"43.35417000","longitude":"5.45483000","wikiDataId":"Q317433"},{"id":43414,"name":"Les Mées","stateId":4812,"stateCode":"PAC","stateName":"Provence-Alpes-Côte-d’Azur","countryId":75,"countryCode":"FR","countryName":"France","latitude":"44.02961000","longitude":"5.97635000","wikiDataId":"Q317433"},{"id":43416,"name":"Les Olives","stateId":4812,"stateCode":"PAC","stateName":"Provence-Alpes-Côte-d’Azur","countryId":75,"countryCode":"FR","countryName":"France","latitude":"43.32393000","longitude":"5.45840000","wikiDataId":"Q317433"},{"id":43420,"name":"Les Pennes-Mirabeau","stateId":4812,"stateCode":"PAC","stateName":"Provence-Alpes-Côte-d’Azur","countryId":75,"countryCode":"FR","countryName":"France","latitude":"43.41012000","longitude":"5.30838000","wikiDataId":"Q243100"},{"id":43431,"name":"Les Trois-Lucs","stateId":4812,"stateCode":"PAC","stateName":"Provence-Alpes-Côte-d’Azur","countryId":75,"countryCode":"FR","countryName":"France","latitude":"43.31371000","longitude":"5.46248000","wikiDataId":"Q1165125"},{"id":43450,"name":"Levens","stateId":4812,"stateCode":"PAC","stateName":"Provence-Alpes-Côte-d’Azur","countryId":75,"countryCode":"FR","countryName":"France","latitude":"43.85948000","longitude":"7.22583000","wikiDataId":"Q271337"},{"id":43536,"name":"Lodi","stateId":4812,"stateCode":"PAC","stateName":"Provence-Alpes-Côte-d’Azur","countryId":75,"countryCode":"FR","countryName":"France","latitude":"43.28663000","longitude":"5.38882000","wikiDataId":"Q35718766"},{"id":43586,"name":"Lorgues","stateId":4812,"stateCode":"PAC","stateName":"Provence-Alpes-Côte-d’Azur","countryId":75,"countryCode":"FR","countryName":"France","latitude":"43.49325000","longitude":"6.36150000","wikiDataId":"Q733009"},{"id":43588,"name":"Loriol-du-Comtat","stateId":4812,"stateCode":"PAC","stateName":"Provence-Alpes-Côte-d’Azur","countryId":75,"countryCode":"FR","countryName":"France","latitude":"44.07653000","longitude":"5.00065000","wikiDataId":"Q1019124"},{"id":43609,"name":"Lourmarin","stateId":4812,"stateCode":"PAC","stateName":"Provence-Alpes-Côte-d’Azur","countryId":75,"countryCode":"FR","countryName":"France","latitude":"43.76385000","longitude":"5.36264000","wikiDataId":"Q458748"},{"id":43639,"name":"Lucéram","stateId":4812,"stateCode":"PAC","stateName":"Provence-Alpes-Côte-d’Azur","countryId":75,"countryCode":"FR","countryName":"France","latitude":"43.88293000","longitude":"7.35988000","wikiDataId":"Q866296"},{"id":43733,"name":"Maillane","stateId":4812,"stateCode":"PAC","stateName":"Provence-Alpes-Côte-d’Azur","countryId":75,"countryCode":"FR","countryName":"France","latitude":"43.83289000","longitude":"4.78209000","wikiDataId":"Q498858"},{"id":43751,"name":"Malaucène","stateId":4812,"stateCode":"PAC","stateName":"Provence-Alpes-Côte-d’Azur","countryId":75,"countryCode":"FR","countryName":"France","latitude":"44.17393000","longitude":"5.13213000","wikiDataId":"Q302380"},{"id":43754,"name":"Malemort-du-Comtat","stateId":4812,"stateCode":"PAC","stateName":"Provence-Alpes-Côte-d’Azur","countryId":75,"countryCode":"FR","countryName":"France","latitude":"44.02096000","longitude":"5.15961000","wikiDataId":"Q531296"},{"id":43760,"name":"Malijai","stateId":4812,"stateCode":"PAC","stateName":"Provence-Alpes-Côte-d’Azur","countryId":75,"countryCode":"FR","countryName":"France","latitude":"44.04600000","longitude":"6.03041000","wikiDataId":"Q1018567"},{"id":43763,"name":"Mallemoisson","stateId":4812,"stateCode":"PAC","stateName":"Provence-Alpes-Côte-d’Azur","countryId":75,"countryCode":"FR","countryName":"France","latitude":"44.04687000","longitude":"6.12557000","wikiDataId":"Q1018630"},{"id":43764,"name":"Mallemort","stateId":4812,"stateCode":"PAC","stateName":"Provence-Alpes-Côte-d’Azur","countryId":75,"countryCode":"FR","countryName":"France","latitude":"43.73172000","longitude":"5.17945000","wikiDataId":"Q1018630"},{"id":43765,"name":"Malpassé","stateId":4812,"stateCode":"PAC","stateName":"Provence-Alpes-Côte-d’Azur","countryId":75,"countryCode":"FR","countryName":"France","latitude":"43.32170000","longitude":"5.41551000","wikiDataId":"Q1018630"},{"id":43773,"name":"Mandelieu-la-Napoule","stateId":4812,"stateCode":"PAC","stateName":"Provence-Alpes-Côte-d’Azur","countryId":75,"countryCode":"FR","countryName":"France","latitude":"43.54577000","longitude":"6.93734000","wikiDataId":"Q239317"},{"id":43777,"name":"Mane","stateId":4812,"stateCode":"PAC","stateName":"Provence-Alpes-Côte-d’Azur","countryId":75,"countryCode":"FR","countryName":"France","latitude":"43.93795000","longitude":"5.76718000","wikiDataId":"Q244249"},{"id":43780,"name":"Manosque","stateId":4812,"stateCode":"PAC","stateName":"Provence-Alpes-Côte-d’Azur","countryId":75,"countryCode":"FR","countryName":"France","latitude":"43.82883000","longitude":"5.78688000","wikiDataId":"Q234274"},{"id":43838,"name":"Marignane","stateId":4812,"stateCode":"PAC","stateName":"Provence-Alpes-Côte-d’Azur","countryId":75,"countryCode":"FR","countryName":"France","latitude":"43.41727000","longitude":"5.21462000","wikiDataId":"Q243317"},{"id":43883,"name":"Marseille","stateId":4812,"stateCode":"PAC","stateName":"Provence-Alpes-Côte-d’Azur","countryId":75,"countryCode":"FR","countryName":"France","latitude":"43.29695000","longitude":"5.38107000","wikiDataId":"Q23482"},{"id":43884,"name":"Marseille 01","stateId":4812,"stateCode":"PAC","stateName":"Provence-Alpes-Côte-d’Azur","countryId":75,"countryCode":"FR","countryName":"France","latitude":"43.29814000","longitude":"5.38407000","wikiDataId":"Q35725269"},{"id":43885,"name":"Marseille 02","stateId":4812,"stateCode":"PAC","stateName":"Provence-Alpes-Côte-d’Azur","countryId":75,"countryCode":"FR","countryName":"France","latitude":"43.29664000","longitude":"5.37034000","wikiDataId":"Q35725276"},{"id":43886,"name":"Marseille 03","stateId":4812,"stateCode":"PAC","stateName":"Provence-Alpes-Côte-d’Azur","countryId":75,"countryCode":"FR","countryName":"France","latitude":"43.30257000","longitude":"5.37583000","wikiDataId":"Q35725284"},{"id":43887,"name":"Marseille 04","stateId":4812,"stateCode":"PAC","stateName":"Provence-Alpes-Côte-d’Azur","countryId":75,"countryCode":"FR","countryName":"France","latitude":"43.30213000","longitude":"5.40141000","wikiDataId":"Q35725292"},{"id":43888,"name":"Marseille 05","stateId":4812,"stateCode":"PAC","stateName":"Provence-Alpes-Côte-d’Azur","countryId":75,"countryCode":"FR","countryName":"France","latitude":"43.29551000","longitude":"5.40055000","wikiDataId":"Q35725300"},{"id":43889,"name":"Marseille 06","stateId":4812,"stateCode":"PAC","stateName":"Provence-Alpes-Côte-d’Azur","countryId":75,"countryCode":"FR","countryName":"France","latitude":"43.28764000","longitude":"5.37918000","wikiDataId":"Q35725308"},{"id":43890,"name":"Marseille 07","stateId":4812,"stateCode":"PAC","stateName":"Provence-Alpes-Côte-d’Azur","countryId":75,"countryCode":"FR","countryName":"France","latitude":"43.28289000","longitude":"5.36021000","wikiDataId":"Q35725316"},{"id":43891,"name":"Marseille 08","stateId":4812,"stateCode":"PAC","stateName":"Provence-Alpes-Côte-d’Azur","countryId":75,"countryCode":"FR","countryName":"France","latitude":"43.27083000","longitude":"5.38210000","wikiDataId":"Q35725324"},{"id":43892,"name":"Marseille 09","stateId":4812,"stateCode":"PAC","stateName":"Provence-Alpes-Côte-d’Azur","countryId":75,"countryCode":"FR","countryName":"France","latitude":"43.25433000","longitude":"5.40570000","wikiDataId":"Q35725332"},{"id":43893,"name":"Marseille 10","stateId":4812,"stateCode":"PAC","stateName":"Provence-Alpes-Côte-d’Azur","countryId":75,"countryCode":"FR","countryName":"France","latitude":"43.27889000","longitude":"5.41523000","wikiDataId":"Q35725340"},{"id":43894,"name":"Marseille 11","stateId":4812,"stateCode":"PAC","stateName":"Provence-Alpes-Côte-d’Azur","countryId":75,"countryCode":"FR","countryName":"France","latitude":"43.29070000","longitude":"5.43840000","wikiDataId":"Q35725348"},{"id":43895,"name":"Marseille 12","stateId":4812,"stateCode":"PAC","stateName":"Provence-Alpes-Côte-d’Azur","countryId":75,"countryCode":"FR","countryName":"France","latitude":"43.29614000","longitude":"5.43617000","wikiDataId":"Q35725356"},{"id":43896,"name":"Marseille 13","stateId":4812,"stateCode":"PAC","stateName":"Provence-Alpes-Côte-d’Azur","countryId":75,"countryCode":"FR","countryName":"France","latitude":"43.31856000","longitude":"5.40836000","wikiDataId":"Q35725364"},{"id":43897,"name":"Marseille 14","stateId":4812,"stateCode":"PAC","stateName":"Provence-Alpes-Côte-d’Azur","countryId":75,"countryCode":"FR","countryName":"France","latitude":"43.34447000","longitude":"5.38004000","wikiDataId":"Q35725372"},{"id":43898,"name":"Marseille 15","stateId":4812,"stateCode":"PAC","stateName":"Provence-Alpes-Côte-d’Azur","countryId":75,"countryCode":"FR","countryName":"France","latitude":"43.37224000","longitude":"5.35386000","wikiDataId":"Q35725380"},{"id":43899,"name":"Marseille 16","stateId":4812,"stateCode":"PAC","stateName":"Provence-Alpes-Côte-d’Azur","countryId":75,"countryCode":"FR","countryName":"France","latitude":"43.35982000","longitude":"5.33421000","wikiDataId":"Q35725388"},{"id":43900,"name":"Marseille Bompard","stateId":4812,"stateCode":"PAC","stateName":"Provence-Alpes-Côte-d’Azur","countryId":75,"countryCode":"FR","countryName":"France","latitude":"43.28120000","longitude":"5.36081000","wikiDataId":"Q35725388"},{"id":43901,"name":"Marseille Endoume","stateId":4812,"stateCode":"PAC","stateName":"Provence-Alpes-Côte-d’Azur","countryId":75,"countryCode":"FR","countryName":"France","latitude":"43.28320000","longitude":"5.35159000","wikiDataId":"Q35725388"},{"id":43902,"name":"Marseille Prefecture","stateId":4812,"stateCode":"PAC","stateName":"Provence-Alpes-Côte-d’Azur","countryId":75,"countryCode":"FR","countryName":"France","latitude":"43.29092000","longitude":"5.37901000","wikiDataId":"Q35725388"},{"id":43903,"name":"Marseille Roucas-Blanc","stateId":4812,"stateCode":"PAC","stateName":"Provence-Alpes-Côte-d’Azur","countryId":75,"countryCode":"FR","countryName":"France","latitude":"43.27652000","longitude":"5.36519000","wikiDataId":"Q35725388"},{"id":43904,"name":"Marseille Saint-Victor","stateId":4812,"stateCode":"PAC","stateName":"Provence-Alpes-Côte-d’Azur","countryId":75,"countryCode":"FR","countryName":"France","latitude":"43.28955000","longitude":"5.36845000","wikiDataId":"Q35725388"},{"id":43905,"name":"Marseille Vauban","stateId":4812,"stateCode":"PAC","stateName":"Provence-Alpes-Côte-d’Azur","countryId":75,"countryCode":"FR","countryName":"France","latitude":"43.28408000","longitude":"5.37540000","wikiDataId":"Q35725388"},{"id":43916,"name":"Martigues","stateId":4812,"stateCode":"PAC","stateName":"Provence-Alpes-Côte-d’Azur","countryId":75,"countryCode":"FR","countryName":"France","latitude":"43.40735000","longitude":"5.05526000","wikiDataId":"Q237516"},{"id":43943,"name":"Maubec","stateId":4812,"stateCode":"PAC","stateName":"Provence-Alpes-Côte-d’Azur","countryId":75,"countryCode":"FR","countryName":"France","latitude":"43.84379000","longitude":"5.13919000","wikiDataId":"Q35726152"},{"id":43959,"name":"Maussane-les-Alpilles","stateId":4812,"stateCode":"PAC","stateName":"Provence-Alpes-Côte-d’Azur","countryId":75,"countryCode":"FR","countryName":"France","latitude":"43.72236000","longitude":"4.80497000","wikiDataId":"Q504936"},{"id":43972,"name":"Mazan","stateId":4812,"stateCode":"PAC","stateName":"Provence-Alpes-Côte-d’Azur","countryId":75,"countryCode":"FR","countryName":"France","latitude":"44.05696000","longitude":"5.12680000","wikiDataId":"Q631977"},{"id":43973,"name":"Mazargues","stateId":4812,"stateCode":"PAC","stateName":"Provence-Alpes-Côte-d’Azur","countryId":75,"countryCode":"FR","countryName":"France","latitude":"43.24622000","longitude":"5.39788000","wikiDataId":"Q631977"},{"id":44462,"name":"Ménerbes","stateId":4812,"stateCode":"PAC","stateName":"Provence-Alpes-Côte-d’Azur","countryId":75,"countryCode":"FR","countryName":"France","latitude":"43.83242000","longitude":"5.20597000","wikiDataId":"Q470889"},{"id":44003,"name":"Menpenti","stateId":4812,"stateCode":"PAC","stateName":"Provence-Alpes-Côte-d’Azur","countryId":75,"countryCode":"FR","countryName":"France","latitude":"43.28198000","longitude":"5.39607000","wikiDataId":"Q625447"},{"id":44007,"name":"Menton","stateId":4812,"stateCode":"PAC","stateName":"Provence-Alpes-Côte-d’Azur","countryId":75,"countryCode":"FR","countryName":"France","latitude":"43.77649000","longitude":"7.50435000","wikiDataId":"Q180083"},{"id":44468,"name":"Méounes-lès-Montrieux","stateId":4812,"stateCode":"PAC","stateName":"Provence-Alpes-Côte-d’Azur","countryId":75,"countryCode":"FR","countryName":"France","latitude":"43.28102000","longitude":"5.96986000","wikiDataId":"Q35736543"},{"id":44475,"name":"Mérindol","stateId":4812,"stateCode":"PAC","stateName":"Provence-Alpes-Côte-d’Azur","countryId":75,"countryCode":"FR","countryName":"France","latitude":"43.75516000","longitude":"5.20357000","wikiDataId":"Q470556"},{"id":44059,"name":"Meyrargues","stateId":4812,"stateCode":"PAC","stateName":"Provence-Alpes-Côte-d’Azur","countryId":75,"countryCode":"FR","countryName":"France","latitude":"43.63677000","longitude":"5.52679000","wikiDataId":"Q675992"},{"id":44060,"name":"Meyreuil","stateId":4812,"stateCode":"PAC","stateName":"Provence-Alpes-Côte-d’Azur","countryId":75,"countryCode":"FR","countryName":"France","latitude":"43.48780000","longitude":"5.49574000","wikiDataId":"Q675912"},{"id":44079,"name":"Mimet","stateId":4812,"stateCode":"PAC","stateName":"Provence-Alpes-Côte-d’Azur","countryId":75,"countryCode":"FR","countryName":"France","latitude":"43.41427000","longitude":"5.50579000","wikiDataId":"Q640891"},{"id":44087,"name":"Miramas","stateId":4812,"stateCode":"PAC","stateName":"Provence-Alpes-Côte-d’Azur","countryId":75,"countryCode":"FR","countryName":"France","latitude":"43.58508000","longitude":"5.00268000","wikiDataId":"Q235865"},{"id":44125,"name":"Mollégès","stateId":4812,"stateCode":"PAC","stateName":"Provence-Alpes-Côte-d’Azur","countryId":75,"countryCode":"FR","countryName":"France","latitude":"43.80703000","longitude":"4.94934000","wikiDataId":"Q640727"},{"id":44139,"name":"Mondragon","stateId":4812,"stateCode":"PAC","stateName":"Provence-Alpes-Côte-d’Azur","countryId":75,"countryCode":"FR","countryName":"France","latitude":"44.23831000","longitude":"4.71286000","wikiDataId":"Q751785"},{"id":44186,"name":"Montauroux","stateId":4812,"stateCode":"PAC","stateName":"Provence-Alpes-Côte-d’Azur","countryId":75,"countryCode":"FR","countryName":"France","latitude":"43.61823000","longitude":"6.76528000","wikiDataId":"Q162569"},{"id":44229,"name":"Monteux","stateId":4812,"stateCode":"PAC","stateName":"Provence-Alpes-Côte-d’Azur","countryId":75,"countryCode":"FR","countryName":"France","latitude":"44.03618000","longitude":"4.99630000","wikiDataId":"Q830293"},{"id":44234,"name":"Montfavet","stateId":4812,"stateCode":"PAC","stateName":"Provence-Alpes-Côte-d’Azur","countryId":75,"countryCode":"FR","countryName":"France","latitude":"43.93335000","longitude":"4.87342000","wikiDataId":"Q1946226"},{"id":44238,"name":"Montferrat","stateId":4812,"stateCode":"PAC","stateName":"Provence-Alpes-Côte-d’Azur","countryId":75,"countryCode":"FR","countryName":"France","latitude":"43.61196000","longitude":"6.48093000","wikiDataId":"Q906617"},{"id":44296,"name":"Montolivet","stateId":4812,"stateCode":"PAC","stateName":"Provence-Alpes-Côte-d’Azur","countryId":75,"countryCode":"FR","countryName":"France","latitude":"43.31715000","longitude":"5.42350000","wikiDataId":"Q752979"},{"id":44304,"name":"Montredon","stateId":4812,"stateCode":"PAC","stateName":"Provence-Alpes-Côte-d’Azur","countryId":75,"countryCode":"FR","countryName":"France","latitude":"43.24016000","longitude":"5.36629000","wikiDataId":"Q839877"},{"id":44355,"name":"Morières-lès-Avignon","stateId":4812,"stateCode":"PAC","stateName":"Provence-Alpes-Côte-d’Azur","countryId":75,"countryCode":"FR","countryName":"France","latitude":"43.94030000","longitude":"4.90110000","wikiDataId":"Q35733807"},{"id":44359,"name":"Mormoiron","stateId":4812,"stateCode":"PAC","stateName":"Provence-Alpes-Côte-d’Azur","countryId":75,"countryCode":"FR","countryName":"France","latitude":"44.06810000","longitude":"5.18312000","wikiDataId":"Q472409"},{"id":44362,"name":"Mornas","stateId":4812,"stateCode":"PAC","stateName":"Provence-Alpes-Côte-d’Azur","countryId":75,"countryCode":"FR","countryName":"France","latitude":"44.20242000","longitude":"4.72763000","wikiDataId":"Q470952"},{"id":44381,"name":"Mouans-Sartoux","stateId":4812,"stateCode":"PAC","stateName":"Provence-Alpes-Côte-d’Azur","countryId":75,"countryCode":"FR","countryName":"France","latitude":"43.62101000","longitude":"6.97139000","wikiDataId":"Q322723"},{"id":44386,"name":"Mougins","stateId":4812,"stateCode":"PAC","stateName":"Provence-Alpes-Côte-d’Azur","countryId":75,"countryCode":"FR","countryName":"France","latitude":"43.60068000","longitude":"6.99523000","wikiDataId":"Q220673"},{"id":44400,"name":"Mouret","stateId":4812,"stateCode":"PAC","stateName":"Provence-Alpes-Côte-d’Azur","countryId":75,"countryCode":"FR","countryName":"France","latitude":"43.36126000","longitude":"5.43006000","wikiDataId":"Q321209"},{"id":44401,"name":"Mouriès","stateId":4812,"stateCode":"PAC","stateName":"Provence-Alpes-Côte-d’Azur","countryId":75,"countryCode":"FR","countryName":"France","latitude":"43.68997000","longitude":"4.87089000","wikiDataId":"Q829392"},{"id":44504,"name":"Nans-les-Pins","stateId":4812,"stateCode":"PAC","stateName":"Provence-Alpes-Côte-d’Azur","countryId":75,"countryCode":"FR","countryName":"France","latitude":"43.37066000","longitude":"5.78189000","wikiDataId":"Q579138"},{"id":44693,"name":"Néoules","stateId":4812,"stateCode":"PAC","stateName":"Provence-Alpes-Côte-d’Azur","countryId":75,"countryCode":"FR","countryName":"France","latitude":"43.30844000","longitude":"6.00798000","wikiDataId":"Q209810"},{"id":44587,"name":"Nice","stateId":4812,"stateCode":"PAC","stateName":"Provence-Alpes-Côte-d’Azur","countryId":75,"countryCode":"FR","countryName":"France","latitude":"43.70313000","longitude":"7.26608000","wikiDataId":"Q33959"},{"id":44608,"name":"Noailles","stateId":4812,"stateCode":"PAC","stateName":"Provence-Alpes-Côte-d’Azur","countryId":75,"countryCode":"FR","countryName":"France","latitude":"43.29604000","longitude":"5.37959000","wikiDataId":"Q1007331"},{"id":44649,"name":"Notre-Dame du Mont","stateId":4812,"stateCode":"PAC","stateName":"Provence-Alpes-Côte-d’Azur","countryId":75,"countryCode":"FR","countryName":"France","latitude":"43.29293000","longitude":"5.38203000","wikiDataId":"Q818800"},{"id":44648,"name":"Notre-Dame Limite","stateId":4812,"stateCode":"PAC","stateName":"Provence-Alpes-Côte-d’Azur","countryId":75,"countryCode":"FR","countryName":"France","latitude":"43.38165000","longitude":"5.36269000","wikiDataId":"Q818800"},{"id":44666,"name":"Noves","stateId":4812,"stateCode":"PAC","stateName":"Provence-Alpes-Côte-d’Azur","countryId":75,"countryCode":"FR","countryName":"France","latitude":"43.87736000","longitude":"4.90248000","wikiDataId":"Q474034"},{"id":44735,"name":"Ollioules","stateId":4812,"stateCode":"PAC","stateName":"Provence-Alpes-Côte-d’Azur","countryId":75,"countryCode":"FR","countryName":"France","latitude":"43.13990000","longitude":"5.84766000","wikiDataId":"Q840237"},{"id":44749,"name":"Opéra","stateId":4812,"stateCode":"PAC","stateName":"Provence-Alpes-Côte-d’Azur","countryId":75,"countryCode":"FR","countryName":"France","latitude":"43.29401000","longitude":"5.37610000","wikiDataId":"Q625964"},{"id":44747,"name":"Opio","stateId":4812,"stateCode":"PAC","stateName":"Provence-Alpes-Côte-d’Azur","countryId":75,"countryCode":"FR","countryName":"France","latitude":"43.66862000","longitude":"6.98212000","wikiDataId":"Q752907"},{"id":44748,"name":"Oppède le Vieux","stateId":4812,"stateCode":"PAC","stateName":"Provence-Alpes-Côte-d’Azur","countryId":75,"countryCode":"FR","countryName":"France","latitude":"43.82844000","longitude":"5.16132000","wikiDataId":"Q625964"},{"id":44752,"name":"Oraison","stateId":4812,"stateCode":"PAC","stateName":"Provence-Alpes-Côte-d’Azur","countryId":75,"countryCode":"FR","countryName":"France","latitude":"43.91726000","longitude":"5.91836000","wikiDataId":"Q1076759"},{"id":44753,"name":"Orange","stateId":4812,"stateCode":"PAC","stateName":"Provence-Alpes-Côte-d’Azur","countryId":75,"countryCode":"FR","countryName":"France","latitude":"44.13806000","longitude":"4.81025000","wikiDataId":"Q187796"},{"id":44764,"name":"Orgon","stateId":4812,"stateCode":"PAC","stateName":"Provence-Alpes-Côte-d’Azur","countryId":75,"countryCode":"FR","countryName":"France","latitude":"43.79108000","longitude":"5.03869000","wikiDataId":"Q269268"},{"id":44831,"name":"Palais de Justice","stateId":4812,"stateCode":"PAC","stateName":"Provence-Alpes-Côte-d’Azur","countryId":75,"countryCode":"FR","countryName":"France","latitude":"43.28657000","longitude":"5.37603000","wikiDataId":"Q152741"},{"id":44834,"name":"Palama","stateId":4812,"stateCode":"PAC","stateName":"Provence-Alpes-Côte-d’Azur","countryId":75,"countryCode":"FR","countryName":"France","latitude":"43.36566000","longitude":"5.44427000","wikiDataId":"Q205580"},{"id":44846,"name":"Paradou","stateId":4812,"stateCode":"PAC","stateName":"Provence-Alpes-Côte-d’Azur","countryId":75,"countryCode":"FR","countryName":"France","latitude":"43.71699000","longitude":"4.78604000","wikiDataId":"Q501966"},{"id":45345,"name":"Pégomas","stateId":4812,"stateCode":"PAC","stateName":"Provence-Alpes-Côte-d’Azur","countryId":75,"countryCode":"FR","countryName":"France","latitude":"43.59662000","longitude":"6.93211000","wikiDataId":"Q287518"},{"id":44882,"name":"Peille","stateId":4812,"stateCode":"PAC","stateName":"Provence-Alpes-Côte-d’Azur","countryId":75,"countryCode":"FR","countryName":"France","latitude":"43.80296000","longitude":"7.40191000","wikiDataId":"Q866754"},{"id":44883,"name":"Peillon","stateId":4812,"stateCode":"PAC","stateName":"Provence-Alpes-Côte-d’Azur","countryId":75,"countryCode":"FR","countryName":"France","latitude":"43.77861000","longitude":"7.38278000","wikiDataId":"Q327669"},{"id":44885,"name":"Peipin","stateId":4812,"stateCode":"PAC","stateName":"Provence-Alpes-Côte-d’Azur","countryId":75,"countryCode":"FR","countryName":"France","latitude":"44.13778000","longitude":"5.95722000","wikiDataId":"Q383608"},{"id":45346,"name":"Pélissanne","stateId":4812,"stateCode":"PAC","stateName":"Provence-Alpes-Côte-d’Azur","countryId":75,"countryCode":"FR","countryName":"France","latitude":"43.63260000","longitude":"5.15220000","wikiDataId":"Q474016"},{"id":45351,"name":"Périer","stateId":4812,"stateCode":"PAC","stateName":"Provence-Alpes-Côte-d’Azur","countryId":75,"countryCode":"FR","countryName":"France","latitude":"43.27755000","longitude":"5.37925000","wikiDataId":"Q126869"},{"id":44898,"name":"Pernes-les-Fontaines","stateId":4812,"stateCode":"PAC","stateName":"Provence-Alpes-Côte-d’Azur","countryId":75,"countryCode":"FR","countryName":"France","latitude":"43.99802000","longitude":"5.05906000","wikiDataId":"Q472574"},{"id":44911,"name":"Pertuis","stateId":4812,"stateCode":"PAC","stateName":"Provence-Alpes-Côte-d’Azur","countryId":75,"countryCode":"FR","countryName":"France","latitude":"43.69415000","longitude":"5.50291000","wikiDataId":"Q239943"},{"id":44923,"name":"Peymeinade","stateId":4812,"stateCode":"PAC","stateName":"Provence-Alpes-Côte-d’Azur","countryId":75,"countryCode":"FR","countryName":"France","latitude":"43.64244000","longitude":"6.87583000","wikiDataId":"Q1065286"},{"id":44924,"name":"Peynier","stateId":4812,"stateCode":"PAC","stateName":"Provence-Alpes-Côte-d’Azur","countryId":75,"countryCode":"FR","countryName":"France","latitude":"43.44837000","longitude":"5.64139000","wikiDataId":"Q594551"},{"id":44925,"name":"Peypin","stateId":4812,"stateCode":"PAC","stateName":"Provence-Alpes-Côte-d’Azur","countryId":75,"countryCode":"FR","countryName":"France","latitude":"43.38503000","longitude":"5.57788000","wikiDataId":"Q594551"},{"id":44934,"name":"Peyrolles-en-Provence","stateId":4812,"stateCode":"PAC","stateName":"Provence-Alpes-Côte-d’Azur","countryId":75,"countryCode":"FR","countryName":"France","latitude":"43.64545000","longitude":"5.58492000","wikiDataId":"Q640764"},{"id":44935,"name":"Peyruis","stateId":4812,"stateCode":"PAC","stateName":"Provence-Alpes-Côte-d’Azur","countryId":75,"countryCode":"FR","countryName":"France","latitude":"44.02880000","longitude":"5.94032000","wikiDataId":"Q374183"},{"id":44953,"name":"Pierrefeu-du-Var","stateId":4812,"stateCode":"PAC","stateName":"Provence-Alpes-Côte-d’Azur","countryId":75,"countryCode":"FR","countryName":"France","latitude":"43.22411000","longitude":"6.14536000","wikiDataId":"Q829276"},{"id":44963,"name":"Pierrevert","stateId":4812,"stateCode":"PAC","stateName":"Provence-Alpes-Côte-d’Azur","countryId":75,"countryCode":"FR","countryName":"France","latitude":"43.81137000","longitude":"5.74958000","wikiDataId":"Q1017916"},{"id":44969,"name":"Pignans","stateId":4812,"stateCode":"PAC","stateName":"Provence-Alpes-Côte-d’Azur","countryId":75,"countryCode":"FR","countryName":"France","latitude":"43.30071000","longitude":"6.22650000","wikiDataId":"Q979659"},{"id":44974,"name":"Piolenc","stateId":4812,"stateCode":"PAC","stateName":"Provence-Alpes-Côte-d’Azur","countryId":75,"countryCode":"FR","countryName":"France","latitude":"44.17765000","longitude":"4.76157000","wikiDataId":"Q512467"},{"id":44996,"name":"Plan-d'Aups-Sainte-Baume","stateId":4812,"stateCode":"PAC","stateName":"Provence-Alpes-Côte-d’Azur","countryId":75,"countryCode":"FR","countryName":"France","latitude":"43.33333000","longitude":"5.71667000","wikiDataId":"Q209712"},{"id":44997,"name":"Plan-de-Cuques","stateId":4812,"stateCode":"PAC","stateName":"Provence-Alpes-Côte-d’Azur","countryId":75,"countryCode":"FR","countryName":"France","latitude":"43.34753000","longitude":"5.46398000","wikiDataId":"Q533703"},{"id":45163,"name":"Pont de Vivaux","stateId":4812,"stateCode":"PAC","stateName":"Provence-Alpes-Côte-d’Azur","countryId":75,"countryCode":"FR","countryName":"France","latitude":"43.27604000","longitude":"5.41586000","wikiDataId":"Q384838"},{"id":45233,"name":"Port-de-Bouc","stateId":4812,"stateCode":"PAC","stateName":"Provence-Alpes-Côte-d’Azur","countryId":75,"countryCode":"FR","countryName":"France","latitude":"43.40657000","longitude":"4.98090000","wikiDataId":"Q675925"},{"id":45229,"name":"Port-Saint-Louis-du-Rhône","stateId":4812,"stateCode":"PAC","stateName":"Provence-Alpes-Côte-d’Azur","countryId":75,"countryCode":"FR","countryName":"France","latitude":"43.38734000","longitude":"4.82609000","wikiDataId":"Q268765"},{"id":45266,"name":"Pourrières","stateId":4812,"stateCode":"PAC","stateName":"Provence-Alpes-Côte-d’Azur","countryId":75,"countryCode":"FR","countryName":"France","latitude":"43.50611000","longitude":"5.73452000","wikiDataId":"Q273202"},{"id":45316,"name":"Puget-sur-Argens","stateId":4812,"stateCode":"PAC","stateName":"Provence-Alpes-Côte-d’Azur","countryId":75,"countryCode":"FR","countryName":"France","latitude":"43.45576000","longitude":"6.68519000","wikiDataId":"Q685396"},{"id":45314,"name":"Puget-Théniers","stateId":4812,"stateCode":"PAC","stateName":"Provence-Alpes-Côte-d’Azur","countryId":75,"countryCode":"FR","countryName":"France","latitude":"43.95598000","longitude":"6.89378000","wikiDataId":"Q856180"},{"id":45315,"name":"Puget-Ville","stateId":4812,"stateCode":"PAC","stateName":"Provence-Alpes-Côte-d’Azur","countryId":75,"countryCode":"FR","countryName":"France","latitude":"43.28958000","longitude":"6.13612000","wikiDataId":"Q816114"},{"id":45339,"name":"Puyloubier","stateId":4812,"stateCode":"PAC","stateName":"Provence-Alpes-Côte-d’Azur","countryId":75,"countryCode":"FR","countryName":"France","latitude":"43.52522000","longitude":"5.67650000","wikiDataId":"Q675854"},{"id":45421,"name":"Ramatuelle","stateId":4812,"stateCode":"PAC","stateName":"Provence-Alpes-Côte-d’Azur","countryId":75,"countryCode":"FR","countryName":"France","latitude":"43.21599000","longitude":"6.61156000","wikiDataId":"Q659125"},{"id":45690,"name":"Régusse","stateId":4812,"stateCode":"PAC","stateName":"Provence-Alpes-Côte-d’Azur","countryId":75,"countryCode":"FR","countryName":"France","latitude":"43.65540000","longitude":"6.13186000","wikiDataId":"Q733663"},{"id":45449,"name":"Reillanne","stateId":4812,"stateCode":"PAC","stateName":"Provence-Alpes-Côte-d’Azur","countryId":75,"countryCode":"FR","countryName":"France","latitude":"43.87899000","longitude":"5.65919000","wikiDataId":"Q1002092"},{"id":45486,"name":"Rians","stateId":4812,"stateCode":"PAC","stateName":"Provence-Alpes-Côte-d’Azur","countryId":75,"countryCode":"FR","countryName":"France","latitude":"43.60691000","longitude":"5.75696000","wikiDataId":"Q595371"},{"id":45509,"name":"Riez","stateId":4812,"stateCode":"PAC","stateName":"Provence-Alpes-Côte-d’Azur","countryId":75,"countryCode":"FR","countryName":"France","latitude":"43.81810000","longitude":"6.09268000","wikiDataId":"Q457002"},{"id":45537,"name":"Robion","stateId":4812,"stateCode":"PAC","stateName":"Provence-Alpes-Côte-d’Azur","countryId":75,"countryCode":"FR","countryName":"France","latitude":"43.84697000","longitude":"5.11017000","wikiDataId":"Q3581"},{"id":45538,"name":"Rocbaron","stateId":4812,"stateCode":"PAC","stateName":"Provence-Alpes-Côte-d’Azur","countryId":75,"countryCode":"FR","countryName":"France","latitude":"43.30904000","longitude":"6.07941000","wikiDataId":"Q3581"},{"id":45558,"name":"Rognac","stateId":4812,"stateCode":"PAC","stateName":"Provence-Alpes-Côte-d’Azur","countryId":75,"countryCode":"FR","countryName":"France","latitude":"43.48761000","longitude":"5.23387000","wikiDataId":"Q675965"},{"id":45559,"name":"Rognes","stateId":4812,"stateCode":"PAC","stateName":"Provence-Alpes-Côte-d’Azur","countryId":75,"countryCode":"FR","countryName":"France","latitude":"43.66378000","longitude":"5.34733000","wikiDataId":"Q675965"},{"id":45560,"name":"Rognonas","stateId":4812,"stateCode":"PAC","stateName":"Provence-Alpes-Côte-d’Azur","countryId":75,"countryCode":"FR","countryName":"France","latitude":"43.89993000","longitude":"4.80369000","wikiDataId":"Q675965"},{"id":45588,"name":"Roquebillière","stateId":4812,"stateCode":"PAC","stateName":"Provence-Alpes-Côte-d’Azur","countryId":75,"countryCode":"FR","countryName":"France","latitude":"44.01203000","longitude":"7.30727000","wikiDataId":"Q735839"},{"id":45589,"name":"Roquebrune-Cap-Martin","stateId":4812,"stateCode":"PAC","stateName":"Provence-Alpes-Côte-d’Azur","countryId":75,"countryCode":"FR","countryName":"France","latitude":"43.76408000","longitude":"7.48207000","wikiDataId":"Q220668"},{"id":45590,"name":"Roquebrune-sur-Argens","stateId":4812,"stateCode":"PAC","stateName":"Provence-Alpes-Côte-d’Azur","countryId":75,"countryCode":"FR","countryName":"France","latitude":"43.44313000","longitude":"6.63772000","wikiDataId":"Q474773"},{"id":45593,"name":"Roquefort-la-Bédoule","stateId":4812,"stateCode":"PAC","stateName":"Provence-Alpes-Côte-d’Azur","countryId":75,"countryCode":"FR","countryName":"France","latitude":"43.24883000","longitude":"5.59015000","wikiDataId":"Q675884"},{"id":45597,"name":"Roquevaire","stateId":4812,"stateCode":"PAC","stateName":"Provence-Alpes-Côte-d’Azur","countryId":75,"countryCode":"FR","countryName":"France","latitude":"43.35021000","longitude":"5.60414000","wikiDataId":"Q640919"},{"id":45618,"name":"Rouet","stateId":4812,"stateCode":"PAC","stateName":"Provence-Alpes-Côte-d’Azur","countryId":75,"countryCode":"FR","countryName":"France","latitude":"43.27808000","longitude":"5.39158000","wikiDataId":"Q30974"},{"id":45624,"name":"Rougiers","stateId":4812,"stateCode":"PAC","stateName":"Provence-Alpes-Côte-d’Azur","countryId":75,"countryCode":"FR","countryName":"France","latitude":"43.39233000","longitude":"5.85112000","wikiDataId":"Q837503"},{"id":45637,"name":"Rousset","stateId":4812,"stateCode":"PAC","stateName":"Provence-Alpes-Côte-d’Azur","countryId":75,"countryCode":"FR","countryName":"France","latitude":"43.48307000","longitude":"5.61959000","wikiDataId":"Q547598"},{"id":45638,"name":"Roussillon","stateId":4812,"stateCode":"PAC","stateName":"Provence-Alpes-Côte-d’Azur","countryId":75,"countryCode":"FR","countryName":"France","latitude":"43.90239000","longitude":"5.29274000","wikiDataId":"Q321139"},{"id":45699,"name":"Sablet","stateId":4812,"stateCode":"PAC","stateName":"Provence-Alpes-Côte-d’Azur","countryId":75,"countryCode":"FR","countryName":"France","latitude":"44.19265000","longitude":"5.00566000","wikiDataId":"Q625809"},{"id":45715,"name":"Saignon","stateId":4812,"stateCode":"PAC","stateName":"Provence-Alpes-Côte-d’Azur","countryId":75,"countryCode":"FR","countryName":"France","latitude":"43.86308000","longitude":"5.42838000","wikiDataId":"Q249055"},{"id":45754,"name":"Saint-Andiol","stateId":4812,"stateCode":"PAC","stateName":"Provence-Alpes-Côte-d’Azur","countryId":75,"countryCode":"FR","countryName":"France","latitude":"43.83484000","longitude":"4.94453000","wikiDataId":"Q474011"},{"id":45755,"name":"Saint-André","stateId":4812,"stateCode":"PAC","stateName":"Provence-Alpes-Côte-d’Azur","countryId":75,"countryCode":"FR","countryName":"France","latitude":"43.35630000","longitude":"5.34335000","wikiDataId":"Q474011"},{"id":45761,"name":"Saint-André-de-la-Roche","stateId":4812,"stateCode":"PAC","stateName":"Provence-Alpes-Côte-d’Azur","countryId":75,"countryCode":"FR","countryName":"France","latitude":"43.73333000","longitude":"7.28333000","wikiDataId":"Q474011"},{"id":45770,"name":"Saint-Antoine","stateId":4812,"stateCode":"PAC","stateName":"Provence-Alpes-Côte-d’Azur","countryId":75,"countryCode":"FR","countryName":"France","latitude":"43.37087000","longitude":"5.35888000","wikiDataId":"Q766749"},{"id":45803,"name":"Saint-Barnabé","stateId":4812,"stateCode":"PAC","stateName":"Provence-Alpes-Côte-d’Azur","countryId":75,"countryCode":"FR","countryName":"France","latitude":"43.30000000","longitude":"5.41667000","wikiDataId":"Q1222544"},{"id":45805,"name":"Saint-Barthélémy","stateId":4812,"stateCode":"PAC","stateName":"Provence-Alpes-Côte-d’Azur","countryId":75,"countryCode":"FR","countryName":"France","latitude":"43.33105000","longitude":"5.40241000","wikiDataId":"Q1222544"},{"id":45817,"name":"Saint-Bonnet-en-Champsaur","stateId":4812,"stateCode":"PAC","stateName":"Provence-Alpes-Côte-d’Azur","countryId":75,"countryCode":"FR","countryName":"France","latitude":"44.68333000","longitude":"6.08333000","wikiDataId":"Q1020792"},{"id":45837,"name":"Saint-Cannat","stateId":4812,"stateCode":"PAC","stateName":"Provence-Alpes-Côte-d’Azur","countryId":75,"countryCode":"FR","countryName":"France","latitude":"43.62132000","longitude":"5.29810000","wikiDataId":"Q640946"},{"id":45893,"name":"Saint-Cézaire-sur-Siagne","stateId":4812,"stateCode":"PAC","stateName":"Provence-Alpes-Côte-d’Azur","countryId":75,"countryCode":"FR","countryName":"France","latitude":"43.65015000","longitude":"6.79219000","wikiDataId":"Q853458"},{"id":45845,"name":"Saint-Chaffrey","stateId":4812,"stateCode":"PAC","stateName":"Provence-Alpes-Côte-d’Azur","countryId":75,"countryCode":"FR","countryName":"France","latitude":"44.92555000","longitude":"6.60768000","wikiDataId":"Q453076"},{"id":45846,"name":"Saint-Chamas","stateId":4812,"stateCode":"PAC","stateName":"Provence-Alpes-Côte-d’Azur","countryId":75,"countryCode":"FR","countryName":"France","latitude":"43.55048000","longitude":"5.03501000","wikiDataId":"Q453076"},{"id":45849,"name":"Saint-Charles","stateId":4812,"stateCode":"PAC","stateName":"Provence-Alpes-Côte-d’Azur","countryId":75,"countryCode":"FR","countryName":"France","latitude":"43.30199000","longitude":"5.38405000","wikiDataId":"Q239795"},{"id":45889,"name":"Saint-Cyr-sur-Mer","stateId":4812,"stateCode":"PAC","stateName":"Provence-Alpes-Côte-d’Azur","countryId":75,"countryCode":"FR","countryName":"France","latitude":"43.18048000","longitude":"5.70120000","wikiDataId":"Q659335"},{"id":45905,"name":"Saint-Didier","stateId":4812,"stateCode":"PAC","stateName":"Provence-Alpes-Côte-d’Azur","countryId":75,"countryCode":"FR","countryName":"France","latitude":"44.00424000","longitude":"5.11053000","wikiDataId":"Q626576"},{"id":46650,"name":"Saint-Étienne-de-Tinée","stateId":4812,"stateCode":"PAC","stateName":"Provence-Alpes-Côte-d’Azur","countryId":75,"countryCode":"FR","countryName":"France","latitude":"44.25643000","longitude":"6.92499000","wikiDataId":"Q993780"},{"id":46654,"name":"Saint-Étienne-du-Grès","stateId":4812,"stateCode":"PAC","stateName":"Provence-Alpes-Côte-d’Azur","countryId":75,"countryCode":"FR","countryName":"France","latitude":"43.78045000","longitude":"4.72534000","wikiDataId":"Q204383"},{"id":46037,"name":"Saint-Giniez","stateId":4812,"stateCode":"PAC","stateName":"Provence-Alpes-Côte-d’Azur","countryId":75,"countryCode":"FR","countryName":"France","latitude":"43.26946000","longitude":"5.38566000","wikiDataId":"Q818702"},{"id":46047,"name":"Saint-Henri","stateId":4812,"stateCode":"PAC","stateName":"Provence-Alpes-Côte-d’Azur","countryId":75,"countryCode":"FR","countryName":"France","latitude":"43.36151000","longitude":"5.33069000","wikiDataId":"Q220159"},{"id":46082,"name":"Saint-Jean du Désert","stateId":4812,"stateCode":"PAC","stateName":"Provence-Alpes-Côte-d’Azur","countryId":75,"countryCode":"FR","countryName":"France","latitude":"43.29331000","longitude":"5.42134000","wikiDataId":"Q1428539"},