[{"id":39241,"name":"Ablon","stateId":4804,"stateCode":"NOR","stateName":"Normandie","countryId":75,"countryCode":"FR","countryName":"France","latitude":"49.39214000","longitude":"0.29584000","wikiDataId":"Q322435"},{"id":39255,"name":"Acquigny","stateId":4804,"stateCode":"NOR","stateName":"Normandie","countryId":75,"countryCode":"FR","countryName":"France","latitude":"49.17350000","longitude":"1.17650000","wikiDataId":"Q342546"},{"id":39259,"name":"Agneaux","stateId":4804,"stateCode":"NOR","stateName":"Normandie","countryId":75,"countryCode":"FR","countryName":"France","latitude":"49.11905000","longitude":"-1.10610000","wikiDataId":"Q34794294"},{"id":39262,"name":"Agon-Coutainville","stateId":4804,"stateCode":"NOR","stateName":"Normandie","countryId":75,"countryCode":"FR","countryName":"France","latitude":"49.04167000","longitude":"-1.57500000","wikiDataId":"Q1001473"},{"id":39310,"name":"Alençon","stateId":4804,"stateCode":"NOR","stateName":"Normandie","countryId":75,"countryCode":"FR","countryName":"France","latitude":"48.43476000","longitude":"0.09311000","wikiDataId":"Q181269"},{"id":39317,"name":"Alizay","stateId":4804,"stateCode":"NOR","stateName":"Normandie","countryId":75,"countryCode":"FR","countryName":"France","latitude":"49.32158000","longitude":"1.17854000","wikiDataId":"Q1073113"},{"id":39362,"name":"Amfreville","stateId":4804,"stateCode":"NOR","stateName":"Normandie","countryId":75,"countryCode":"FR","countryName":"France","latitude":"49.25000000","longitude":"-0.23333000","wikiDataId":"Q192166"},{"id":39363,"name":"Amfreville-la-Mi-Voie","stateId":4804,"stateCode":"NOR","stateName":"Normandie","countryId":75,"countryCode":"FR","countryName":"France","latitude":"49.40755000","longitude":"1.13871000","wikiDataId":"Q192166"},{"id":39393,"name":"Andé","stateId":4804,"stateCode":"NOR","stateName":"Normandie","countryId":75,"countryCode":"FR","countryName":"France","latitude":"49.23163000","longitude":"1.24088000","wikiDataId":"Q240921"},{"id":39398,"name":"Angerville-l’Orcher","stateId":4804,"stateCode":"NOR","stateName":"Normandie","countryId":75,"countryCode":"FR","countryName":"France","latitude":"49.58833000","longitude":"0.28191000","wikiDataId":"Q38380"},{"id":39477,"name":"Argences","stateId":4804,"stateCode":"NOR","stateName":"Normandie","countryId":75,"countryCode":"FR","countryName":"France","latitude":"49.12635000","longitude":"-0.16644000","wikiDataId":"Q644665"},{"id":39479,"name":"Argentan","stateId":4804,"stateCode":"NOR","stateName":"Normandie","countryId":75,"countryCode":"FR","countryName":"France","latitude":"48.74441000","longitude":"-0.02023000","wikiDataId":"Q207622"},{"id":39502,"name":"Arnières-sur-Iton","stateId":4804,"stateCode":"NOR","stateName":"Normandie","countryId":75,"countryCode":"FR","countryName":"France","latitude":"48.99678000","longitude":"1.10384000","wikiDataId":"Q1617166"},{"id":39509,"name":"Arques-la-Bataille","stateId":4804,"stateCode":"NOR","stateName":"Normandie","countryId":75,"countryCode":"FR","countryName":"France","latitude":"49.88122000","longitude":"1.12875000","wikiDataId":"Q646708"},{"id":39558,"name":"Athis-de-l'Orne","stateId":4804,"stateCode":"NOR","stateName":"Normandie","countryId":75,"countryCode":"FR","countryName":"France","latitude":"48.81667000","longitude":"-0.50000000","wikiDataId":"Q244289"},{"id":39568,"name":"Aube-sur-Rîle","stateId":4804,"stateCode":"NOR","stateName":"Normandie","countryId":75,"countryCode":"FR","countryName":"France","latitude":"48.73920000","longitude":"0.55161000","wikiDataId":"Q184047"},{"id":39575,"name":"Aubevoye","stateId":4804,"stateCode":"NOR","stateName":"Normandie","countryId":75,"countryCode":"FR","countryName":"France","latitude":"49.17097000","longitude":"1.33537000","wikiDataId":"Q205632"},{"id":39603,"name":"Auffay","stateId":4804,"stateCode":"NOR","stateName":"Normandie","countryId":75,"countryCode":"FR","countryName":"France","latitude":"49.71881000","longitude":"1.09911000","wikiDataId":"Q751639"},{"id":39615,"name":"Aumale","stateId":4804,"stateCode":"NOR","stateName":"Normandie","countryId":75,"countryCode":"FR","countryName":"France","latitude":"49.76985000","longitude":"1.75587000","wikiDataId":"Q43411"},{"id":39619,"name":"Aunay-sur-Odon","stateId":4804,"stateCode":"NOR","stateName":"Normandie","countryId":75,"countryCode":"FR","countryName":"France","latitude":"49.02012000","longitude":"-0.63238000","wikiDataId":"Q232534"},{"id":39635,"name":"Authie","stateId":4804,"stateCode":"NOR","stateName":"Normandie","countryId":75,"countryCode":"FR","countryName":"France","latitude":"49.20615000","longitude":"-0.43191000","wikiDataId":"Q174234"},{"id":39651,"name":"Auzebosc","stateId":4804,"stateCode":"NOR","stateName":"Normandie","countryId":75,"countryCode":"FR","countryName":"France","latitude":"49.59565000","longitude":"0.72850000","wikiDataId":"Q20161"},{"id":39673,"name":"Aviron","stateId":4804,"stateCode":"NOR","stateName":"Normandie","countryId":75,"countryCode":"FR","countryName":"France","latitude":"49.05000000","longitude":"1.11667000","wikiDataId":"Q331624"},{"id":39678,"name":"Avranches","stateId":4804,"stateCode":"NOR","stateName":"Normandie","countryId":75,"countryCode":"FR","countryName":"France","latitude":"48.68436000","longitude":"-1.35686000","wikiDataId":"Q204430"},{"id":39702,"name":"Bacqueville-en-Caux","stateId":4804,"stateCode":"NOR","stateName":"Normandie","countryId":75,"countryCode":"FR","countryName":"France","latitude":"49.78761000","longitude":"0.99927000","wikiDataId":"Q49345047"},{"id":39710,"name":"Bagnoles-de-l'Orne","stateId":4804,"stateCode":"NOR","stateName":"Normandie","countryId":75,"countryCode":"FR","countryName":"France","latitude":"48.55720000","longitude":"-0.41383000","wikiDataId":"Q1003125"},{"id":39781,"name":"Barentin","stateId":4804,"stateCode":"NOR","stateName":"Normandie","countryId":75,"countryCode":"FR","countryName":"France","latitude":"49.54533000","longitude":"0.95515000","wikiDataId":"Q207577"},{"id":39782,"name":"Barenton","stateId":4804,"stateCode":"NOR","stateName":"Normandie","countryId":75,"countryCode":"FR","countryName":"France","latitude":"48.60027000","longitude":"-0.83258000","wikiDataId":"Q1001315"},{"id":39788,"name":"Barneville-Carteret","stateId":4804,"stateCode":"NOR","stateName":"Normandie","countryId":75,"countryCode":"FR","countryName":"France","latitude":"49.38333000","longitude":"-1.75000000","wikiDataId":"Q321965"},{"id":39789,"name":"Barneville-Plage","stateId":4804,"stateCode":"NOR","stateName":"Normandie","countryId":75,"countryCode":"FR","countryName":"France","latitude":"49.36786000","longitude":"-1.76512000","wikiDataId":"Q321965"},{"id":39819,"name":"Bavent","stateId":4804,"stateCode":"NOR","stateName":"Normandie","countryId":75,"countryCode":"FR","countryName":"France","latitude":"49.22996000","longitude":"-0.18675000","wikiDataId":"Q274976"},{"id":39822,"name":"Bayeux","stateId":4804,"stateCode":"NOR","stateName":"Normandie","countryId":75,"countryCode":"FR","countryName":"France","latitude":"49.27732000","longitude":"-0.70390000","wikiDataId":"Q183910"},{"id":39861,"name":"Beaumont-Hague","stateId":4804,"stateCode":"NOR","stateName":"Normandie","countryId":75,"countryCode":"FR","countryName":"France","latitude":"49.66387000","longitude":"-1.83822000","wikiDataId":"Q381313"},{"id":39869,"name":"Beaumont-le-Roger","stateId":4804,"stateCode":"NOR","stateName":"Normandie","countryId":75,"countryCode":"FR","countryName":"France","latitude":"49.07839000","longitude":"0.78081000","wikiDataId":"Q177155"},{"id":39902,"name":"Belbeuf","stateId":4804,"stateCode":"NOR","stateName":"Normandie","countryId":75,"countryCode":"FR","countryName":"France","latitude":"49.38766000","longitude":"1.14245000","wikiDataId":"Q62838"},{"id":39931,"name":"Bellême","stateId":4804,"stateCode":"NOR","stateName":"Normandie","countryId":75,"countryCode":"FR","countryName":"France","latitude":"48.37329000","longitude":"0.57005000","wikiDataId":"Q816092"},{"id":39918,"name":"Bellengreville","stateId":4804,"stateCode":"NOR","stateName":"Normandie","countryId":75,"countryCode":"FR","countryName":"France","latitude":"49.12425000","longitude":"-0.20961000","wikiDataId":"Q263971"},{"id":40426,"name":"Bénouville","stateId":4804,"stateCode":"NOR","stateName":"Normandie","countryId":75,"countryCode":"FR","countryName":"France","latitude":"49.24151000","longitude":"-0.28246000","wikiDataId":"Q329911"},{"id":39952,"name":"Bernay","stateId":4804,"stateCode":"NOR","stateName":"Normandie","countryId":75,"countryCode":"FR","countryName":"France","latitude":"49.08888000","longitude":"0.59858000","wikiDataId":"Q962896"},{"id":39954,"name":"Berneval-le-Grand","stateId":4804,"stateCode":"NOR","stateName":"Normandie","countryId":75,"countryCode":"FR","countryName":"France","latitude":"49.95328000","longitude":"1.18755000","wikiDataId":"Q476813"},{"id":39957,"name":"Bernières-sur-Mer","stateId":4804,"stateCode":"NOR","stateName":"Normandie","countryId":75,"countryCode":"FR","countryName":"France","latitude":"49.33057000","longitude":"-0.42299000","wikiDataId":"Q476813"},{"id":39990,"name":"Beuville","stateId":4804,"stateCode":"NOR","stateName":"Normandie","countryId":75,"countryCode":"FR","countryName":"France","latitude":"49.24364000","longitude":"-0.32585000","wikiDataId":"Q22384"},{"id":39991,"name":"Beuvillers","stateId":4804,"stateCode":"NOR","stateName":"Normandie","countryId":75,"countryCode":"FR","countryName":"France","latitude":"49.12961000","longitude":"0.25492000","wikiDataId":"Q22384"},{"id":39995,"name":"Beuzeville","stateId":4804,"stateCode":"NOR","stateName":"Normandie","countryId":75,"countryCode":"FR","countryName":"France","latitude":"49.34483000","longitude":"0.34254000","wikiDataId":"Q329328"},{"id":39996,"name":"Beuzeville-la-Grenier","stateId":4804,"stateCode":"NOR","stateName":"Normandie","countryId":75,"countryCode":"FR","countryName":"France","latitude":"49.59157000","longitude":"0.42684000","wikiDataId":"Q329328"},{"id":40437,"name":"Bézu-Saint-Éloi","stateId":4804,"stateCode":"NOR","stateName":"Normandie","countryId":75,"countryCode":"FR","countryName":"France","latitude":"49.29524000","longitude":"1.70404000","wikiDataId":"Q174019"},{"id":40041,"name":"Biéville-Beuville","stateId":4804,"stateCode":"NOR","stateName":"Normandie","countryId":75,"countryCode":"FR","countryName":"France","latitude":"49.24293000","longitude":"-0.32762000","wikiDataId":"Q317610"},{"id":40019,"name":"Bihorel","stateId":4804,"stateCode":"NOR","stateName":"Normandie","countryId":75,"countryCode":"FR","countryName":"France","latitude":"49.45468000","longitude":"1.12230000","wikiDataId":"Q1113714"},{"id":40048,"name":"Blainville-Crevon","stateId":4804,"stateCode":"NOR","stateName":"Normandie","countryId":75,"countryCode":"FR","countryName":"France","latitude":"49.50395000","longitude":"1.29952000","wikiDataId":"Q946691"},{"id":40049,"name":"Blainville-sur-Mer","stateId":4804,"stateCode":"NOR","stateName":"Normandie","countryId":75,"countryCode":"FR","countryName":"France","latitude":"49.06599000","longitude":"-1.58340000","wikiDataId":"Q946691"},{"id":40050,"name":"Blainville-sur-Orne","stateId":4804,"stateCode":"NOR","stateName":"Normandie","countryId":75,"countryCode":"FR","countryName":"France","latitude":"49.22913000","longitude":"-0.30061000","wikiDataId":"Q946691"},{"id":40054,"name":"Blangy-sur-Bresle","stateId":4804,"stateCode":"NOR","stateName":"Normandie","countryId":75,"countryCode":"FR","countryName":"France","latitude":"49.93211000","longitude":"1.62514000","wikiDataId":"Q247806"},{"id":40070,"name":"Blonville-sur-Mer","stateId":4804,"stateCode":"NOR","stateName":"Normandie","countryId":75,"countryCode":"FR","countryName":"France","latitude":"49.33709000","longitude":"0.02709000","wikiDataId":"Q842771"},{"id":40086,"name":"Bois-Guillaume","stateId":4804,"stateCode":"NOR","stateName":"Normandie","countryId":75,"countryCode":"FR","countryName":"France","latitude":"49.46020000","longitude":"1.12219000","wikiDataId":"Q4164885"},{"id":40102,"name":"Bolbec","stateId":4804,"stateCode":"NOR","stateName":"Normandie","countryId":75,"countryCode":"FR","countryName":"France","latitude":"49.57321000","longitude":"0.47339000","wikiDataId":"Q680286"},{"id":40134,"name":"Boos","stateId":4804,"stateCode":"NOR","stateName":"Normandie","countryId":75,"countryCode":"FR","countryName":"France","latitude":"49.38849000","longitude":"1.20348000","wikiDataId":"Q21248"},{"id":40144,"name":"Bosc-le-Hard","stateId":4804,"stateCode":"NOR","stateName":"Normandie","countryId":75,"countryCode":"FR","countryName":"France","latitude":"49.62734000","longitude":"1.17483000","wikiDataId":"Q547569"},{"id":40186,"name":"Bourg-Achard","stateId":4804,"stateCode":"NOR","stateName":"Normandie","countryId":75,"countryCode":"FR","countryName":"France","latitude":"49.35322000","longitude":"0.81623000","wikiDataId":"Q304553"},{"id":40205,"name":"Bourgtheroulde-Infreville","stateId":4804,"stateCode":"NOR","stateName":"Normandie","countryId":75,"countryCode":"FR","countryName":"France","latitude":"49.30000000","longitude":"0.88333000","wikiDataId":"Q379512"},{"id":40207,"name":"Bourguébus","stateId":4804,"stateCode":"NOR","stateName":"Normandie","countryId":75,"countryCode":"FR","countryName":"France","latitude":"49.12187000","longitude":"-0.29786000","wikiDataId":"Q504875"},{"id":40213,"name":"Bourth","stateId":4804,"stateCode":"NOR","stateName":"Normandie","countryId":75,"countryCode":"FR","countryName":"France","latitude":"48.76846000","longitude":"0.80911000","wikiDataId":"Q272084"},{"id":40229,"name":"Bouville","stateId":4804,"stateCode":"NOR","stateName":"Normandie","countryId":75,"countryCode":"FR","countryName":"France","latitude":"49.56193000","longitude":"0.89514000","wikiDataId":"Q1030362"},{"id":40355,"name":"Bréauté","stateId":4804,"stateCode":"NOR","stateName":"Normandie","countryId":75,"countryCode":"FR","countryName":"France","latitude":"49.62805000","longitude":"0.40005000","wikiDataId":"Q210605"},{"id":40356,"name":"Brécey","stateId":4804,"stateCode":"NOR","stateName":"Normandie","countryId":75,"countryCode":"FR","countryName":"France","latitude":"48.72413000","longitude":"-1.16647000","wikiDataId":"Q34787402"},{"id":40358,"name":"Bréhal","stateId":4804,"stateCode":"NOR","stateName":"Normandie","countryId":75,"countryCode":"FR","countryName":"France","latitude":"48.89915000","longitude":"-1.51225000","wikiDataId":"Q268062"},{"id":40282,"name":"Breteuil","stateId":4804,"stateCode":"NOR","stateName":"Normandie","countryId":75,"countryCode":"FR","countryName":"France","latitude":"48.83333000","longitude":"0.91667000","wikiDataId":"Q1105296"},{"id":40285,"name":"Bretoncelles","stateId":4804,"stateCode":"NOR","stateName":"Normandie","countryId":75,"countryCode":"FR","countryName":"France","latitude":"48.43122000","longitude":"0.88775000","wikiDataId":"Q1066158"},{"id":40287,"name":"Bretteville","stateId":4804,"stateCode":"NOR","stateName":"Normandie","countryId":75,"countryCode":"FR","countryName":"France","latitude":"49.65440000","longitude":"-1.52884000","wikiDataId":"Q1066158"},{"id":40288,"name":"Bretteville-du-Grand-Caux","stateId":4804,"stateCode":"NOR","stateName":"Normandie","countryId":75,"countryCode":"FR","countryName":"France","latitude":"49.66667000","longitude":"0.40000000","wikiDataId":"Q1066158"},{"id":40289,"name":"Bretteville-l’Orgueilleuse","stateId":4804,"stateCode":"NOR","stateName":"Normandie","countryId":75,"countryCode":"FR","countryName":"France","latitude":"49.21189000","longitude":"-0.51428000","wikiDataId":"Q1066158"},{"id":40290,"name":"Bretteville-sur-Laize","stateId":4804,"stateCode":"NOR","stateName":"Normandie","countryId":75,"countryCode":"FR","countryName":"France","latitude":"49.04466000","longitude":"-0.32639000","wikiDataId":"Q309121"},{"id":40291,"name":"Bretteville-sur-Odon","stateId":4804,"stateCode":"NOR","stateName":"Normandie","countryId":75,"countryCode":"FR","countryName":"France","latitude":"49.16627000","longitude":"-0.41662000","wikiDataId":"Q326435"},{"id":40297,"name":"Breuilpont","stateId":4804,"stateCode":"NOR","stateName":"Normandie","countryId":75,"countryCode":"FR","countryName":"France","latitude":"48.96398000","longitude":"1.42919000","wikiDataId":"Q266242"},{"id":40303,"name":"Bricquebec","stateId":4804,"stateCode":"NOR","stateName":"Normandie","countryId":75,"countryCode":"FR","countryName":"France","latitude":"49.47008000","longitude":"-1.63254000","wikiDataId":"Q473942"},{"id":40320,"name":"Brionne","stateId":4804,"stateCode":"NOR","stateName":"Normandie","countryId":75,"countryCode":"FR","countryName":"France","latitude":"49.19553000","longitude":"0.71510000","wikiDataId":"Q474498"},{"id":40323,"name":"Briouze","stateId":4804,"stateCode":"NOR","stateName":"Normandie","countryId":75,"countryCode":"FR","countryName":"France","latitude":"48.69848000","longitude":"-0.36806000","wikiDataId":"Q203303"},{"id":40329,"name":"Brix","stateId":4804,"stateCode":"NOR","stateName":"Normandie","countryId":75,"countryCode":"FR","countryName":"France","latitude":"49.54512000","longitude":"-1.58012000","wikiDataId":"Q6393"},{"id":40331,"name":"Broglie","stateId":4804,"stateCode":"NOR","stateName":"Normandie","countryId":75,"countryCode":"FR","countryName":"France","latitude":"49.00911000","longitude":"0.52915000","wikiDataId":"Q6393"},{"id":40370,"name":"Buchy","stateId":4804,"stateCode":"NOR","stateName":"Normandie","countryId":75,"countryCode":"FR","countryName":"France","latitude":"49.58513000","longitude":"1.35852000","wikiDataId":"Q272472"},{"id":40374,"name":"Bueil","stateId":4804,"stateCode":"NOR","stateName":"Normandie","countryId":75,"countryCode":"FR","countryName":"France","latitude":"48.93189000","longitude":"1.44257000","wikiDataId":"Q272472"},{"id":40382,"name":"Bully","stateId":4804,"stateCode":"NOR","stateName":"Normandie","countryId":75,"countryCode":"FR","countryName":"France","latitude":"49.10155000","longitude":"-0.40825000","wikiDataId":"Q34784394"},{"id":40445,"name":"Cabourg","stateId":4804,"stateCode":"NOR","stateName":"Normandie","countryId":75,"countryCode":"FR","countryName":"France","latitude":"49.29110000","longitude":"-0.11330000","wikiDataId":"Q202445"},{"id":40457,"name":"Caen","stateId":4804,"stateCode":"NOR","stateName":"Normandie","countryId":75,"countryCode":"FR","countryName":"France","latitude":"49.18585000","longitude":"-0.35912000","wikiDataId":"Q41185"},{"id":40461,"name":"Cagny","stateId":4804,"stateCode":"NOR","stateName":"Normandie","countryId":75,"countryCode":"FR","countryName":"France","latitude":"49.14580000","longitude":"-0.25630000","wikiDataId":"Q193832"},{"id":40462,"name":"Cahagnes","stateId":4804,"stateCode":"NOR","stateName":"Normandie","countryId":75,"countryCode":"FR","countryName":"France","latitude":"49.06631000","longitude":"-0.76869000","wikiDataId":"Q734968"},{"id":40466,"name":"Cairon","stateId":4804,"stateCode":"NOR","stateName":"Normandie","countryId":75,"countryCode":"FR","countryName":"France","latitude":"49.24017000","longitude":"-0.45046000","wikiDataId":"Q841286"},{"id":40478,"name":"Calvados","stateId":4804,"stateCode":"NOR","stateName":"Normandie","countryId":75,"countryCode":"FR","countryName":"France","latitude":"49.09011000","longitude":"-0.30608000","wikiDataId":"Q3249"},{"id":40485,"name":"Cambes-en-Plaine","stateId":4804,"stateCode":"NOR","stateName":"Normandie","countryId":75,"countryCode":"FR","countryName":"France","latitude":"49.23161000","longitude":"-0.38540000","wikiDataId":"Q34789374"},{"id":40490,"name":"Cambremer","stateId":4804,"stateCode":"NOR","stateName":"Normandie","countryId":75,"countryCode":"FR","countryName":"France","latitude":"49.15192000","longitude":"0.04760000","wikiDataId":"Q181285"},{"id":40515,"name":"Canon","stateId":4804,"stateCode":"NOR","stateName":"Normandie","countryId":75,"countryCode":"FR","countryName":"France","latitude":"49.07380000","longitude":"-0.09219000","wikiDataId":"Q34789766"},{"id":40518,"name":"Canteleu","stateId":4804,"stateCode":"NOR","stateName":"Normandie","countryId":75,"countryCode":"FR","countryName":"France","latitude":"49.44065000","longitude":"1.02459000","wikiDataId":"Q744205"},{"id":40522,"name":"Cany-Barville","stateId":4804,"stateCode":"NOR","stateName":"Normandie","countryId":75,"countryCode":"FR","countryName":"France","latitude":"49.78885000","longitude":"0.63704000","wikiDataId":"Q672549"},{"id":40541,"name":"Carentan","stateId":4804,"stateCode":"NOR","stateName":"Normandie","countryId":75,"countryCode":"FR","countryName":"France","latitude":"49.30312000","longitude":"-1.24806000","wikiDataId":"Q242091"},{"id":40556,"name":"Carpiquet","stateId":4804,"stateCode":"NOR","stateName":"Normandie","countryId":75,"countryCode":"FR","countryName":"France","latitude":"49.18522000","longitude":"-0.44623000","wikiDataId":"Q202560"},{"id":40602,"name":"Caudebec-en-Caux","stateId":4804,"stateCode":"NOR","stateName":"Normandie","countryId":75,"countryCode":"FR","countryName":"France","latitude":"49.52577000","longitude":"0.72561000","wikiDataId":"Q34790500"},{"id":40603,"name":"Caudebec-lès-Elbeuf","stateId":4804,"stateCode":"NOR","stateName":"Normandie","countryId":75,"countryCode":"FR","countryName":"France","latitude":"49.28082000","longitude":"1.02195000","wikiDataId":"Q34790500"},{"id":40607,"name":"Caumont","stateId":4804,"stateCode":"NOR","stateName":"Normandie","countryId":75,"countryCode":"FR","countryName":"France","latitude":"49.36642000","longitude":"0.89591000","wikiDataId":"Q34790513"},{"id":40608,"name":"Caumont-l'Éventé","stateId":4804,"stateCode":"NOR","stateName":"Normandie","countryId":75,"countryCode":"FR","countryName":"France","latitude":"49.09017000","longitude":"-0.80501000","wikiDataId":"Q34790513"},{"id":40615,"name":"Cauville-sur-Mer","stateId":4804,"stateCode":"NOR","stateName":"Normandie","countryId":75,"countryCode":"FR","countryName":"France","latitude":"49.60000000","longitude":"0.13333000","wikiDataId":"Q1095678"},{"id":40631,"name":"Ceaucé","stateId":4804,"stateCode":"NOR","stateName":"Normandie","countryId":75,"countryCode":"FR","countryName":"France","latitude":"48.49436000","longitude":"-0.62526000","wikiDataId":"Q34790675"},{"id":41395,"name":"Cérences","stateId":4804,"stateCode":"NOR","stateName":"Normandie","countryId":75,"countryCode":"FR","countryName":"France","latitude":"48.91667000","longitude":"-1.43470000","wikiDataId":"Q34799753"},{"id":40648,"name":"Cerisy-la-Salle","stateId":4804,"stateCode":"NOR","stateName":"Normandie","countryId":75,"countryCode":"FR","countryName":"France","latitude":"49.02622000","longitude":"-1.28283000","wikiDataId":"Q34791049"},{"id":40664,"name":"Ceton","stateId":4804,"stateCode":"NOR","stateName":"Normandie","countryId":75,"countryCode":"FR","countryName":"France","latitude":"48.22631000","longitude":"0.74968000","wikiDataId":"Q326520"},{"id":40751,"name":"Champsecret","stateId":4804,"stateCode":"NOR","stateName":"Normandie","countryId":75,"countryCode":"FR","countryName":"France","latitude":"48.60925000","longitude":"-0.55058000","wikiDataId":"Q34791662"},{"id":40779,"name":"Chanu","stateId":4804,"stateCode":"NOR","stateName":"Normandie","countryId":75,"countryCode":"FR","countryName":"France","latitude":"48.72914000","longitude":"-0.67603000","wikiDataId":"Q1095995"},{"id":40801,"name":"Charleval","stateId":4804,"stateCode":"NOR","stateName":"Normandie","countryId":75,"countryCode":"FR","countryName":"France","latitude":"49.37290000","longitude":"1.38369000","wikiDataId":"Q212793"},{"id":40881,"name":"Cherbourg-Octeville","stateId":4804,"stateCode":"NOR","stateName":"Normandie","countryId":75,"countryCode":"FR","countryName":"France","latitude":"49.63984000","longitude":"-1.61636000","wikiDataId":"Q160199"},{"id":40890,"name":"Cheux","stateId":4804,"stateCode":"NOR","stateName":"Normandie","countryId":75,"countryCode":"FR","countryName":"France","latitude":"49.16611000","longitude":"-0.52544000","wikiDataId":"Q34792701"},{"id":41045,"name":"Claville","stateId":4804,"stateCode":"NOR","stateName":"Normandie","countryId":75,"countryCode":"FR","countryName":"France","latitude":"49.04844000","longitude":"1.01954000","wikiDataId":"Q931360"},{"id":41066,"name":"Clécy","stateId":4804,"stateCode":"NOR","stateName":"Normandie","countryId":75,"countryCode":"FR","countryName":"France","latitude":"48.91718000","longitude":"-0.48041000","wikiDataId":"Q654153"},{"id":41071,"name":"Cléon","stateId":4804,"stateCode":"NOR","stateName":"Normandie","countryId":75,"countryCode":"FR","countryName":"France","latitude":"49.31235000","longitude":"1.02950000","wikiDataId":"Q1166766"},{"id":41065,"name":"Clères","stateId":4804,"stateCode":"NOR","stateName":"Normandie","countryId":75,"countryCode":"FR","countryName":"France","latitude":"49.60000000","longitude":"1.11667000","wikiDataId":"Q654153"},{"id":41054,"name":"Clinchamps-sur-Orne","stateId":4804,"stateCode":"NOR","stateName":"Normandie","countryId":75,"countryCode":"FR","countryName":"France","latitude":"49.07857000","longitude":"-0.40156000","wikiDataId":"Q232056"},{"id":41090,"name":"Colleville-Montgomery","stateId":4804,"stateCode":"NOR","stateName":"Normandie","countryId":75,"countryCode":"FR","countryName":"France","latitude":"49.27528000","longitude":"-0.30052000","wikiDataId":"Q838576"},{"id":41099,"name":"Colombelles","stateId":4804,"stateCode":"NOR","stateName":"Normandie","countryId":75,"countryCode":"FR","countryName":"France","latitude":"49.20490000","longitude":"-0.29571000","wikiDataId":"Q662396"},{"id":41128,"name":"Conches-en-Ouche","stateId":4804,"stateCode":"NOR","stateName":"Normandie","countryId":75,"countryCode":"FR","countryName":"France","latitude":"48.95768000","longitude":"0.94052000","wikiDataId":"Q326369"},{"id":41136,"name":"Condé-sur-Huisne","stateId":4804,"stateCode":"NOR","stateName":"Normandie","countryId":75,"countryCode":"FR","countryName":"France","latitude":"48.38103000","longitude":"0.85093000","wikiDataId":"Q828612"},{"id":41137,"name":"Condé-sur-Noireau","stateId":4804,"stateCode":"NOR","stateName":"Normandie","countryId":75,"countryCode":"FR","countryName":"France","latitude":"48.84881000","longitude":"-0.55214000","wikiDataId":"Q244196"},{"id":41138,"name":"Condé-sur-Sarthe","stateId":4804,"stateCode":"NOR","stateName":"Normandie","countryId":75,"countryCode":"FR","countryName":"France","latitude":"48.43197000","longitude":"0.03398000","wikiDataId":"Q1060068"},{"id":41140,"name":"Condé-sur-Vire","stateId":4804,"stateCode":"NOR","stateName":"Normandie","countryId":75,"countryCode":"FR","countryName":"France","latitude":"49.05000000","longitude":"-1.03333000","wikiDataId":"Q1003409"},{"id":41179,"name":"Cormeilles","stateId":4804,"stateCode":"NOR","stateName":"Normandie","countryId":75,"countryCode":"FR","countryName":"France","latitude":"49.24803000","longitude":"0.37654000","wikiDataId":"Q34796606"},{"id":41181,"name":"Cormelles-le-Royal","stateId":4804,"stateCode":"NOR","stateName":"Normandie","countryId":75,"countryCode":"FR","countryName":"France","latitude":"49.15398000","longitude":"-0.33062000","wikiDataId":"Q330937"},{"id":41191,"name":"Corneville-sur-Risle","stateId":4804,"stateCode":"NOR","stateName":"Normandie","countryId":75,"countryCode":"FR","countryName":"France","latitude":"49.34128000","longitude":"0.58628000","wikiDataId":"Q468229"},{"id":41245,"name":"Courcelles-sur-Seine","stateId":4804,"stateCode":"NOR","stateName":"Normandie","countryId":75,"countryCode":"FR","countryName":"France","latitude":"49.18285000","longitude":"1.36008000","wikiDataId":"Q189715"},{"id":41266,"name":"Courseulles-sur-Mer","stateId":4804,"stateCode":"NOR","stateName":"Normandie","countryId":75,"countryCode":"FR","countryName":"France","latitude":"49.33027000","longitude":"-0.45612000","wikiDataId":"Q309123"},{"id":41267,"name":"Courteilles","stateId":4804,"stateCode":"NOR","stateName":"Normandie","countryId":75,"countryCode":"FR","countryName":"France","latitude":"48.77495000","longitude":"-0.19942000","wikiDataId":"Q34797143"},{"id":41278,"name":"Coutances","stateId":4804,"stateCode":"NOR","stateName":"Normandie","countryId":75,"countryCode":"FR","countryName":"France","latitude":"49.04541000","longitude":"-1.44518000","wikiDataId":"Q202565"},{"id":41279,"name":"Couterne","stateId":4804,"stateCode":"NOR","stateName":"Normandie","countryId":75,"countryCode":"FR","countryName":"France","latitude":"48.51318000","longitude":"-0.41538000","wikiDataId":"Q34797191"},{"id":41340,"name":"Créances","stateId":4804,"stateCode":"NOR","stateName":"Normandie","countryId":75,"countryCode":"FR","countryName":"France","latitude":"49.19873000","longitude":"-1.56938000","wikiDataId":"Q34797816"},{"id":41308,"name":"Cresserons","stateId":4804,"stateCode":"NOR","stateName":"Normandie","countryId":75,"countryCode":"FR","countryName":"France","latitude":"49.28701000","longitude":"-0.35569000","wikiDataId":"Q270654"},{"id":41310,"name":"Creully","stateId":4804,"stateCode":"NOR","stateName":"Normandie","countryId":75,"countryCode":"FR","countryName":"France","latitude":"49.28478000","longitude":"-0.53976000","wikiDataId":"Q243675"},{"id":41317,"name":"Criel-sur-Mer","stateId":4804,"stateCode":"NOR","stateName":"Normandie","countryId":75,"countryCode":"FR","countryName":"France","latitude":"50.01508000","longitude":"1.31459000","wikiDataId":"Q34797587"},{"id":41318,"name":"Criquebeuf-sur-Seine","stateId":4804,"stateCode":"NOR","stateName":"Normandie","countryId":75,"countryCode":"FR","countryName":"France","latitude":"49.30563000","longitude":"1.09964000","wikiDataId":"Q34797587"},{"id":41319,"name":"Criquetot-l’Esneval","stateId":4804,"stateCode":"NOR","stateName":"Normandie","countryId":75,"countryCode":"FR","countryName":"France","latitude":"49.64555000","longitude":"0.26571000","wikiDataId":"Q34797587"},{"id":41329,"name":"Croth","stateId":4804,"stateCode":"NOR","stateName":"Normandie","countryId":75,"countryCode":"FR","countryName":"France","latitude":"48.84557000","longitude":"1.37861000","wikiDataId":"Q34797705"},{"id":41385,"name":"Cuverville","stateId":4804,"stateCode":"NOR","stateName":"Normandie","countryId":75,"countryCode":"FR","countryName":"France","latitude":"49.18998000","longitude":"-0.26474000","wikiDataId":"Q34798121"},{"id":41413,"name":"Damigny","stateId":4804,"stateCode":"NOR","stateName":"Normandie","countryId":75,"countryCode":"FR","countryName":"France","latitude":"48.45000000","longitude":"0.06667000","wikiDataId":"Q34800164"},{"id":41425,"name":"Damville","stateId":4804,"stateCode":"NOR","stateName":"Normandie","countryId":75,"countryCode":"FR","countryName":"France","latitude":"48.86930000","longitude":"1.07458000","wikiDataId":"Q34800225"},{"id":41436,"name":"Darnétal","stateId":4804,"stateCode":"NOR","stateName":"Normandie","countryId":75,"countryCode":"FR","countryName":"France","latitude":"49.44533000","longitude":"1.15144000","wikiDataId":"Q1110442"},{"id":41444,"name":"Deauville","stateId":4804,"stateCode":"NOR","stateName":"Normandie","countryId":75,"countryCode":"FR","countryName":"France","latitude":"49.35700000","longitude":"0.06995000","wikiDataId":"Q209021"},{"id":41601,"name":"Démouville","stateId":4804,"stateCode":"NOR","stateName":"Normandie","countryId":75,"countryCode":"FR","countryName":"France","latitude":"49.18001000","longitude":"-0.26947000","wikiDataId":"Q1056120"},{"id":41617,"name":"Département de l'Eure","stateId":4804,"stateCode":"NOR","stateName":"Normandie","countryId":75,"countryCode":"FR","countryName":"France","latitude":"49.16667000","longitude":"1.00000000","wikiDataId":"Q3372"},{"id":41622,"name":"Département de l'Orne","stateId":4804,"stateCode":"NOR","stateName":"Normandie","countryId":75,"countryCode":"FR","countryName":"France","latitude":"48.66667000","longitude":"0.08333000","wikiDataId":"Q12679"},{"id":41650,"name":"Déville-lès-Rouen","stateId":4804,"stateCode":"NOR","stateName":"Normandie","countryId":75,"countryCode":"FR","countryName":"France","latitude":"49.46942000","longitude":"1.05214000","wikiDataId":"Q12792"},{"id":41469,"name":"Dieppe","stateId":4804,"stateCode":"NOR","stateName":"Normandie","countryId":75,"countryCode":"FR","countryName":"France","latitude":"49.92160000","longitude":"1.07772000","wikiDataId":"Q183557"},{"id":41480,"name":"Digosville","stateId":4804,"stateCode":"NOR","stateName":"Normandie","countryId":75,"countryCode":"FR","countryName":"France","latitude":"49.63104000","longitude":"-1.52627000","wikiDataId":"Q475418"},{"id":41495,"name":"Dives-sur-Mer","stateId":4804,"stateCode":"NOR","stateName":"Normandie","countryId":75,"countryCode":"FR","countryName":"France","latitude":"49.28176000","longitude":"-0.10125000","wikiDataId":"Q536728"},{"id":41516,"name":"Domfront","stateId":4804,"stateCode":"NOR","stateName":"Normandie","countryId":75,"countryCode":"FR","countryName":"France","latitude":"48.59208000","longitude":"-0.64588000","wikiDataId":"Q769276"},{"id":41534,"name":"Donville-les-Bains","stateId":4804,"stateCode":"NOR","stateName":"Normandie","countryId":75,"countryCode":"FR","countryName":"France","latitude":"48.84608000","longitude":"-1.58315000","wikiDataId":"Q1001754"},{"id":41550,"name":"Doudeville","stateId":4804,"stateCode":"NOR","stateName":"Normandie","countryId":75,"countryCode":"FR","countryName":"France","latitude":"49.72268000","longitude":"0.78479000","wikiDataId":"Q922518"},{"id":41559,"name":"Douvres-la-Délivrande","stateId":4804,"stateCode":"NOR","stateName":"Normandie","countryId":75,"countryCode":"FR","countryName":"France","latitude":"49.29472000","longitude":"-0.38039000","wikiDataId":"Q736359"},{"id":41564,"name":"Dozulé","stateId":4804,"stateCode":"NOR","stateName":"Normandie","countryId":75,"countryCode":"FR","countryName":"France","latitude":"49.23132000","longitude":"-0.04454000","wikiDataId":"Q840210"},{"id":41584,"name":"Ducey","stateId":4804,"stateCode":"NOR","stateName":"Normandie","countryId":75,"countryCode":"FR","countryName":"France","latitude":"48.61843000","longitude":"-1.29052000","wikiDataId":"Q168626"},{"id":41585,"name":"Duclair","stateId":4804,"stateCode":"NOR","stateName":"Normandie","countryId":75,"countryCode":"FR","countryName":"France","latitude":"49.48385000","longitude":"0.87617000","wikiDataId":"Q1174207"},{"id":48046,"name":"Écouché","stateId":4804,"stateCode":"NOR","stateName":"Normandie","countryId":75,"countryCode":"FR","countryName":"France","latitude":"48.71751000","longitude":"-0.12409000","wikiDataId":"Q273689"},{"id":48051,"name":"Écrainville","stateId":4804,"stateCode":"NOR","stateName":"Normandie","countryId":75,"countryCode":"FR","countryName":"France","latitude":"49.64943000","longitude":"0.32488000","wikiDataId":"Q273706"},{"id":41662,"name":"Elbeuf","stateId":4804,"stateCode":"NOR","stateName":"Normandie","countryId":75,"countryCode":"FR","countryName":"France","latitude":"49.28669000","longitude":"1.00288000","wikiDataId":"Q733414"},{"id":41685,"name":"Envermeu","stateId":4804,"stateCode":"NOR","stateName":"Normandie","countryId":75,"countryCode":"FR","countryName":"France","latitude":"49.89560000","longitude":"1.26493000","wikiDataId":"Q731374"},{"id":48070,"name":"Épaignes","stateId":4804,"stateCode":"NOR","stateName":"Normandie","countryId":75,"countryCode":"FR","countryName":"France","latitude":"49.27945000","longitude":"0.43980000","wikiDataId":"Q274801"},{"id":48083,"name":"Épouville","stateId":4804,"stateCode":"NOR","stateName":"Normandie","countryId":75,"countryCode":"FR","countryName":"France","latitude":"49.56349000","longitude":"0.22373000","wikiDataId":"Q661726"},{"id":48084,"name":"Épron","stateId":4804,"stateCode":"NOR","stateName":"Normandie","countryId":75,"countryCode":"FR","countryName":"France","latitude":"49.22174000","longitude":"-0.37085000","wikiDataId":"Q661726"},{"id":48086,"name":"Équemauville","stateId":4804,"stateCode":"NOR","stateName":"Normandie","countryId":75,"countryCode":"FR","countryName":"France","latitude":"49.39406000","longitude":"0.20760000","wikiDataId":"Q244122"},{"id":48087,"name":"Équeurdreville-Hainneville","stateId":4804,"stateCode":"NOR","stateName":"Normandie","countryId":75,"countryCode":"FR","countryName":"France","latitude":"49.64868000","longitude":"-1.65306000","wikiDataId":"Q1071742"},{"id":41714,"name":"Eslettes","stateId":4804,"stateCode":"NOR","stateName":"Normandie","countryId":75,"countryCode":"FR","countryName":"France","latitude":"49.54820000","longitude":"1.05515000","wikiDataId":"Q511910"},{"id":48093,"name":"Étainhus","stateId":4804,"stateCode":"NOR","stateName":"Normandie","countryId":75,"countryCode":"FR","countryName":"France","latitude":"49.56648000","longitude":"0.31285000","wikiDataId":"Q1155774"},{"id":48102,"name":"Éterville","stateId":4804,"stateCode":"NOR","stateName":"Normandie","countryId":75,"countryCode":"FR","countryName":"France","latitude":"49.14423000","longitude":"-0.42512000","wikiDataId":"Q273522"},{"id":48114,"name":"Étrépagny","stateId":4804,"stateCode":"NOR","stateName":"Normandie","countryId":75,"countryCode":"FR","countryName":"France","latitude":"49.30623000","longitude":"1.61139000","wikiDataId":"Q290936"},{"id":48110,"name":"Étretat","stateId":4804,"stateCode":"NOR","stateName":"Normandie","countryId":75,"countryCode":"FR","countryName":"France","latitude":"49.70669000","longitude":"0.20523000","wikiDataId":"Q290936"},{"id":41742,"name":"Eu","stateId":4804,"stateCode":"NOR","stateName":"Normandie","countryId":75,"countryCode":"FR","countryName":"France","latitude":"50.04606000","longitude":"1.42079000","wikiDataId":"Q1069558"},{"id":48122,"name":"Évrecy","stateId":4804,"stateCode":"NOR","stateName":"Normandie","countryId":75,"countryCode":"FR","countryName":"France","latitude":"49.09904000","longitude":"-0.50421000","wikiDataId":"Q273017"},{"id":48123,"name":"Évreux","stateId":4804,"stateCode":"NOR","stateName":"Normandie","countryId":75,"countryCode":"FR","countryName":"France","latitude":"49.02414000","longitude":"1.15082000","wikiDataId":"Q171800"},{"id":48127,"name":"Ézy-sur-Eure","stateId":4804,"stateCode":"NOR","stateName":"Normandie","countryId":75,"countryCode":"FR","countryName":"France","latitude":"48.86667000","longitude":"1.41667000","wikiDataId":"Q1074713"},{"id":41765,"name":"Falaise","stateId":4804,"stateCode":"NOR","stateName":"Normandie","countryId":75,"countryCode":"FR","countryName":"France","latitude":"48.89217000","longitude":"-0.19527000","wikiDataId":"Q640115"},{"id":41781,"name":"Fauville-en-Caux","stateId":4804,"stateCode":"NOR","stateName":"Normandie","countryId":75,"countryCode":"FR","countryName":"France","latitude":"49.65257000","longitude":"0.59197000","wikiDataId":"Q457674"},{"id":41999,"name":"Fécamp","stateId":4804,"stateCode":"NOR","stateName":"Normandie","countryId":75,"countryCode":"FR","countryName":"France","latitude":"49.75787000","longitude":"0.37457000","wikiDataId":"Q269732"},{"id":41800,"name":"Fermanville","stateId":4804,"stateCode":"NOR","stateName":"Normandie","countryId":75,"countryCode":"FR","countryName":"France","latitude":"49.68673000","longitude":"-1.46284000","wikiDataId":"Q1164004"},{"id":41828,"name":"Flamanville","stateId":4804,"stateCode":"NOR","stateName":"Normandie","countryId":75,"countryCode":"FR","countryName":"France","latitude":"49.53274000","longitude":"-1.86560000","wikiDataId":"Q690520"},{"id":41836,"name":"Flers","stateId":4804,"stateCode":"NOR","stateName":"Normandie","countryId":75,"countryCode":"FR","countryName":"France","latitude":"48.73722000","longitude":"-0.57466000","wikiDataId":"Q910050"},{"id":41850,"name":"Fleury-sur-Andelle","stateId":4804,"stateCode":"NOR","stateName":"Normandie","countryId":75,"countryCode":"FR","countryName":"France","latitude":"49.36176000","longitude":"1.35599000","wikiDataId":"Q857771"},{"id":41851,"name":"Fleury-sur-Orne","stateId":4804,"stateCode":"NOR","stateName":"Normandie","countryId":75,"countryCode":"FR","countryName":"France","latitude":"49.14851000","longitude":"-0.37508000","wikiDataId":"Q516709"},{"id":41886,"name":"Fontaine-Étoupefour","stateId":4804,"stateCode":"NOR","stateName":"Normandie","countryId":75,"countryCode":"FR","countryName":"France","latitude":"49.14600000","longitude":"-0.45522000","wikiDataId":"Q46712"},{"id":41880,"name":"Fontaine-la-Mallet","stateId":4804,"stateCode":"NOR","stateName":"Normandie","countryId":75,"countryCode":"FR","countryName":"France","latitude":"49.53600000","longitude":"0.14625000","wikiDataId":"Q367373"},{"id":41881,"name":"Fontaine-le-Bourg","stateId":4804,"stateCode":"NOR","stateName":"Normandie","countryId":75,"countryCode":"FR","countryName":"France","latitude":"49.56451000","longitude":"1.16391000","wikiDataId":"Q367373"},{"id":41883,"name":"Fontaine-le-Dun","stateId":4804,"stateCode":"NOR","stateName":"Normandie","countryId":75,"countryCode":"FR","countryName":"France","latitude":"49.81182000","longitude":"0.85095000","wikiDataId":"Q1454185"},{"id":41894,"name":"Fontenay","stateId":4804,"stateCode":"NOR","stateName":"Normandie","countryId":75,"countryCode":"FR","countryName":"France","latitude":"49.55993000","longitude":"0.18391000","wikiDataId":"Q1166745"},{"id":41900,"name":"Fontenay-le-Marmion","stateId":4804,"stateCode":"NOR","stateName":"Normandie","countryId":75,"countryCode":"FR","countryName":"France","latitude":"49.09346000","longitude":"-0.35294000","wikiDataId":"Q243331"},{"id":41913,"name":"Forges-les-Eaux","stateId":4804,"stateCode":"NOR","stateName":"Normandie","countryId":75,"countryCode":"FR","countryName":"France","latitude":"49.61391000","longitude":"1.54449000","wikiDataId":"Q382746"},{"id":41921,"name":"Foucarmont","stateId":4804,"stateCode":"NOR","stateName":"Normandie","countryId":75,"countryCode":"FR","countryName":"France","latitude":"49.84682000","longitude":"1.56899000","wikiDataId":"Q243260"},{"id":41948,"name":"Francheville","stateId":4804,"stateCode":"NOR","stateName":"Normandie","countryId":75,"countryCode":"FR","countryName":"France","latitude":"48.78647000","longitude":"0.84962000","wikiDataId":"Q957731"},{"id":42010,"name":"Gacé","stateId":4804,"stateCode":"NOR","stateName":"Normandie","countryId":75,"countryCode":"FR","countryName":"France","latitude":"48.79344000","longitude":"0.29624000","wikiDataId":"Q71101"},{"id":42017,"name":"Gaillefontaine","stateId":4804,"stateCode":"NOR","stateName":"Normandie","countryId":75,"countryCode":"FR","countryName":"France","latitude":"49.65371000","longitude":"1.61547000","wikiDataId":"Q343613"},{"id":42018,"name":"Gaillon","stateId":4804,"stateCode":"NOR","stateName":"Normandie","countryId":75,"countryCode":"FR","countryName":"France","latitude":"49.16104000","longitude":"1.34016000","wikiDataId":"Q627220"},{"id":42019,"name":"Gainneville","stateId":4804,"stateCode":"NOR","stateName":"Normandie","countryId":75,"countryCode":"FR","countryName":"France","latitude":"49.51845000","longitude":"0.26164000","wikiDataId":"Q627220"},{"id":42040,"name":"Garennes-sur-Eure","stateId":4804,"stateCode":"NOR","stateName":"Normandie","countryId":75,"countryCode":"FR","countryName":"France","latitude":"48.91116000","longitude":"1.43836000","wikiDataId":"Q1078919"},{"id":42049,"name":"Gasny","stateId":4804,"stateCode":"NOR","stateName":"Normandie","countryId":75,"countryCode":"FR","countryName":"France","latitude":"49.09184000","longitude":"1.60336000","wikiDataId":"Q1073294"},{"id":42055,"name":"Gavray","stateId":4804,"stateCode":"NOR","stateName":"Normandie","countryId":75,"countryCode":"FR","countryName":"France","latitude":"48.91108000","longitude":"-1.35059000","wikiDataId":"Q1071338"},{"id":42086,"name":"Giberville","stateId":4804,"stateCode":"NOR","stateName":"Normandie","countryId":75,"countryCode":"FR","countryName":"France","latitude":"49.18158000","longitude":"-0.28386000","wikiDataId":"Q637313"},{"id":42105,"name":"Gisors","stateId":4804,"stateCode":"NOR","stateName":"Normandie","countryId":75,"countryCode":"FR","countryName":"France","latitude":"49.28178000","longitude":"1.78010000","wikiDataId":"Q271072"},{"id":42115,"name":"Goderville","stateId":4804,"stateCode":"NOR","stateName":"Normandie","countryId":75,"countryCode":"FR","countryName":"France","latitude":"49.64566000","longitude":"0.36593000","wikiDataId":"Q862045"},{"id":42132,"name":"Gonneville-la-Mallet","stateId":4804,"stateCode":"NOR","stateName":"Normandie","countryId":75,"countryCode":"FR","countryName":"France","latitude":"49.63950000","longitude":"0.22245000","wikiDataId":"Q612401"},{"id":42152,"name":"Gournay-en-Bray","stateId":4804,"stateCode":"NOR","stateName":"Normandie","countryId":75,"countryCode":"FR","countryName":"France","latitude":"49.48285000","longitude":"1.72471000","wikiDataId":"Q578194"},{"id":42157,"name":"Gouville-sur-Mer","stateId":4804,"stateCode":"NOR","stateName":"Normandie","countryId":75,"countryCode":"FR","countryName":"France","latitude":"49.09611000","longitude":"-1.57908000","wikiDataId":"Q1003071"},{"id":42166,"name":"Grainville-la-Teinturière","stateId":4804,"stateCode":"NOR","stateName":"Normandie","countryId":75,"countryCode":"FR","countryName":"France","latitude":"49.74773000","longitude":"0.64048000","wikiDataId":"Q234769"},{"id":42167,"name":"Grainville-sur-Odon","stateId":4804,"stateCode":"NOR","stateName":"Normandie","countryId":75,"countryCode":"FR","countryName":"France","latitude":"49.13936000","longitude":"-0.53046000","wikiDataId":"Q234769"},{"id":42172,"name":"Grand-Couronne","stateId":4804,"stateCode":"NOR","stateName":"Normandie","countryId":75,"countryCode":"FR","countryName":"France","latitude":"49.35563000","longitude":"1.00647000","wikiDataId":"Q70896"},{"id":42175,"name":"Grandcamp-Maisy","stateId":4804,"stateCode":"NOR","stateName":"Normandie","countryId":75,"countryCode":"FR","countryName":"France","latitude":"49.38333000","longitude":"-1.03333000","wikiDataId":"Q381174"},{"id":42185,"name":"Granville","stateId":4804,"stateCode":"NOR","stateName":"Normandie","countryId":75,"countryCode":"FR","countryName":"France","latitude":"48.83792000","longitude":"-1.59714000","wikiDataId":"Q675950"},{"id":42191,"name":"Gravigny","stateId":4804,"stateCode":"NOR","stateName":"Normandie","countryId":75,"countryCode":"FR","countryName":"France","latitude":"49.05310000","longitude":"1.16962000","wikiDataId":"Q269854"},{"id":42228,"name":"Gruchet-le-Valasse","stateId":4804,"stateCode":"NOR","stateName":"Normandie","countryId":75,"countryCode":"FR","countryName":"France","latitude":"49.55466000","longitude":"0.48684000","wikiDataId":"Q1416516"},{"id":42251,"name":"Guichainville","stateId":4804,"stateCode":"NOR","stateName":"Normandie","countryId":75,"countryCode":"FR","countryName":"France","latitude":"49.00139000","longitude":"1.19305000","wikiDataId":"Q431817"},{"id":42320,"name":"Hambye","stateId":4804,"stateCode":"NOR","stateName":"Normandie","countryId":75,"countryCode":"FR","countryName":"France","latitude":"48.94798000","longitude":"-1.26417000","wikiDataId":"Q1001547"},{"id":42328,"name":"Harfleur","stateId":4804,"stateCode":"NOR","stateName":"Normandie","countryId":75,"countryCode":"FR","countryName":"France","latitude":"49.50660000","longitude":"0.19827000","wikiDataId":"Q623363"},{"id":42355,"name":"Hautot-sur-Mer","stateId":4804,"stateCode":"NOR","stateName":"Normandie","countryId":75,"countryCode":"FR","countryName":"France","latitude":"49.89789000","longitude":"1.02884000","wikiDataId":"Q498865"},{"id":42357,"name":"Hauville","stateId":4804,"stateCode":"NOR","stateName":"Normandie","countryId":75,"countryCode":"FR","countryName":"France","latitude":"49.39645000","longitude":"0.77232000","wikiDataId":"Q1112263"},{"id":42455,"name":"Hénouville","stateId":4804,"stateCode":"NOR","stateName":"Normandie","countryId":75,"countryCode":"FR","countryName":"France","latitude":"49.47890000","longitude":"0.96367000","wikiDataId":"Q684944"},{"id":42378,"name":"Hermanville-sur-Mer","stateId":4804,"stateCode":"NOR","stateName":"Normandie","countryId":75,"countryCode":"FR","countryName":"France","latitude":"49.28464000","longitude":"-0.31544000","wikiDataId":"Q318078"},{"id":42461,"name":"Hérouville-Saint-Clair","stateId":4804,"stateCode":"NOR","stateName":"Normandie","countryId":75,"countryCode":"FR","countryName":"France","latitude":"49.21088000","longitude":"-0.30653000","wikiDataId":"Q234361"},{"id":42462,"name":"Hérouvillette","stateId":4804,"stateCode":"NOR","stateName":"Normandie","countryId":75,"countryCode":"FR","countryName":"France","latitude":"49.22130000","longitude":"-0.24348000","wikiDataId":"Q234361"},{"id":42390,"name":"Heudreville-sur-Eure","stateId":4804,"stateCode":"NOR","stateName":"Normandie","countryId":75,"countryCode":"FR","countryName":"France","latitude":"49.14089000","longitude":"1.18813000","wikiDataId":"Q22739"},{"id":42417,"name":"Honfleur","stateId":4804,"stateCode":"NOR","stateName":"Normandie","countryId":75,"countryCode":"FR","countryName":"France","latitude":"49.41985000","longitude":"0.23294000","wikiDataId":"Q231720"},{"id":42427,"name":"Houlbec-Cocherel","stateId":4804,"stateCode":"NOR","stateName":"Normandie","countryId":75,"countryCode":"FR","countryName":"France","latitude":"49.07350000","longitude":"1.36563000","wikiDataId":"Q587864"},{"id":42428,"name":"Houlgate","stateId":4804,"stateCode":"NOR","stateName":"Normandie","countryId":75,"countryCode":"FR","countryName":"France","latitude":"49.29900000","longitude":"-0.08153000","wikiDataId":"Q848132"},{"id":42431,"name":"Houppeville","stateId":4804,"stateCode":"NOR","stateName":"Normandie","countryId":75,"countryCode":"FR","countryName":"France","latitude":"49.51259000","longitude":"1.07962000","wikiDataId":"Q665238"},{"id":42472,"name":"Ifs","stateId":4804,"stateCode":"NOR","stateName":"Normandie","countryId":75,"countryCode":"FR","countryName":"France","latitude":"49.14000000","longitude":"-0.34899000","wikiDataId":"Q533891"},{"id":42476,"name":"Igoville","stateId":4804,"stateCode":"NOR","stateName":"Normandie","countryId":75,"countryCode":"FR","countryName":"France","latitude":"49.31990000","longitude":"1.14832000","wikiDataId":"Q658158"},{"id":42485,"name":"Incheville","stateId":4804,"stateCode":"NOR","stateName":"Normandie","countryId":75,"countryCode":"FR","countryName":"France","latitude":"50.01239000","longitude":"1.49438000","wikiDataId":"Q274610"},{"id":42499,"name":"Isigny-le-Buat","stateId":4804,"stateCode":"NOR","stateName":"Normandie","countryId":75,"countryCode":"FR","countryName":"France","latitude":"48.61705000","longitude":"-1.16993000","wikiDataId":"Q763443"},{"id":42500,"name":"Isigny-sur-Mer","stateId":4804,"stateCode":"NOR","stateName":"Normandie","countryId":75,"countryCode":"FR","countryName":"France","latitude":"49.31604000","longitude":"-1.10384000","wikiDataId":"Q28681086"},{"id":42502,"name":"Isneauville","stateId":4804,"stateCode":"NOR","stateName":"Normandie","countryId":75,"countryCode":"FR","countryName":"France","latitude":"49.49832000","longitude":"1.15431000","wikiDataId":"Q937719"},{"id":42516,"name":"Ivry-la-Bataille","stateId":4804,"stateCode":"NOR","stateName":"Normandie","countryId":75,"countryCode":"FR","countryName":"France","latitude":"48.88333000","longitude":"1.45948000","wikiDataId":"Q381493"},{"id":42589,"name":"Jullouville","stateId":4804,"stateCode":"NOR","stateName":"Normandie","countryId":75,"countryCode":"FR","countryName":"France","latitude":"48.77576000","longitude":"-1.56366000","wikiDataId":"Q653610"},{"id":42592,"name":"Jumièges","stateId":4804,"stateCode":"NOR","stateName":"Normandie","countryId":75,"countryCode":"FR","countryName":"France","latitude":"49.43324000","longitude":"0.81918000","wikiDataId":"Q658613"},{"id":42599,"name":"Juvigny-sous-Andaine","stateId":4804,"stateCode":"NOR","stateName":"Normandie","countryId":75,"countryCode":"FR","countryName":"France","latitude":"48.55194000","longitude":"-0.50878000","wikiDataId":"Q268150"},{"id":42648,"name":"La Bonneville-sur-Iton","stateId":4804,"stateCode":"NOR","stateName":"Normandie","countryId":75,"countryCode":"FR","countryName":"France","latitude":"49.00000000","longitude":"1.03333000","wikiDataId":"Q35707487"},{"id":42674,"name":"La Cerlangue","stateId":4804,"stateCode":"NOR","stateName":"Normandie","countryId":75,"countryCode":"FR","countryName":"France","latitude":"49.50592000","longitude":"0.41332000","wikiDataId":"Q367553"},{"id":42683,"name":"La Chapelle-Réanville","stateId":4804,"stateCode":"NOR","stateName":"Normandie","countryId":75,"countryCode":"FR","countryName":"France","latitude":"49.09752000","longitude":"1.38209000","wikiDataId":"Q368751"},{"id":42720,"name":"La Couture-Boussey","stateId":4804,"stateCode":"NOR","stateName":"Normandie","countryId":75,"countryCode":"FR","countryName":"France","latitude":"48.89581000","longitude":"1.40491000","wikiDataId":"Q244725"},{"id":42735,"name":"La Ferrière-aux-Étangs","stateId":4804,"stateCode":"NOR","stateName":"Normandie","countryId":75,"countryCode":"FR","countryName":"France","latitude":"48.66227000","longitude":"-0.51955000","wikiDataId":"Q35708439"},{"id":42740,"name":"La Ferté-Macé","stateId":4804,"stateCode":"NOR","stateName":"Normandie","countryId":75,"countryCode":"FR","countryName":"France","latitude":"48.58999000","longitude":"-0.35800000","wikiDataId":"Q1378116"},{"id":42744,"name":"La Feuillie","stateId":4804,"stateCode":"NOR","stateName":"Normandie","countryId":75,"countryCode":"FR","countryName":"France","latitude":"49.46415000","longitude":"1.51463000","wikiDataId":"Q907721"},{"id":42768,"name":"La Glacerie","stateId":4804,"stateCode":"NOR","stateName":"Normandie","countryId":75,"countryCode":"FR","countryName":"France","latitude":"49.60517000","longitude":"-1.58185000","wikiDataId":"Q35708616"},{"id":42782,"name":"La Haye-du-Puits","stateId":4804,"stateCode":"NOR","stateName":"Normandie","countryId":75,"countryCode":"FR","countryName":"France","latitude":"49.28973000","longitude":"-1.54324000","wikiDataId":"Q35708768"},{"id":42780,"name":"La Haye-Malherbe","stateId":4804,"stateCode":"NOR","stateName":"Normandie","countryId":75,"countryCode":"FR","countryName":"France","latitude":"49.22553000","longitude":"1.06774000","wikiDataId":"Q145921"},{"id":42781,"name":"La Haye-Pesnel","stateId":4804,"stateCode":"NOR","stateName":"Normandie","countryId":75,"countryCode":"FR","countryName":"France","latitude":"48.79561000","longitude":"-1.39655000","wikiDataId":"Q35708775"},{"id":42789,"name":"La Lande-Patry","stateId":4804,"stateCode":"NOR","stateName":"Normandie","countryId":75,"countryCode":"FR","countryName":"France","latitude":"48.76202000","longitude":"-0.59876000","wikiDataId":"Q35708877"},{"id":42798,"name":"La Madeleine-de-Nonancourt","stateId":4804,"stateCode":"NOR","stateName":"Normandie","countryId":75,"countryCode":"FR","countryName":"France","latitude":"48.77298000","longitude":"1.20253000","wikiDataId":"Q35708942"},{"id":42799,"name":"La Mailleraye-sur-Seine","stateId":4804,"stateCode":"NOR","stateName":"Normandie","countryId":75,"countryCode":"FR","countryName":"France","latitude":"49.48308000","longitude":"0.77030000","wikiDataId":"Q1378535"},{"id":42800,"name":"La Meauffe","stateId":4804,"stateCode":"NOR","stateName":"Normandie","countryId":75,"countryCode":"FR","countryName":"France","latitude":"49.17643000","longitude":"-1.11119000","wikiDataId":"Q35708975"},{"id":42844,"name":"La Remuée","stateId":4804,"stateCode":"NOR","stateName":"Normandie","countryId":75,"countryCode":"FR","countryName":"France","latitude":"49.52773000","longitude":"0.40283000","wikiDataId":"Q35709377"},{"id":42848,"name":"La Rivière-Saint-Sauveur","stateId":4804,"stateCode":"NOR","stateName":"Normandie","countryId":75,"countryCode":"FR","countryName":"France","latitude":"49.40821000","longitude":"0.27030000","wikiDataId":"Q35709393"},{"id":42874,"name":"La Saussaye","stateId":4804,"stateCode":"NOR","stateName":"Normandie","countryId":75,"countryCode":"FR","countryName":"France","latitude":"49.25936000","longitude":"0.98094000","wikiDataId":"Q1062392"},{"id":42876,"name":"La Selle-la-Forge","stateId":4804,"stateCode":"NOR","stateName":"Normandie","countryId":75,"countryCode":"FR","countryName":"France","latitude":"48.73295000","longitude":"-0.54103000","wikiDataId":"Q35709642"},{"id":42907,"name":"La Vaupalière","stateId":4804,"stateCode":"NOR","stateName":"Normandie","countryId":75,"countryCode":"FR","countryName":"France","latitude":"49.48789000","longitude":"0.99630000","wikiDataId":"Q35709791"},{"id":42911,"name":"La Vespière","stateId":4804,"stateCode":"NOR","stateName":"Normandie","countryId":75,"countryCode":"FR","countryName":"France","latitude":"49.01975000","longitude":"0.41250000","wikiDataId":"Q83574"},{"id":43031,"name":"Langrune-sur-Mer","stateId":4804,"stateCode":"NOR","stateName":"Normandie","countryId":75,"countryCode":"FR","countryName":"France","latitude":"49.32346000","longitude":"-0.37346000","wikiDataId":"Q542007"},{"id":43042,"name":"Lanquetot","stateId":4804,"stateCode":"NOR","stateName":"Normandie","countryId":75,"countryCode":"FR","countryName":"France","latitude":"49.58527000","longitude":"0.52637000","wikiDataId":"Q543913"},{"id":43135,"name":"Le Bosc-Roger-en-Roumois","stateId":4804,"stateCode":"NOR","stateName":"Normandie","countryId":75,"countryCode":"FR","countryName":"France","latitude":"49.28333000","longitude":"0.93333000","wikiDataId":"Q35713071"},{"id":43199,"name":"Le Grand-Quevilly","stateId":4804,"stateCode":"NOR","stateName":"Normandie","countryId":75,"countryCode":"FR","countryName":"France","latitude":"49.40076000","longitude":"1.04582000","wikiDataId":"Q655572"},{"id":43205,"name":"Le Havre","stateId":4804,"stateCode":"NOR","stateName":"Normandie","countryId":75,"countryCode":"FR","countryName":"France","latitude":"49.49380000","longitude":"0.10767000","wikiDataId":"Q42810"},{"id":43207,"name":"Le Houlme","stateId":4804,"stateCode":"NOR","stateName":"Normandie","countryId":75,"countryCode":"FR","countryName":"France","latitude":"49.50972000","longitude":"1.03537000","wikiDataId":"Q35713622"},{"id":43220,"name":"Le Manoir","stateId":4804,"stateCode":"NOR","stateName":"Normandie","countryId":75,"countryCode":"FR","countryName":"France","latitude":"49.31355000","longitude":"1.20455000","wikiDataId":"Q541007"},{"id":43226,"name":"Le Mesnil-Esnard","stateId":4804,"stateCode":"NOR","stateName":"Normandie","countryId":75,"countryCode":"FR","countryName":"France","latitude":"49.41319000","longitude":"1.14521000","wikiDataId":"Q1378345"},{"id":43234,"name":"Le Molay-Littry","stateId":4804,"stateCode":"NOR","stateName":"Normandie","countryId":75,"countryCode":"FR","countryName":"France","latitude":"49.24265000","longitude":"-0.87238000","wikiDataId":"Q537535"},{"id":43241,"name":"Le Neubourg","stateId":4804,"stateCode":"NOR","stateName":"Normandie","countryId":75,"countryCode":"FR","countryName":"France","latitude":"49.15048000","longitude":"0.91020000","wikiDataId":"Q872004"},{"id":43254,"name":"Le Petit-Quevilly","stateId":4804,"stateCode":"NOR","stateName":"Normandie","countryId":75,"countryCode":"FR","countryName":"France","latitude":"49.41338000","longitude":"1.06155000","wikiDataId":"Q268362"},{"id":43308,"name":"Le Teilleul","stateId":4804,"stateCode":"NOR","stateName":"Normandie","countryId":75,"countryCode":"FR","countryName":"France","latitude":"48.53758000","longitude":"-0.87304000","wikiDataId":"Q35714383"},{"id":43310,"name":"Le Theil-Bocage","stateId":4804,"stateCode":"NOR","stateName":"Normandie","countryId":75,"countryCode":"FR","countryName":"France","latitude":"48.88333000","longitude":"-0.71667000","wikiDataId":"Q1064362"},{"id":43319,"name":"Le Thuit-Signol","stateId":4804,"stateCode":"NOR","stateName":"Normandie","countryId":75,"countryCode":"FR","countryName":"France","latitude":"49.26487000","longitude":"0.93910000","wikiDataId":"Q35714431"},{"id":43323,"name":"Le Trait","stateId":4804,"stateCode":"NOR","stateName":"Normandie","countryId":75,"countryCode":"FR","countryName":"France","latitude":"49.46895000","longitude":"0.81634000","wikiDataId":"Q1415989"},{"id":43324,"name":"Le Tréport","stateId":4804,"stateCode":"NOR","stateName":"Normandie","countryId":75,"countryCode":"FR","countryName":"France","latitude":"50.05979000","longitude":"1.37583000","wikiDataId":"Q473875"},{"id":43328,"name":"Le Val-Saint-Père","stateId":4804,"stateCode":"NOR","stateName":"Normandie","countryId":75,"countryCode":"FR","countryName":"France","latitude":"48.66177000","longitude":"-1.37653000","wikiDataId":"Q35714534"},{"id":43329,"name":"Le Vaudreuil","stateId":4804,"stateCode":"NOR","stateName":"Normandie","countryId":75,"countryCode":"FR","countryName":"France","latitude":"49.25407000","longitude":"1.20960000","wikiDataId":"Q371094"},{"id":43690,"name":"Léry","stateId":4804,"stateCode":"NOR","stateName":"Normandie","countryId":75,"countryCode":"FR","countryName":"France","latitude":"49.28585000","longitude":"1.20768000","wikiDataId":"Q35721848"},{"id":43362,"name":"Les Andelys","stateId":4804,"stateCode":"NOR","stateName":"Normandie","countryId":75,"countryCode":"FR","countryName":"France","latitude":"49.24557000","longitude":"1.41168000","wikiDataId":"Q209770"},{"id":43368,"name":"Les Authieux-sur-le-Port-Saint-Ouen","stateId":4804,"stateCode":"NOR","stateName":"Normandie","countryId":75,"countryCode":"FR","countryName":"France","latitude":"49.34100000","longitude":"1.13465000","wikiDataId":"Q35715235"},{"id":43392,"name":"Les Grandes-Ventes","stateId":4804,"stateCode":"NOR","stateName":"Normandie","countryId":75,"countryCode":"FR","countryName":"France","latitude":"49.78544000","longitude":"1.22921000","wikiDataId":"Q35715431"},{"id":43399,"name":"Les Loges","stateId":4804,"stateCode":"NOR","stateName":"Normandie","countryId":75,"countryCode":"FR","countryName":"France","latitude":"49.69860000","longitude":"0.28403000","wikiDataId":"Q256004"},{"id":43400,"name":"Les Loges-Marchis","stateId":4804,"stateCode":"NOR","stateName":"Normandie","countryId":75,"countryCode":"FR","countryName":"France","latitude":"48.54132000","longitude":"-1.08754000","wikiDataId":"Q35715469"},{"id":43421,"name":"Les Pieux","stateId":4804,"stateCode":"NOR","stateName":"Normandie","countryId":75,"countryCode":"FR","countryName":"France","latitude":"49.51286000","longitude":"-1.80714000","wikiDataId":"Q35715556"},{"id":43442,"name":"Lessay","stateId":4804,"stateCode":"NOR","stateName":"Normandie","countryId":75,"countryCode":"FR","countryName":"France","latitude":"49.21703000","longitude":"-1.53089000","wikiDataId":"Q35715920"},{"id":43471,"name":"Lieurey","stateId":4804,"stateCode":"NOR","stateName":"Normandie","countryId":75,"countryCode":"FR","countryName":"France","latitude":"49.23019000","longitude":"0.49879000","wikiDataId":"Q625434"},{"id":43486,"name":"Lillebonne","stateId":4804,"stateCode":"NOR","stateName":"Normandie","countryId":75,"countryCode":"FR","countryName":"France","latitude":"49.52030000","longitude":"0.53617000","wikiDataId":"Q837563"},{"id":43497,"name":"Limésy","stateId":4804,"stateCode":"NOR","stateName":"Normandie","countryId":75,"countryCode":"FR","countryName":"France","latitude":"49.61271000","longitude":"0.92483000","wikiDataId":"Q192744"},{"id":43505,"name":"Lion-sur-Mer","stateId":4804,"stateCode":"NOR","stateName":"Normandie","countryId":75,"countryCode":"FR","countryName":"France","latitude":"49.30018000","longitude":"-0.32157000","wikiDataId":"Q366420"},{"id":43508,"name":"Lisieux","stateId":4804,"stateCode":"NOR","stateName":"Normandie","countryId":75,"countryCode":"FR","countryName":"France","latitude":"49.14660000","longitude":"0.22925000","wikiDataId":"Q188743"},{"id":43514,"name":"Livarot","stateId":4804,"stateCode":"NOR","stateName":"Normandie","countryId":75,"countryCode":"FR","countryName":"France","latitude":"49.00500000","longitude":"0.15020000","wikiDataId":"Q366389"},{"id":43551,"name":"Londinières","stateId":4804,"stateCode":"NOR","stateName":"Normandie","countryId":75,"countryCode":"FR","countryName":"France","latitude":"49.83187000","longitude":"1.40232000","wikiDataId":"Q590292"},{"id":43564,"name":"Longny-au-Perche","stateId":4804,"stateCode":"NOR","stateName":"Normandie","countryId":75,"countryCode":"FR","countryName":"France","latitude":"48.52984000","longitude":"0.75239000","wikiDataId":"Q1095564"},{"id":43614,"name":"Louviers","stateId":4804,"stateCode":"NOR","stateName":"Normandie","countryId":75,"countryCode":"FR","countryName":"France","latitude":"49.21667000","longitude":"1.16667000","wikiDataId":"Q474480"},{"id":43615,"name":"Louvigny","stateId":4804,"stateCode":"NOR","stateName":"Normandie","countryId":75,"countryCode":"FR","countryName":"France","latitude":"49.15715000","longitude":"-0.39376000","wikiDataId":"Q474480"},{"id":43630,"name":"Luc-sur-Mer","stateId":4804,"stateCode":"NOR","stateName":"Normandie","countryId":75,"countryCode":"FR","countryName":"France","latitude":"49.31452000","longitude":"-0.35499000","wikiDataId":"Q865397"},{"id":43654,"name":"Luneray","stateId":4804,"stateCode":"NOR","stateName":"Normandie","countryId":75,"countryCode":"FR","countryName":"France","latitude":"49.82795000","longitude":"0.91581000","wikiDataId":"Q246410"},{"id":43727,"name":"Magny-le-Désert","stateId":4804,"stateCode":"NOR","stateName":"Normandie","countryId":75,"countryCode":"FR","countryName":"France","latitude":"48.57015000","longitude":"-0.32732000","wikiDataId":"Q35722609"},{"id":43752,"name":"Malaunay","stateId":4804,"stateCode":"NOR","stateName":"Normandie","countryId":75,"countryCode":"FR","countryName":"France","latitude":"49.52710000","longitude":"1.04292000","wikiDataId":"Q302380"},{"id":43771,"name":"Manche","stateId":4804,"stateCode":"NOR","stateName":"Normandie","countryId":75,"countryCode":"FR","countryName":"France","latitude":"49.03822000","longitude":"-1.31865000","wikiDataId":"Q12589"},{"id":43789,"name":"Manéglise","stateId":4804,"stateCode":"NOR","stateName":"Normandie","countryId":75,"countryCode":"FR","countryName":"France","latitude":"49.56578000","longitude":"0.25572000","wikiDataId":"Q831266"},{"id":43778,"name":"Manneville-sur-Risle","stateId":4804,"stateCode":"NOR","stateName":"Normandie","countryId":75,"countryCode":"FR","countryName":"France","latitude":"49.35173000","longitude":"0.54526000","wikiDataId":"Q244249"},{"id":43798,"name":"Marcey-les-Grèves","stateId":4804,"stateCode":"NOR","stateName":"Normandie","countryId":75,"countryCode":"FR","countryName":"France","latitude":"48.69673000","longitude":"-1.39156000","wikiDataId":"Q35724370"},{"id":43807,"name":"Marcilly-sur-Eure","stateId":4804,"stateCode":"NOR","stateName":"Normandie","countryId":75,"countryCode":"FR","countryName":"France","latitude":"48.82568000","longitude":"1.34741000","wikiDataId":"Q1072968"},{"id":43840,"name":"Marigny","stateId":4804,"stateCode":"NOR","stateName":"Normandie","countryId":75,"countryCode":"FR","countryName":"France","latitude":"49.09952000","longitude":"-1.24179000","wikiDataId":"Q35724865"},{"id":43869,"name":"Maromme","stateId":4804,"stateCode":"NOR","stateName":"Normandie","countryId":75,"countryCode":"FR","countryName":"France","latitude":"49.47925000","longitude":"1.02375000","wikiDataId":"Q616889"},{"id":43918,"name":"Martin-Église","stateId":4804,"stateCode":"NOR","stateName":"Normandie","countryId":75,"countryCode":"FR","countryName":"France","latitude":"49.90174000","longitude":"1.14120000","wikiDataId":"Q327277"},{"id":43919,"name":"Martinvast","stateId":4804,"stateCode":"NOR","stateName":"Normandie","countryId":75,"countryCode":"FR","countryName":"France","latitude":"49.59608000","longitude":"-1.66434000","wikiDataId":"Q35725550"},{"id":43939,"name":"Mathieu","stateId":4804,"stateCode":"NOR","stateName":"Normandie","countryId":75,"countryCode":"FR","countryName":"France","latitude":"49.25448000","longitude":"-0.37188000","wikiDataId":"Q905810"},{"id":43968,"name":"May-sur-Orne","stateId":4804,"stateCode":"NOR","stateName":"Normandie","countryId":75,"countryCode":"FR","countryName":"France","latitude":"49.10107000","longitude":"-0.37471000","wikiDataId":"Q217943"},{"id":44465,"name":"Ménilles","stateId":4804,"stateCode":"NOR","stateName":"Normandie","countryId":75,"countryCode":"FR","countryName":"France","latitude":"49.03333000","longitude":"1.36667000","wikiDataId":"Q1073797"},{"id":44002,"name":"Menneval","stateId":4804,"stateCode":"NOR","stateName":"Normandie","countryId":75,"countryCode":"FR","countryName":"France","latitude":"49.10000000","longitude":"0.61667000","wikiDataId":"Q625447"},{"id":44025,"name":"Merville-Franceville-Plage","stateId":4804,"stateCode":"NOR","stateName":"Normandie","countryId":75,"countryCode":"FR","countryName":"France","latitude":"49.27218000","longitude":"-0.19616000","wikiDataId":"Q366398"},{"id":44030,"name":"Mesnières-en-Bray","stateId":4804,"stateCode":"NOR","stateName":"Normandie","countryId":75,"countryCode":"FR","countryName":"France","latitude":"49.76172000","longitude":"1.38187000","wikiDataId":"Q35728236"},{"id":44033,"name":"Messei","stateId":4804,"stateCode":"NOR","stateName":"Normandie","countryId":75,"countryCode":"FR","countryName":"France","latitude":"48.71157000","longitude":"-0.53739000","wikiDataId":"Q1341384"},{"id":44136,"name":"Mondeville","stateId":4804,"stateCode":"NOR","stateName":"Normandie","countryId":75,"countryCode":"FR","countryName":"France","latitude":"49.17497000","longitude":"-0.32238000","wikiDataId":"Q35732141"},{"id":44156,"name":"Mont-Saint-Aignan","stateId":4804,"stateCode":"NOR","stateName":"Normandie","countryId":75,"countryCode":"FR","countryName":"France","latitude":"49.46307000","longitude":"1.09364000","wikiDataId":"Q1055925"},{"id":44185,"name":"Montaure","stateId":4804,"stateCode":"NOR","stateName":"Normandie","countryId":75,"countryCode":"FR","countryName":"France","latitude":"49.23417000","longitude":"1.08837000","wikiDataId":"Q162569"},{"id":44215,"name":"Montebourg","stateId":4804,"stateCode":"NOR","stateName":"Normandie","countryId":75,"countryCode":"FR","countryName":"France","latitude":"49.48774000","longitude":"-1.38036000","wikiDataId":"Q35732687"},{"id":44256,"name":"Montigny","stateId":4804,"stateCode":"NOR","stateName":"Normandie","countryId":75,"countryCode":"FR","countryName":"France","latitude":"49.45960000","longitude":"1.00168000","wikiDataId":"Q35733005"},{"id":44265,"name":"Montivilliers","stateId":4804,"stateCode":"NOR","stateName":"Normandie","countryId":75,"countryCode":"FR","countryName":"France","latitude":"49.54518000","longitude":"0.18769000","wikiDataId":"Q845991"},{"id":44280,"name":"Montmain","stateId":4804,"stateCode":"NOR","stateName":"Normandie","countryId":75,"countryCode":"FR","countryName":"France","latitude":"49.40996000","longitude":"1.23742000","wikiDataId":"Q193256"},{"id":44282,"name":"Montmartin-sur-Mer","stateId":4804,"stateCode":"NOR","stateName":"Normandie","countryId":75,"countryCode":"FR","countryName":"France","latitude":"48.98861000","longitude":"-1.52530000","wikiDataId":"Q35733195"},{"id":44368,"name":"Mortagne-au-Perche","stateId":4804,"stateCode":"NOR","stateName":"Normandie","countryId":75,"countryCode":"FR","countryName":"France","latitude":"48.52018000","longitude":"0.54734000","wikiDataId":"Q476288"},{"id":44372,"name":"Mortain","stateId":4804,"stateCode":"NOR","stateName":"Normandie","countryId":75,"countryCode":"FR","countryName":"France","latitude":"48.64782000","longitude":"-0.94055000","wikiDataId":"Q325187"},{"id":44375,"name":"Mortrée","stateId":4804,"stateCode":"NOR","stateName":"Normandie","countryId":75,"countryCode":"FR","countryName":"France","latitude":"48.63899000","longitude":"0.07909000","wikiDataId":"Q200832"},{"id":44385,"name":"Mouen","stateId":4804,"stateCode":"NOR","stateName":"Normandie","countryId":75,"countryCode":"FR","countryName":"France","latitude":"49.14696000","longitude":"-0.48366000","wikiDataId":"Q35734533"},{"id":44398,"name":"Moult","stateId":4804,"stateCode":"NOR","stateName":"Normandie","countryId":75,"countryCode":"FR","countryName":"France","latitude":"49.11494000","longitude":"-0.16472000","wikiDataId":"Q35734618"},{"id":44420,"name":"Moyaux","stateId":4804,"stateCode":"NOR","stateName":"Normandie","countryId":75,"countryCode":"FR","countryName":"France","latitude":"49.19511000","longitude":"0.35603000","wikiDataId":"Q35735042"},{"id":44517,"name":"Nassandres","stateId":4804,"stateCode":"NOR","stateName":"Normandie","countryId":75,"countryCode":"FR","countryName":"France","latitude":"49.12632000","longitude":"0.73597000","wikiDataId":"Q627281"},{"id":44527,"name":"Neaufles-Saint-Martin","stateId":4804,"stateCode":"NOR","stateName":"Normandie","countryId":75,"countryCode":"FR","countryName":"France","latitude":"49.27650000","longitude":"1.72794000","wikiDataId":"Q904006"},{"id":44542,"name":"Neufchâtel-en-Bray","stateId":4804,"stateCode":"NOR","stateName":"Normandie","countryId":75,"countryCode":"FR","countryName":"France","latitude":"49.73315000","longitude":"1.43956000","wikiDataId":"Q659248"},{"id":44699,"name":"Néville","stateId":4804,"stateCode":"NOR","stateName":"Normandie","countryId":75,"countryCode":"FR","countryName":"France","latitude":"49.82472000","longitude":"0.70862000","wikiDataId":"Q477751"},{"id":44623,"name":"Nointot","stateId":4804,"stateCode":"NOR","stateName":"Normandie","countryId":75,"countryCode":"FR","countryName":"France","latitude":"49.59822000","longitude":"0.47674000","wikiDataId":"Q600920"},{"id":44638,"name":"Nonancourt","stateId":4804,"stateCode":"NOR","stateName":"Normandie","countryId":75,"countryCode":"FR","countryName":"France","latitude":"48.77086000","longitude":"1.19799000","wikiDataId":"Q688130"},{"id":44642,"name":"Normanville","stateId":4804,"stateCode":"NOR","stateName":"Normandie","countryId":75,"countryCode":"FR","countryName":"France","latitude":"49.07868000","longitude":"1.15915000","wikiDataId":"Q12661"},{"id":44650,"name":"Notre-Dame-de-Bondeville","stateId":4804,"stateCode":"NOR","stateName":"Normandie","countryId":75,"countryCode":"FR","countryName":"France","latitude":"49.48333000","longitude":"1.05000000","wikiDataId":"Q818800"},{"id":44651,"name":"Notre-Dame-de-Gravenchon","stateId":4804,"stateCode":"NOR","stateName":"Normandie","countryId":75,"countryCode":"FR","countryName":"France","latitude":"49.48940000","longitude":"0.57188000","wikiDataId":"Q1172767"},{"id":44712,"name":"Octeville","stateId":4804,"stateCode":"NOR","stateName":"Normandie","countryId":75,"countryCode":"FR","countryName":"France","latitude":"49.62612000","longitude":"-1.64349000","wikiDataId":"Q2420328"},{"id":44713,"name":"Octeville-sur-Mer","stateId":4804,"stateCode":"NOR","stateName":"Normandie","countryId":75,"countryCode":"FR","countryName":"France","latitude":"49.55496000","longitude":"0.11660000","wikiDataId":"Q2420328"},{"id":44720,"name":"Offranville","stateId":4804,"stateCode":"NOR","stateName":"Normandie","countryId":75,"countryCode":"FR","countryName":"France","latitude":"49.87208000","longitude":"1.04817000","wikiDataId":"Q148086"},{"id":44728,"name":"Oissel","stateId":4804,"stateCode":"NOR","stateName":"Normandie","countryId":75,"countryCode":"FR","countryName":"France","latitude":"49.33309000","longitude":"1.09413000","wikiDataId":"Q752885"},{"id":44754,"name":"Orbec","stateId":4804,"stateCode":"NOR","stateName":"Normandie","countryId":75,"countryCode":"FR","countryName":"France","latitude":"49.01667000","longitude":"0.41667000","wikiDataId":"Q187796"},{"id":44770,"name":"Orival","stateId":4804,"stateCode":"NOR","stateName":"Normandie","countryId":75,"countryCode":"FR","countryName":"France","latitude":"49.72429000","longitude":"1.20512000","wikiDataId":"Q269268"},{"id":44805,"name":"Ouistreham","stateId":4804,"stateCode":"NOR","stateName":"Normandie","countryId":75,"countryCode":"FR","countryName":"France","latitude":"49.27566000","longitude":"-0.25910000","wikiDataId":"Q274825"},{"id":44810,"name":"Ourville-en-Caux","stateId":4804,"stateCode":"NOR","stateName":"Normandie","countryId":75,"countryCode":"FR","countryName":"France","latitude":"49.72854000","longitude":"0.60460000","wikiDataId":"Q1463078"},{"id":44824,"name":"Pacy-sur-Eure","stateId":4804,"stateCode":"NOR","stateName":"Normandie","countryId":75,"countryCode":"FR","countryName":"France","latitude":"49.01667000","longitude":"1.38333000","wikiDataId":"Q28694166"},{"id":44853,"name":"Parigny","stateId":4804,"stateCode":"NOR","stateName":"Normandie","countryId":75,"countryCode":"FR","countryName":"France","latitude":"48.59450000","longitude":"-1.07925000","wikiDataId":"Q326118"},{"id":44874,"name":"Pavilly","stateId":4804,"stateCode":"NOR","stateName":"Normandie","countryId":75,"countryCode":"FR","countryName":"France","latitude":"49.56703000","longitude":"0.95445000","wikiDataId":"Q380501"},{"id":44895,"name":"Percy","stateId":4804,"stateCode":"NOR","stateName":"Normandie","countryId":75,"countryCode":"FR","countryName":"France","latitude":"48.91714000","longitude":"-1.18916000","wikiDataId":"Q224023"},{"id":45352,"name":"Périers","stateId":4804,"stateCode":"NOR","stateName":"Normandie","countryId":75,"countryCode":"FR","countryName":"France","latitude":"49.18667000","longitude":"-1.40762000","wikiDataId":"Q126869"},{"id":44902,"name":"Perriers-sur-Andelle","stateId":4804,"stateCode":"NOR","stateName":"Normandie","countryId":75,"countryCode":"FR","countryName":"France","latitude":"49.41487000","longitude":"1.37098000","wikiDataId":"Q1073588"},{"id":44915,"name":"Petit-Couronne","stateId":4804,"stateCode":"NOR","stateName":"Normandie","countryId":75,"countryCode":"FR","countryName":"France","latitude":"49.38333000","longitude":"1.01667000","wikiDataId":"Q207156"},{"id":44921,"name":"Petiville","stateId":4804,"stateCode":"NOR","stateName":"Normandie","countryId":75,"countryCode":"FR","countryName":"France","latitude":"49.46078000","longitude":"0.58740000","wikiDataId":"Q1065286"},{"id":44946,"name":"Picauville","stateId":4804,"stateCode":"NOR","stateName":"Normandie","countryId":75,"countryCode":"FR","countryName":"France","latitude":"49.37810000","longitude":"-1.40048000","wikiDataId":"Q22160"},{"id":44979,"name":"Pirou","stateId":4804,"stateCode":"NOR","stateName":"Normandie","countryId":75,"countryCode":"FR","countryName":"France","latitude":"49.18089000","longitude":"-1.57384000","wikiDataId":"Q733902"},{"id":44983,"name":"Pissy-Pôville","stateId":4804,"stateCode":"NOR","stateName":"Normandie","countryId":75,"countryCode":"FR","countryName":"France","latitude":"49.52986000","longitude":"0.99281000","wikiDataId":"Q507844"},{"id":45368,"name":"Pîtres","stateId":4804,"stateCode":"NOR","stateName":"Normandie","countryId":75,"countryCode":"FR","countryName":"France","latitude":"49.31667000","longitude":"1.23333000","wikiDataId":"Q1072945"},{"id":45164,"name":"Pont-Audemer","stateId":4804,"stateCode":"NOR","stateName":"Normandie","countryId":75,"countryCode":"FR","countryName":"France","latitude":"49.35000000","longitude":"0.51667000","wikiDataId":"Q367667"},{"id":45177,"name":"Pont-d'Ouilly","stateId":4804,"stateCode":"NOR","stateName":"Normandie","countryId":75,"countryCode":"FR","countryName":"France","latitude":"48.87590000","longitude":"-0.40221000","wikiDataId":"Q128278"},{"id":45194,"name":"Pont-Écrepin","stateId":4804,"stateCode":"NOR","stateName":"Normandie","countryId":75,"countryCode":"FR","countryName":"France","latitude":"48.76425000","longitude":"-0.24455000","wikiDataId":"Q752938"},{"id":45167,"name":"Pont-Hébert","stateId":4804,"stateCode":"NOR","stateName":"Normandie","countryId":75,"countryCode":"FR","countryName":"France","latitude":"49.16714000","longitude":"-1.13428000","wikiDataId":"Q238377"},{"id":45191,"name":"Pont-l’Évêque","stateId":4804,"stateCode":"NOR","stateName":"Normandie","countryId":75,"countryCode":"FR","countryName":"France","latitude":"49.28912000","longitude":"0.19161000","wikiDataId":"Q631960"},{"id":45171,"name":"Pont-Saint-Pierre","stateId":4804,"stateCode":"NOR","stateName":"Normandie","countryId":75,"countryCode":"FR","countryName":"France","latitude":"49.33561000","longitude":"1.27601000","wikiDataId":"Q243074"},{"id":45215,"name":"Pontorson","stateId":4804,"stateCode":"NOR","stateName":"Normandie","countryId":75,"countryCode":"FR","countryName":"France","latitude":"48.55316000","longitude":"-1.50754000","wikiDataId":"Q331426"},{"id":45235,"name":"Port-en-Bessin-Huppain","stateId":4804,"stateCode":"NOR","stateName":"Normandie","countryId":75,"countryCode":"FR","countryName":"France","latitude":"49.34460000","longitude":"-0.75557000","wikiDataId":"Q987304"},{"id":45238,"name":"Portbail","stateId":4804,"stateCode":"NOR","stateName":"Normandie","countryId":75,"countryCode":"FR","countryName":"France","latitude":"49.33571000","longitude":"-1.69560000","wikiDataId":"Q630364"},{"id":45247,"name":"Poses","stateId":4804,"stateCode":"NOR","stateName":"Normandie","countryId":75,"countryCode":"FR","countryName":"France","latitude":"49.30539000","longitude":"1.24353000","wikiDataId":"Q204648"},{"id":45248,"name":"Potigny","stateId":4804,"stateCode":"NOR","stateName":"Normandie","countryId":75,"countryCode":"FR","countryName":"France","latitude":"48.96925000","longitude":"-0.24166000","wikiDataId":"Q204648"},{"id":45303,"name":"Préaux","stateId":4804,"stateCode":"NOR","stateName":"Normandie","countryId":75,"countryCode":"FR","countryName":"France","latitude":"49.49136000","longitude":"1.21583000","wikiDataId":"Q1100670"},{"id":45333,"name":"Putanges-Pont-Écrepin","stateId":4804,"stateCode":"NOR","stateName":"Normandie","countryId":75,"countryCode":"FR","countryName":"France","latitude":"48.76667000","longitude":"-0.25000000","wikiDataId":"Q748431"},{"id":45375,"name":"Querqueville","stateId":4804,"stateCode":"NOR","stateName":"Normandie","countryId":75,"countryCode":"FR","countryName":"France","latitude":"49.66251000","longitude":"-1.69119000","wikiDataId":"Q815477"},{"id":45381,"name":"Quettehou","stateId":4804,"stateCode":"NOR","stateName":"Normandie","countryId":75,"countryCode":"FR","countryName":"France","latitude":"49.59308000","longitude":"-1.30352000","wikiDataId":"Q498320"},{"id":45382,"name":"Quettreville-sur-Sienne","stateId":4804,"stateCode":"NOR","stateName":"Normandie","countryId":75,"countryCode":"FR","countryName":"France","latitude":"48.96802000","longitude":"-1.46782000","wikiDataId":"Q1062600"},{"id":45387,"name":"Quillebeuf-sur-Seine","stateId":4804,"stateCode":"NOR","stateName":"Normandie","countryId":75,"countryCode":"FR","countryName":"France","latitude":"49.46934000","longitude":"0.52793000","wikiDataId":"Q376792"},{"id":45391,"name":"Quincampoix","stateId":4804,"stateCode":"NOR","stateName":"Normandie","countryId":75,"countryCode":"FR","countryName":"France","latitude":"49.52710000","longitude":"1.18849000","wikiDataId":"Q1167800"},{"id":45415,"name":"Radon","stateId":4804,"stateCode":"NOR","stateName":"Normandie","countryId":75,"countryCode":"FR","countryName":"France","latitude":"48.50246000","longitude":"0.10278000","wikiDataId":"Q1597833"},{"id":45417,"name":"Rai","stateId":4804,"stateCode":"NOR","stateName":"Normandie","countryId":75,"countryCode":"FR","countryName":"France","latitude":"48.75000000","longitude":"0.58333000","wikiDataId":"Q1340382"},{"id":45431,"name":"Ranville","stateId":4804,"stateCode":"NOR","stateName":"Normandie","countryId":75,"countryCode":"FR","countryName":"France","latitude":"49.23071000","longitude":"-0.25560000","wikiDataId":"Q273427"},{"id":45692,"name":"Rémalard","stateId":4804,"stateCode":"NOR","stateName":"Normandie","countryId":75,"countryCode":"FR","countryName":"France","latitude":"48.42867000","longitude":"0.77185000","wikiDataId":"Q1347005"},{"id":45696,"name":"Réville","stateId":4804,"stateCode":"NOR","stateName":"Normandie","countryId":75,"countryCode":"FR","countryName":"France","latitude":"49.61906000","longitude":"-1.25868000","wikiDataId":"Q1141337"},{"id":45557,"name":"Rogerville","stateId":4804,"stateCode":"NOR","stateName":"Normandie","countryId":75,"countryCode":"FR","countryName":"France","latitude":"49.50296000","longitude":"0.26516000","wikiDataId":"Q261640"},{"id":45568,"name":"Rolleville","stateId":4804,"stateCode":"NOR","stateName":"Normandie","countryId":75,"countryCode":"FR","countryName":"France","latitude":"49.58232000","longitude":"0.21177000","wikiDataId":"Q680463"},{"id":45571,"name":"Romagny","stateId":4804,"stateCode":"NOR","stateName":"Normandie","countryId":75,"countryCode":"FR","countryName":"France","latitude":"48.63931000","longitude":"-0.96605000","wikiDataId":"Q680463"},{"id":45579,"name":"Romilly-sur-Andelle","stateId":4804,"stateCode":"NOR","stateName":"Normandie","countryId":75,"countryCode":"FR","countryName":"France","latitude":"49.33190000","longitude":"1.26127000","wikiDataId":"Q525926"},{"id":45584,"name":"Roncherolles-sur-le-Vivier","stateId":4804,"stateCode":"NOR","stateName":"Normandie","countryId":75,"countryCode":"FR","countryName":"France","latitude":"49.46667000","longitude":"1.18333000","wikiDataId":"Q845928"},{"id":45614,"name":"Rots","stateId":4804,"stateCode":"NOR","stateName":"Normandie","countryId":75,"countryCode":"FR","countryName":"France","latitude":"49.21235000","longitude":"-0.47319000","wikiDataId":"Q21455"},{"id":45617,"name":"Rouen","stateId":4804,"stateCode":"NOR","stateName":"Normandie","countryId":75,"countryCode":"FR","countryName":"France","latitude":"49.44313000","longitude":"1.09932000","wikiDataId":"Q30974"},{"id":45633,"name":"Roumare","stateId":4804,"stateCode":"NOR","stateName":"Normandie","countryId":75,"countryCode":"FR","countryName":"France","latitude":"49.51008000","longitude":"0.97422000","wikiDataId":"Q1437611"},{"id":45641,"name":"Routot","stateId":4804,"stateCode":"NOR","stateName":"Normandie","countryId":75,"countryCode":"FR","countryName":"France","latitude":"49.37800000","longitude":"0.73346000","wikiDataId":"Q632191"},{"id":45643,"name":"Rouxmesnil-Bouteilles","stateId":4804,"stateCode":"NOR","stateName":"Normandie","countryId":75,"countryCode":"FR","countryName":"France","latitude":"49.90633000","longitude":"1.07976000","wikiDataId":"Q632191"},{"id":45666,"name":"Rugles","stateId":4804,"stateCode":"NOR","stateName":"Normandie","countryId":75,"countryCode":"FR","countryName":"France","latitude":"48.82212000","longitude":"0.70979000","wikiDataId":"Q1011367"},{"id":45714,"name":"Sahurs","stateId":4804,"stateCode":"NOR","stateName":"Normandie","countryId":75,"countryCode":"FR","countryName":"France","latitude":"49.35863000","longitude":"0.94256000","wikiDataId":"Q1416076"},{"id":45740,"name":"Saint-Amand","stateId":4804,"stateCode":"NOR","stateName":"Normandie","countryId":75,"countryCode":"FR","countryName":"France","latitude":"49.04338000","longitude":"-0.96491000","wikiDataId":"Q783530"},{"id":45767,"name":"Saint-André-sur-Orne","stateId":4804,"stateCode":"NOR","stateName":"Normandie","countryId":75,"countryCode":"FR","countryName":"France","latitude":"49.11741000","longitude":"-0.38227000","wikiDataId":"Q474011"},{"id":45776,"name":"Saint-Arnoult","stateId":4804,"stateCode":"NOR","stateName":"Normandie","countryId":75,"countryCode":"FR","countryName":"France","latitude":"49.52676000","longitude":"0.67117000","wikiDataId":"Q178452"},{"id":45789,"name":"Saint-Aubin-lès-Elbeuf","stateId":4804,"stateCode":"NOR","stateName":"Normandie","countryId":75,"countryCode":"FR","countryName":"France","latitude":"49.30360000","longitude":"1.01056000","wikiDataId":"Q426202"},{"id":45781,"name":"Saint-Aubin-Routot","stateId":4804,"stateCode":"NOR","stateName":"Normandie","countryId":75,"countryCode":"FR","countryName":"France","latitude":"49.52341000","longitude":"0.32602000","wikiDataId":"Q539449"},{"id":45790,"name":"Saint-Aubin-sur-Gaillon","stateId":4804,"stateCode":"NOR","stateName":"Normandie","countryId":75,"countryCode":"FR","countryName":"France","latitude":"49.14701000","longitude":"1.32914000","wikiDataId":"Q426202"},{"id":45791,"name":"Saint-Aubin-sur-Mer","stateId":4804,"stateCode":"NOR","stateName":"Normandie","countryId":75,"countryCode":"FR","countryName":"France","latitude":"49.32787000","longitude":"-0.38696000","wikiDataId":"Q426202"},{"id":45792,"name":"Saint-Aubin-sur-Scie","stateId":4804,"stateCode":"NOR","stateName":"Normandie","countryId":75,"countryCode":"FR","countryName":"France","latitude":"49.87162000","longitude":"1.06823000","wikiDataId":"Q426202"},{"id":45874,"name":"Saint-Contest","stateId":4804,"stateCode":"NOR","stateName":"Normandie","countryId":75,"countryCode":"FR","countryName":"France","latitude":"49.21401000","longitude":"-0.40221000","wikiDataId":"Q647561"},{"id":45904,"name":"Saint-Denis-sur-Sarthon","stateId":4804,"stateCode":"NOR","stateName":"Normandie","countryId":75,"countryCode":"FR","countryName":"France","latitude":"48.45320000","longitude":"-0.04720000","wikiDataId":"Q853458"},{"id":45920,"name":"Saint-Désir","stateId":4804,"stateCode":"NOR","stateName":"Normandie","countryId":75,"countryCode":"FR","countryName":"France","latitude":"49.14056000","longitude":"0.21398000","wikiDataId":"Q829633"},{"id":46655,"name":"Saint-Étienne-du-Rouvray","stateId":4804,"stateCode":"NOR","stateName":"Normandie","countryId":75,"countryCode":"FR","countryName":"France","latitude":"49.37794000","longitude":"1.10467000","wikiDataId":"Q1058186"},{"id":45927,"name":"Saint-Eustache-la-Forêt","stateId":4804,"stateCode":"NOR","stateName":"Normandie","countryId":75,"countryCode":"FR","countryName":"France","latitude":"49.55137000","longitude":"0.45599000","wikiDataId":"Q643467"},{"id":45950,"name":"Saint-Gatien-des-Bois","stateId":4804,"stateCode":"NOR","stateName":"Normandie","countryId":75,"countryCode":"FR","countryName":"France","latitude":"49.35000000","longitude":"0.18333000","wikiDataId":"Q687892"},{"id":45982,"name":"Saint-Georges-des-Groseillers","stateId":4804,"stateCode":"NOR","stateName":"Normandie","countryId":75,"countryCode":"FR","countryName":"France","latitude":"48.76993000","longitude":"-0.56768000","wikiDataId":"Q251183"},{"id":46010,"name":"Saint-Germain-du-Corbéis","stateId":4804,"stateCode":"NOR","stateName":"Normandie","countryId":75,"countryCode":"FR","countryName":"France","latitude":"48.42215000","longitude":"0.06193000","wikiDataId":"Q1366381"},{"id":46016,"name":"Saint-Germain-la-Blanche-Herbe","stateId":4804,"stateCode":"NOR","stateName":"Normandie","countryId":75,"countryCode":"FR","countryName":"France","latitude":"49.18327000","longitude":"-0.40426000","wikiDataId":"Q185075"},{"id":46020,"name":"Saint-Germain-sur-Avre","stateId":4804,"stateCode":"NOR","stateName":"Normandie","countryId":75,"countryCode":"FR","countryName":"France","latitude":"48.76466000","longitude":"1.26776000","wikiDataId":"Q185075"},{"id":46001,"name":"Saint-Germain-Village","stateId":4804,"stateCode":"NOR","stateName":"Normandie","countryId":75,"countryCode":"FR","countryName":"France","latitude":"49.34908000","longitude":"0.50331000","wikiDataId":"Q1366381"},{"id":46063,"name":"Saint-Hilaire-du-Harcouët","stateId":4804,"stateCode":"NOR","stateName":"Normandie","countryId":75,"countryCode":"FR","countryName":"France","latitude":"48.57700000","longitude":"-1.09004000","wikiDataId":"Q921819"},{"id":46052,"name":"Saint-Hilaire-Petitville","stateId":4804,"stateCode":"NOR","stateName":"Normandie","countryId":75,"countryCode":"FR","countryName":"France","latitude":"49.30250000","longitude":"-1.21995000","wikiDataId":"Q670702"},{"id":46076,"name":"Saint-Jacques-sur-Darnétal","stateId":4804,"stateCode":"NOR","stateName":"Normandie","countryId":75,"countryCode":"FR","countryName":"France","latitude":"49.43980000","longitude":"1.20359000","wikiDataId":"Q535371"},{"id":46078,"name":"Saint-James","stateId":4804,"stateCode":"NOR","stateName":"Normandie","countryId":75,"countryCode":"FR","countryName":"France","latitude":"48.52180000","longitude":"-1.32629000","wikiDataId":"Q478259"},{"id":46106,"name":"Saint-Jean-des-Baisants","stateId":4804,"stateCode":"NOR","stateName":"Normandie","countryId":75,"countryCode":"FR","countryName":"France","latitude":"49.09371000","longitude":"-0.97289000","wikiDataId":"Q1423260"},{"id":46107,"name":"Saint-Jean-des-Champs","stateId":4804,"stateCode":"NOR","stateName":"Normandie","countryId":75,"countryCode":"FR","countryName":"France","latitude":"48.82800000","longitude":"-1.46487000","wikiDataId":"Q1423260"},{"id":46109,"name":"Saint-Jean-du-Cardonnay","stateId":4804,"stateCode":"NOR","stateName":"Normandie","countryId":75,"countryCode":"FR","countryName":"France","latitude":"49.50455000","longitude":"1.01140000","wikiDataId":"Q1384026"},{"id":46132,"name":"Saint-Jouin-Bruneval","stateId":4804,"stateCode":"NOR","stateName":"Normandie","countryId":75,"countryCode":"FR","countryName":"France","latitude":"49.64275000","longitude":"0.16400000","wikiDataId":"Q831290"},{"id":46153,"name":"Saint-Just","stateId":4804,"stateCode":"NOR","stateName":"Normandie","countryId":75,"countryCode":"FR","countryName":"France","latitude":"49.10852000","longitude":"1.44101000","wikiDataId":"Q196286"},{"id":46175,"name":"Saint-Laurent-de-Brévedent","stateId":4804,"stateCode":"NOR","stateName":"Normandie","countryId":75,"countryCode":"FR","countryName":"France","latitude":"49.52564000","longitude":"0.25458000","wikiDataId":"Q839446"},{"id":46213,"name":"Saint-Léger-du-Bourg-Denis","stateId":4804,"stateCode":"NOR","stateName":"Normandie","countryId":75,"countryCode":"FR","countryName":"France","latitude":"49.43345000","longitude":"1.15803000","wikiDataId":"Q1153078"},{"id":46222,"name":"Saint-Léonard","stateId":4804,"stateCode":"NOR","stateName":"Normandie","countryId":75,"countryCode":"FR","countryName":"France","latitude":"49.74252000","longitude":"0.35907000","wikiDataId":"Q1383098"},{"id":46225,"name":"Saint-Lô","stateId":4804,"stateCode":"NOR","stateName":"Normandie","countryId":75,"countryCode":"FR","countryName":"France","latitude":"49.11624000","longitude":"-1.09031000","wikiDataId":"Q181704"},{"id":46237,"name":"Saint-Manvieu","stateId":4804,"stateCode":"NOR","stateName":"Normandie","countryId":75,"countryCode":"FR","countryName":"France","latitude":"49.18067000","longitude":"-0.50211000","wikiDataId":"Q910071"},{"id":46238,"name":"Saint-Manvieu-Norrey","stateId":4804,"stateCode":"NOR","stateName":"Normandie","countryId":75,"countryCode":"FR","countryName":"France","latitude":"49.18139000","longitude":"-0.50000000","wikiDataId":"Q862757"},{"id":46241,"name":"Saint-Marcel","stateId":4804,"stateCode":"NOR","stateName":"Normandie","countryId":75,"countryCode":"FR","countryName":"France","latitude":"49.10000000","longitude":"1.45000000","wikiDataId":"Q648073"},{"id":46269,"name":"Saint-Martin-de-Boscherville","stateId":4804,"stateCode":"NOR","stateName":"Normandie","countryId":75,"countryCode":"FR","countryName":"France","latitude":"49.44377000","longitude":"0.96271000","wikiDataId":"Q898272"},{"id":46271,"name":"Saint-Martin-de-Fontenay","stateId":4804,"stateCode":"NOR","stateName":"Normandie","countryId":75,"countryCode":"FR","countryName":"France","latitude":"49.11523000","longitude":"-0.37391000","wikiDataId":"Q898272"},{"id":46273,"name":"Saint-Martin-de-Landelles","stateId":4804,"stateCode":"NOR","stateName":"Normandie","countryId":75,"countryCode":"FR","countryName":"France","latitude":"48.54530000","longitude":"-1.17240000","wikiDataId":"Q898272"},{"id":46282,"name":"Saint-Martin-des-Besaces","stateId":4804,"stateCode":"NOR","stateName":"Normandie","countryId":75,"countryCode":"FR","countryName":"France","latitude":"49.01091000","longitude":"-0.84500000","wikiDataId":"Q653340"},{"id":46283,"name":"Saint-Martin-des-Champs","stateId":4804,"stateCode":"NOR","stateName":"Normandie","countryId":75,"countryCode":"FR","countryName":"France","latitude":"48.66841000","longitude":"-1.33393000","wikiDataId":"Q653340"},{"id":46288,"name":"Saint-Martin-du-Manoir","stateId":4804,"stateCode":"NOR","stateName":"Normandie","countryId":75,"countryCode":"FR","countryName":"France","latitude":"49.53213000","longitude":"0.23759000","wikiDataId":"Q275313"},{"id":46293,"name":"Saint-Martin-du-Vivier","stateId":4804,"stateCode":"NOR","stateName":"Normandie","countryId":75,"countryCode":"FR","countryName":"France","latitude":"49.46667000","longitude":"1.16667000","wikiDataId":"Q275313"},{"id":46297,"name":"Saint-Martin-en-Campagne","stateId":4804,"stateCode":"NOR","stateName":"Normandie","countryId":75,"countryCode":"FR","countryName":"France","latitude":"49.95648000","longitude":"1.22233000","wikiDataId":"Q275313"},{"id":46265,"name":"Saint-Martin-Osmonville","stateId":4804,"stateCode":"NOR","stateName":"Normandie","countryId":75,"countryCode":"FR","countryName":"France","latitude":"49.63873000","longitude":"1.29952000","wikiDataId":"Q875983"},{"id":46369,"name":"Saint-Nicolas-d’Aliermont","stateId":4804,"stateCode":"NOR","stateName":"Normandie","countryId":75,"countryCode":"FR","countryName":"France","latitude":"49.87857000","longitude":"1.22486000","wikiDataId":"Q1164279"},{"id":46367,"name":"Saint-Nicolas-de-la-Taille","stateId":4804,"stateCode":"NOR","stateName":"Normandie","countryId":75,"countryCode":"FR","countryName":"France","latitude":"49.51085000","longitude":"0.47405000","wikiDataId":"Q1164279"},{"id":46379,"name":"Saint-Ouen-de-Thouberville","stateId":4804,"stateCode":"NOR","stateName":"Normandie","countryId":75,"countryCode":"FR","countryName":"France","latitude":"49.35726000","longitude":"0.88848000","wikiDataId":"Q208889"},{"id":46381,"name":"Saint-Ouen-du-Tilleul","stateId":4804,"stateCode":"NOR","stateName":"Normandie","countryId":75,"countryCode":"FR","countryName":"France","latitude":"49.29723000","longitude":"0.94760000","wikiDataId":"Q208889"},{"id":46420,"name":"Saint-Paër","stateId":4804,"stateCode":"NOR","stateName":"Normandie","countryId":75,"countryCode":"FR","countryName":"France","latitude":"49.51452000","longitude":"0.87935000","wikiDataId":"Q268273"},{"id":46387,"name":"Saint-Pair-sur-Mer","stateId":4804,"stateCode":"NOR","stateName":"Normandie","countryId":75,"countryCode":"FR","countryName":"France","latitude":"48.81455000","longitude":"-1.56761000","wikiDataId":"Q1002629"},{"id":46434,"name":"Saint-Pierre-de-Varengeville","stateId":4804,"stateCode":"NOR","stateName":"Normandie","countryId":75,"countryCode":"FR","countryName":"France","latitude":"49.50240000","longitude":"0.93118000","wikiDataId":"Q1166085"},{"id":46436,"name":"Saint-Pierre-des-Fleurs","stateId":4804,"stateCode":"NOR","stateName":"Normandie","countryId":75,"countryCode":"FR","countryName":"France","latitude":"49.25000000","longitude":"0.96667000","wikiDataId":"Q1166085"},{"id":46442,"name":"Saint-Pierre-du-Regard","stateId":4804,"stateCode":"NOR","stateName":"Normandie","countryId":75,"countryCode":"FR","countryName":"France","latitude":"48.84286000","longitude":"-0.54631000","wikiDataId":"Q973571"},{"id":46443,"name":"Saint-Pierre-du-Vauvray","stateId":4804,"stateCode":"NOR","stateName":"Normandie","countryId":75,"countryCode":"FR","countryName":"France","latitude":"49.23208000","longitude":"1.22125000","wikiDataId":"Q973571"},{"id":46453,"name":"Saint-Pierre-Église","stateId":4804,"stateCode":"NOR","stateName":"Normandie","countryId":75,"countryCode":"FR","countryName":"France","latitude":"49.66848000","longitude":"-1.40358000","wikiDataId":"Q243649"},{"id":46446,"name":"Saint-Pierre-en-Val","stateId":4804,"stateCode":"NOR","stateName":"Normandie","countryId":75,"countryCode":"FR","countryName":"France","latitude":"50.02168000","longitude":"1.44707000","wikiDataId":"Q973571"},{"id":46450,"name":"Saint-Pierre-lès-Elbeuf","stateId":4804,"stateCode":"NOR","stateName":"Normandie","countryId":75,"countryCode":"FR","countryName":"France","latitude":"49.27901000","longitude":"1.04305000","wikiDataId":"Q544967"},{"id":46452,"name":"Saint-Pierre-sur-Dives","stateId":4804,"stateCode":"NOR","stateName":"Normandie","countryId":75,"countryCode":"FR","countryName":"France","latitude":"49.01667000","longitude":"-0.03333000","wikiDataId":"Q243649"},{"id":46454,"name":"Saint-Planchers","stateId":4804,"stateCode":"NOR","stateName":"Normandie","countryId":75,"countryCode":"FR","countryName":"France","latitude":"48.82269000","longitude":"-1.52598000","wikiDataId":"Q243649"},