[{"id":97654,"name":"Ardatov","stateId":1898,"stateCode":"MO","stateName":"Republic of Mordovia","countryId":182,"countryCode":"RU","countryName":"Russia","latitude":"54.84767000","longitude":"46.23878000","wikiDataId":"Q103747"},{"id":97656,"name":"Ardatovskiy Rayon","stateId":1898,"stateCode":"MO","stateName":"Republic of Mordovia","countryId":182,"countryCode":"RU","countryName":"Russia","latitude":"54.83333000","longitude":"46.25000000","wikiDataId":"Q776707"},{"id":97709,"name":"Atemar","stateId":1898,"stateCode":"MO","stateName":"Republic of Mordovia","countryId":182,"countryCode":"RU","countryName":"Russia","latitude":"54.18097000","longitude":"45.40909000","wikiDataId":"Q4072056"},{"id":97717,"name":"Atyashevo","stateId":1898,"stateCode":"MO","stateName":"Republic of Mordovia","countryId":182,"countryCode":"RU","countryName":"Russia","latitude":"54.56443000","longitude":"46.06905000","wikiDataId":"Q31893025"},{"id":97718,"name":"Atyashevskiy Rayon","stateId":1898,"stateCode":"MO","stateName":"Republic of Mordovia","countryId":182,"countryCode":"RU","countryName":"Russia","latitude":"54.58333000","longitude":"46.08333000","wikiDataId":"Q780922"},{"id":97719,"name":"Atyur’yevskiy Rayon","stateId":1898,"stateCode":"MO","stateName":"Republic of Mordovia","countryId":182,"countryCode":"RU","countryName":"Russia","latitude":"54.33333000","longitude":"43.41667000","wikiDataId":"Q780942"},{"id":97792,"name":"Barashevo","stateId":1898,"stateCode":"MO","stateName":"Republic of Mordovia","countryId":182,"countryCode":"RU","countryName":"Russia","latitude":"54.53250000","longitude":"42.87917000","wikiDataId":"Q4077965"},{"id":98002,"name":"Bol’shebereznikovskiy Rayon","stateId":1898,"stateCode":"MO","stateName":"Republic of Mordovia","countryId":182,"countryCode":"RU","countryName":"Russia","latitude":"54.16667000","longitude":"45.83333000","wikiDataId":"Q778760"},{"id":98112,"name":"Chamzinka","stateId":1898,"stateCode":"MO","stateName":"Republic of Mordovia","countryId":182,"countryCode":"RU","countryName":"Russia","latitude":"54.40188000","longitude":"45.78387000","wikiDataId":"Q34791715"},{"id":98113,"name":"Chamzinskiy Rayon","stateId":1898,"stateCode":"MO","stateName":"Republic of Mordovia","countryId":182,"countryCode":"RU","countryName":"Russia","latitude":"54.41667000","longitude":"45.75000000","wikiDataId":"Q857481"},{"id":98675,"name":"Insar","stateId":1898,"stateCode":"MO","stateName":"Republic of Mordovia","countryId":182,"countryCode":"RU","countryName":"Russia","latitude":"53.86531000","longitude":"44.37382000","wikiDataId":"Q142009"},{"id":98676,"name":"Insarskiy Rayon","stateId":1898,"stateCode":"MO","stateName":"Republic of Mordovia","countryId":182,"countryCode":"RU","countryName":"Russia","latitude":"53.83333000","longitude":"44.41667000","wikiDataId":"Q1049536"},{"id":98770,"name":"Kadoshkino","stateId":1898,"stateCode":"MO","stateName":"Republic of Mordovia","countryId":182,"countryCode":"RU","countryName":"Russia","latitude":"54.02570000","longitude":"44.41910000","wikiDataId":"Q37817099"},{"id":98938,"name":"Kemlya","stateId":1898,"stateCode":"MO","stateName":"Republic of Mordovia","countryId":182,"countryCode":"RU","countryName":"Russia","latitude":"54.69630000","longitude":"45.24240000","wikiDataId":"Q37824936"},{"id":99122,"name":"Kochkurovo","stateId":1898,"stateCode":"MO","stateName":"Republic of Mordovia","countryId":182,"countryCode":"RU","countryName":"Russia","latitude":"54.03576000","longitude":"45.41845000","wikiDataId":"Q35697890"},{"id":99123,"name":"Kochkurovskiy Rayon","stateId":1898,"stateCode":"MO","stateName":"Republic of Mordovia","countryId":182,"countryCode":"RU","countryName":"Russia","latitude":"54.00000000","longitude":"45.41667000","wikiDataId":"Q536663"},{"id":99256,"name":"Kovylkino","stateId":1898,"stateCode":"MO","stateName":"Republic of Mordovia","countryId":182,"countryCode":"RU","countryName":"Russia","latitude":"54.03876000","longitude":"43.91385000","wikiDataId":"Q153787"},{"id":99334,"name":"Krasnoslobodsk","stateId":1898,"stateCode":"MO","stateName":"Republic of Mordovia","countryId":182,"countryCode":"RU","countryName":"Russia","latitude":"54.42530000","longitude":"43.78963000","wikiDataId":"Q155745"},{"id":99335,"name":"Krasnoslobodskiy Rayon","stateId":1898,"stateCode":"MO","stateName":"Republic of Mordovia","countryId":182,"countryCode":"RU","countryName":"Russia","latitude":"54.41667000","longitude":"43.75000000","wikiDataId":"Q857821"},{"id":99583,"name":"Lepley","stateId":1898,"stateCode":"MO","stateName":"Republic of Mordovia","countryId":182,"countryCode":"RU","countryName":"Russia","latitude":"54.30920000","longitude":"42.85990000","wikiDataId":"Q35715159"},{"id":99685,"name":"Lukhovka","stateId":1898,"stateCode":"MO","stateName":"Republic of Mordovia","countryId":182,"countryCode":"RU","countryName":"Russia","latitude":"54.14844000","longitude":"45.25728000","wikiDataId":"Q35720994"},{"id":99702,"name":"Lyambir’","stateId":1898,"stateCode":"MO","stateName":"Republic of Mordovia","countryId":182,"countryCode":"RU","countryName":"Russia","latitude":"54.28172000","longitude":"45.12494000","wikiDataId":"Q35721578"},{"id":99701,"name":"Lyambirskiy Rayon","stateId":1898,"stateCode":"MO","stateName":"Republic of Mordovia","countryId":182,"countryCode":"RU","countryName":"Russia","latitude":"54.33333000","longitude":"45.25000000","wikiDataId":"Q629421"},{"id":100133,"name":"Nikolayevka","stateId":1898,"stateCode":"MO","stateName":"Republic of Mordovia","countryId":182,"countryCode":"RU","countryName":"Russia","latitude":"54.14510000","longitude":"45.14440000","wikiDataId":"Q37896274"},{"id":100558,"name":"Partsa","stateId":1898,"stateCode":"MO","stateName":"Republic of Mordovia","countryId":182,"countryCode":"RU","countryName":"Russia","latitude":"54.36530000","longitude":"42.86170000","wikiDataId":"Q37959705"},{"id":100994,"name":"Romodanovo","stateId":1898,"stateCode":"MO","stateName":"Republic of Mordovia","countryId":182,"countryCode":"RU","countryName":"Russia","latitude":"54.42753000","longitude":"45.32962000","wikiDataId":"Q37958538"},{"id":100995,"name":"Romodanovskiy Rayon","stateId":1898,"stateCode":"MO","stateName":"Republic of Mordovia","countryId":182,"countryCode":"RU","countryName":"Russia","latitude":"54.41667000","longitude":"45.33333000","wikiDataId":"Q643611"},{"id":101038,"name":"Ruzayevka","stateId":1898,"stateCode":"MO","stateName":"Republic of Mordovia","countryId":182,"countryCode":"RU","countryName":"Russia","latitude":"54.06387000","longitude":"44.95090000","wikiDataId":"Q193403"},{"id":101039,"name":"Ruzayevskiy Rayon","stateId":1898,"stateCode":"MO","stateName":"Republic of Mordovia","countryId":182,"countryCode":"RU","countryName":"Russia","latitude":"54.08333000","longitude":"44.83333000","wikiDataId":"Q264302"},{"id":101110,"name":"Saransk","stateId":1898,"stateCode":"MO","stateName":"Republic of Mordovia","countryId":182,"countryCode":"RU","countryName":"Russia","latitude":"54.18380000","longitude":"45.17490000","wikiDataId":"Q5343"},{"id":101327,"name":"Shiringushi","stateId":1898,"stateCode":"MO","stateName":"Republic of Mordovia","countryId":182,"countryCode":"RU","countryName":"Russia","latitude":"53.84851000","longitude":"42.76759000","wikiDataId":"Q37957723"},{"id":101489,"name":"Sosnovka","stateId":1898,"stateCode":"MO","stateName":"Republic of Mordovia","countryId":182,"countryCode":"RU","countryName":"Russia","latitude":"54.71161000","longitude":"43.29774000","wikiDataId":"Q37957304"},{"id":101593,"name":"Staroshaygovskiy Rayon","stateId":1898,"stateCode":"MO","stateName":"Republic of Mordovia","countryId":182,"countryCode":"RU","countryName":"Russia","latitude":"54.33333000","longitude":"44.50000000","wikiDataId":"Q940925"},{"id":101794,"name":"Tatarskaya Pishlya","stateId":1898,"stateCode":"MO","stateName":"Republic of Mordovia","countryId":182,"countryCode":"RU","countryName":"Russia","latitude":"54.06085000","longitude":"44.89978000","wikiDataId":"Q4452471"},{"id":101818,"name":"Temnikov","stateId":1898,"stateCode":"MO","stateName":"Republic of Mordovia","countryId":182,"countryCode":"RU","countryName":"Russia","latitude":"54.63023000","longitude":"43.21483000","wikiDataId":"Q196645"},{"id":101819,"name":"Temnikovskiy Rayon","stateId":1898,"stateCode":"MO","stateName":"Republic of Mordovia","countryId":182,"countryCode":"RU","countryName":"Russia","latitude":"54.66667000","longitude":"43.16667000","wikiDataId":"Q643604"},{"id":101823,"name":"Ten’gushevo","stateId":1898,"stateCode":"MO","stateName":"Republic of Mordovia","countryId":182,"countryCode":"RU","countryName":"Russia","latitude":"54.76861000","longitude":"42.71889000","wikiDataId":"Q37956566"},{"id":101824,"name":"Ten’gushevskiy Rayon","stateId":1898,"stateCode":"MO","stateName":"Republic of Mordovia","countryId":182,"countryCode":"RU","countryName":"Russia","latitude":"54.66667000","longitude":"42.75000000","wikiDataId":"Q671903"},{"id":101897,"name":"Torbeyevo","stateId":1898,"stateCode":"MO","stateName":"Republic of Mordovia","countryId":182,"countryCode":"RU","countryName":"Russia","latitude":"54.07972000","longitude":"43.24732000","wikiDataId":"Q2047922"},{"id":101974,"name":"Turgenevo","stateId":1898,"stateCode":"MO","stateName":"Republic of Mordovia","countryId":182,"countryCode":"RU","countryName":"Russia","latitude":"54.84555000","longitude":"46.32968000","wikiDataId":"Q37956235"},{"id":102018,"name":"Udarnyy","stateId":1898,"stateCode":"MO","stateName":"Republic of Mordovia","countryId":182,"countryCode":"RU","countryName":"Russia","latitude":"54.34090000","longitude":"42.86110000","wikiDataId":"Q37959708"},{"id":102056,"name":"Umet","stateId":1898,"stateCode":"MO","stateName":"Republic of Mordovia","countryId":182,"countryCode":"RU","countryName":"Russia","latitude":"54.11611000","longitude":"42.69750000","wikiDataId":"Q37956090"},{"id":102438,"name":"Vysha","stateId":1898,"stateCode":"MO","stateName":"Republic of Mordovia","countryId":182,"countryCode":"RU","countryName":"Russia","latitude":"53.84768000","longitude":"42.37766000","wikiDataId":"Q37954924"},{"id":102516,"name":"Yavas","stateId":1898,"stateCode":"MO","stateName":"Republic of Mordovia","countryId":182,"countryCode":"RU","countryName":"Russia","latitude":"54.41590000","longitude":"42.84910000","wikiDataId":"Q770345"},{"id":102550,"name":"Yel’nikovskiy Rayon","stateId":1898,"stateCode":"MO","stateName":"Republic of Mordovia","countryId":182,"countryCode":"RU","countryName":"Russia","latitude":"54.58333000","longitude":"43.83333000","wikiDataId":"Q408606"},{"id":102770,"name":"Zubova Polyana","stateId":1898,"stateCode":"MO","stateName":"Republic of Mordovia","countryId":182,"countryCode":"RU","countryName":"Russia","latitude":"54.07710000","longitude":"42.83720000","wikiDataId":"Q1020492"},{"id":102772,"name":"Zubovo-Polyanskiy Rayon","stateId":1898,"stateCode":"MO","stateName":"Republic of Mordovia","countryId":182,"countryCode":"RU","countryName":"Russia","latitude":"54.00000000","longitude":"42.75000000","wikiDataId":"Q1049529"},{"id":102785,"name":"Zykovo","stateId":1898,"stateCode":"MO","stateName":"Republic of Mordovia","countryId":182,"countryCode":"RU","countryName":"Russia","latitude":"54.06853000","longitude":"45.08633000","wikiDataId":"Q18408248"}]