[{"id":68017,"name":"Abasolo del Valle","stateId":3464,"stateCode":"VER","stateName":"Veracruz de Ignacio de la Llave","countryId":142,"countryCode":"MX","countryName":"Mexico","latitude":"17.78306000","longitude":"-95.54556000","wikiDataId":"Q5654722"},{"id":68021,"name":"Abrevadero","stateId":3464,"stateCode":"VER","stateName":"Veracruz de Ignacio de la Llave","countryId":142,"countryCode":"MX","countryName":"Mexico","latitude":"18.28222000","longitude":"-95.21444000","wikiDataId":"Q20129455"},{"id":68028,"name":"Acajete","stateId":3464,"stateCode":"VER","stateName":"Veracruz de Ignacio de la Llave","countryId":142,"countryCode":"MX","countryName":"Mexico","latitude":"19.56815000","longitude":"-97.03333000","wikiDataId":"Q4671655"},{"id":68046,"name":"Acatla","stateId":3464,"stateCode":"VER","stateName":"Veracruz de Ignacio de la Llave","countryId":142,"countryCode":"MX","countryName":"Mexico","latitude":"18.74944000","longitude":"-97.21833000","wikiDataId":"Q20129755"},{"id":68050,"name":"Acatlán","stateId":3464,"stateCode":"VER","stateName":"Veracruz de Ignacio de la Llave","countryId":142,"countryCode":"MX","countryName":"Mexico","latitude":"19.69648000","longitude":"-96.84367000","wikiDataId":"Q8186764"},{"id":68058,"name":"Acayucan","stateId":3464,"stateCode":"VER","stateName":"Veracruz de Ignacio de la Llave","countryId":142,"countryCode":"MX","countryName":"Mexico","latitude":"17.94979000","longitude":"-94.91386000","wikiDataId":"Q2384286"},{"id":68059,"name":"Acazónica","stateId":3464,"stateCode":"VER","stateName":"Veracruz de Ignacio de la Llave","countryId":142,"countryCode":"MX","countryName":"Mexico","latitude":"19.21284000","longitude":"-96.58978000","wikiDataId":"Q2384286"},{"id":68061,"name":"Achotal de Moreno","stateId":3464,"stateCode":"VER","stateName":"Veracruz de Ignacio de la Llave","countryId":142,"countryCode":"MX","countryName":"Mexico","latitude":"17.73652000","longitude":"-95.13395000","wikiDataId":"Q20129909"},{"id":68065,"name":"Acontitla","stateId":3464,"stateCode":"VER","stateName":"Veracruz de Ignacio de la Llave","countryId":142,"countryCode":"MX","countryName":"Mexico","latitude":"20.68206000","longitude":"-97.38469000","wikiDataId":"Q20199700"},{"id":68072,"name":"Actopan","stateId":3464,"stateCode":"VER","stateName":"Veracruz de Ignacio de la Llave","countryId":142,"countryCode":"MX","countryName":"Mexico","latitude":"19.50427000","longitude":"-96.61668000","wikiDataId":"Q2651815"},{"id":68081,"name":"Acula","stateId":3464,"stateCode":"VER","stateName":"Veracruz de Ignacio de la Llave","countryId":142,"countryCode":"MX","countryName":"Mexico","latitude":"18.50563000","longitude":"-95.77427000","wikiDataId":"Q3354618"},{"id":68083,"name":"Acultzingo","stateId":3464,"stateCode":"VER","stateName":"Veracruz de Ignacio de la Llave","countryId":142,"countryCode":"MX","countryName":"Mexico","latitude":"18.71894000","longitude":"-97.30367000","wikiDataId":"Q20220404"},{"id":68093,"name":"Adolfo Moreno","stateId":3464,"stateCode":"VER","stateName":"Veracruz de Ignacio de la Llave","countryId":142,"countryCode":"MX","countryName":"Mexico","latitude":"19.72472000","longitude":"-97.23806000","wikiDataId":"Q20130314"},{"id":68095,"name":"Adolfo Ruíz Cortines","stateId":3464,"stateCode":"VER","stateName":"Veracruz de Ignacio de la Llave","countryId":142,"countryCode":"MX","countryName":"Mexico","latitude":"20.59585000","longitude":"-97.30585000","wikiDataId":"Q20130314"},{"id":68100,"name":"Agrícola Lázaro Cárdenas","stateId":3464,"stateCode":"VER","stateName":"Veracruz de Ignacio de la Llave","countryId":142,"countryCode":"MX","countryName":"Mexico","latitude":"18.81361000","longitude":"-97.19833000","wikiDataId":"Q20220433"},{"id":68110,"name":"Agua Dulce","stateId":3464,"stateCode":"VER","stateName":"Veracruz de Ignacio de la Llave","countryId":142,"countryCode":"MX","countryName":"Mexico","latitude":"18.13909000","longitude":"-94.14527000","wikiDataId":"Q20131591"},{"id":68128,"name":"Aguilera","stateId":3464,"stateCode":"VER","stateName":"Veracruz de Ignacio de la Llave","countryId":142,"countryCode":"MX","countryName":"Mexico","latitude":"17.81083000","longitude":"-95.01500000","wikiDataId":"Q20133137"},{"id":68139,"name":"Ahuacatán","stateId":3464,"stateCode":"VER","stateName":"Veracruz de Ignacio de la Llave","countryId":142,"countryCode":"MX","countryName":"Mexico","latitude":"19.78351000","longitude":"-97.29780000","wikiDataId":"Q20133302"},{"id":68144,"name":"Ahuateno","stateId":3464,"stateCode":"VER","stateName":"Veracruz de Ignacio de la Llave","countryId":142,"countryCode":"MX","countryName":"Mexico","latitude":"21.00245000","longitude":"-98.15055000","wikiDataId":"Q4518831"},{"id":68159,"name":"Ahueyahualco","stateId":3464,"stateCode":"VER","stateName":"Veracruz de Ignacio de la Llave","countryId":142,"countryCode":"MX","countryName":"Mexico","latitude":"19.71974000","longitude":"-97.25984000","wikiDataId":"Q20133603"},{"id":76390,"name":"Álamo","stateId":3464,"stateCode":"VER","stateName":"Veracruz de Ignacio de la Llave","countryId":142,"countryCode":"MX","countryName":"Mexico","latitude":"20.91154000","longitude":"-97.67554000","wikiDataId":"Q4060480"},{"id":76391,"name":"Álamo Temapache","stateId":3464,"stateCode":"VER","stateName":"Veracruz de Ignacio de la Llave","countryId":142,"countryCode":"MX","countryName":"Mexico","latitude":"20.98922000","longitude":"-97.70592000","wikiDataId":"Q1962146"},{"id":68177,"name":"Alborada","stateId":3464,"stateCode":"VER","stateName":"Veracruz de Ignacio de la Llave","countryId":142,"countryCode":"MX","countryName":"Mexico","latitude":"19.44851000","longitude":"-96.87109000","wikiDataId":"Q1998869"},{"id":68205,"name":"Allende","stateId":3464,"stateCode":"VER","stateName":"Veracruz de Ignacio de la Llave","countryId":142,"countryCode":"MX","countryName":"Mexico","latitude":"18.15514000","longitude":"-94.39289000","wikiDataId":"Q20268891"},{"id":68209,"name":"Almagres","stateId":3464,"stateCode":"VER","stateName":"Veracruz de Ignacio de la Llave","countryId":142,"countryCode":"MX","countryName":"Mexico","latitude":"17.80750000","longitude":"-94.91750000","wikiDataId":"Q20268893"},{"id":68217,"name":"Alpatláhuac","stateId":3464,"stateCode":"VER","stateName":"Veracruz de Ignacio de la Llave","countryId":142,"countryCode":"MX","countryName":"Mexico","latitude":"19.10155000","longitude":"-97.12174000","wikiDataId":"Q3365424"},{"id":68227,"name":"Alto Lucero","stateId":3464,"stateCode":"VER","stateName":"Veracruz de Ignacio de la Llave","countryId":142,"countryCode":"MX","countryName":"Mexico","latitude":"20.95361000","longitude":"-97.44194000","wikiDataId":"Q20135149"},{"id":68228,"name":"Altotonga","stateId":3464,"stateCode":"VER","stateName":"Veracruz de Ignacio de la Llave","countryId":142,"countryCode":"MX","countryName":"Mexico","latitude":"19.76613000","longitude":"-97.24514000","wikiDataId":"Q20251503"},{"id":68230,"name":"Alvarado","stateId":3464,"stateCode":"VER","stateName":"Veracruz de Ignacio de la Llave","countryId":142,"countryCode":"MX","countryName":"Mexico","latitude":"18.77143000","longitude":"-95.76181000","wikiDataId":"Q448370"},{"id":68241,"name":"Amatitlán","stateId":3464,"stateCode":"VER","stateName":"Veracruz de Ignacio de la Llave","countryId":142,"countryCode":"MX","countryName":"Mexico","latitude":"18.43371000","longitude":"-95.68388000","wikiDataId":"Q630287"},{"id":68243,"name":"Amatlán","stateId":3464,"stateCode":"VER","stateName":"Veracruz de Ignacio de la Llave","countryId":142,"countryCode":"MX","countryName":"Mexico","latitude":"21.33519000","longitude":"-97.75704000","wikiDataId":"Q630287"},{"id":68246,"name":"Amatlán de los Reyes","stateId":3464,"stateCode":"VER","stateName":"Veracruz de Ignacio de la Llave","countryId":142,"countryCode":"MX","countryName":"Mexico","latitude":"18.84658000","longitude":"-96.91595000","wikiDataId":"Q20135549"},{"id":68267,"name":"Anahuac","stateId":3464,"stateCode":"VER","stateName":"Veracruz de Ignacio de la Llave","countryId":142,"countryCode":"MX","countryName":"Mexico","latitude":"22.20275000","longitude":"-97.85506000","wikiDataId":"Q20136240"},{"id":68273,"name":"Angel R. Cabada","stateId":3464,"stateCode":"VER","stateName":"Veracruz de Ignacio de la Llave","countryId":142,"countryCode":"MX","countryName":"Mexico","latitude":"18.60798000","longitude":"-95.39724000","wikiDataId":"Q3893285"},{"id":68281,"name":"Antón Lizardo","stateId":3464,"stateCode":"VER","stateName":"Veracruz de Ignacio de la Llave","countryId":142,"countryCode":"MX","countryName":"Mexico","latitude":"19.05962000","longitude":"-95.99272000","wikiDataId":"Q2885816"},{"id":68279,"name":"Antonio J Bermúdez","stateId":3464,"stateCode":"VER","stateName":"Veracruz de Ignacio de la Llave","countryId":142,"countryCode":"MX","countryName":"Mexico","latitude":"22.15046000","longitude":"-98.15873000","wikiDataId":"Q20136552"},{"id":68304,"name":"Apazapan","stateId":3464,"stateCode":"VER","stateName":"Veracruz de Ignacio de la Llave","countryId":142,"countryCode":"MX","countryName":"Mexico","latitude":"19.33175000","longitude":"-96.65058000","wikiDataId":"Q3847117"},{"id":68316,"name":"Aquila","stateId":3464,"stateCode":"VER","stateName":"Veracruz de Ignacio de la Llave","countryId":142,"countryCode":"MX","countryName":"Mexico","latitude":"18.78958000","longitude":"-97.32319000","wikiDataId":"Q3847202"},{"id":68319,"name":"Aquiles Serdán","stateId":3464,"stateCode":"VER","stateName":"Veracruz de Ignacio de la Llave","countryId":142,"countryCode":"MX","countryName":"Mexico","latitude":"21.87206000","longitude":"-98.14794000","wikiDataId":"Q20227607"},{"id":68335,"name":"Arboledas","stateId":3464,"stateCode":"VER","stateName":"Veracruz de Ignacio de la Llave","countryId":142,"countryCode":"MX","countryName":"Mexico","latitude":"19.20722000","longitude":"-96.21444000","wikiDataId":"Q20220665"},{"id":68337,"name":"Arbolillo","stateId":3464,"stateCode":"VER","stateName":"Veracruz de Ignacio de la Llave","countryId":142,"countryCode":"MX","countryName":"Mexico","latitude":"18.81631000","longitude":"-95.83601000","wikiDataId":"Q20137124"},{"id":68347,"name":"Arenal Santa Ana","stateId":3464,"stateCode":"VER","stateName":"Veracruz de Ignacio de la Llave","countryId":142,"countryCode":"MX","countryName":"Mexico","latitude":"17.78951000","longitude":"-95.76970000","wikiDataId":"Q20274548"},{"id":68370,"name":"Arroyo del Maíz Uno","stateId":3464,"stateCode":"VER","stateName":"Veracruz de Ignacio de la Llave","countryId":142,"countryCode":"MX","countryName":"Mexico","latitude":"20.53667000","longitude":"-97.41528000","wikiDataId":"Q20220707"},{"id":68371,"name":"Arroyo del Potrero","stateId":3464,"stateCode":"VER","stateName":"Veracruz de Ignacio de la Llave","countryId":142,"countryCode":"MX","countryName":"Mexico","latitude":"20.14554000","longitude":"-97.06520000","wikiDataId":"Q20220707"},{"id":68360,"name":"Arroyo Hondo","stateId":3464,"stateCode":"VER","stateName":"Veracruz de Ignacio de la Llave","countryId":142,"countryCode":"MX","countryName":"Mexico","latitude":"20.02317000","longitude":"-96.87372000","wikiDataId":"Q20229027"},{"id":68364,"name":"Arroyo San Isidro","stateId":3464,"stateCode":"VER","stateName":"Veracruz de Ignacio de la Llave","countryId":142,"countryCode":"MX","countryName":"Mexico","latitude":"18.48667000","longitude":"-95.41333000","wikiDataId":"Q20138603"},{"id":68381,"name":"Astacinga","stateId":3464,"stateCode":"VER","stateName":"Veracruz de Ignacio de la Llave","countryId":142,"countryCode":"MX","countryName":"Mexico","latitude":"18.56900000","longitude":"-97.10376000","wikiDataId":"Q513993"},{"id":68412,"name":"Atlahuilco","stateId":3464,"stateCode":"VER","stateName":"Veracruz de Ignacio de la Llave","countryId":142,"countryCode":"MX","countryName":"Mexico","latitude":"18.68308000","longitude":"-97.11553000","wikiDataId":"Q3847260"},{"id":68433,"name":"Atoyac","stateId":3464,"stateCode":"VER","stateName":"Veracruz de Ignacio de la Llave","countryId":142,"countryCode":"MX","countryName":"Mexico","latitude":"18.93182000","longitude":"-96.80203000","wikiDataId":"Q2651766"},{"id":68436,"name":"Atzacan","stateId":3464,"stateCode":"VER","stateName":"Veracruz de Ignacio de la Llave","countryId":142,"countryCode":"MX","countryName":"Mexico","latitude":"18.90724000","longitude":"-97.08307000","wikiDataId":"Q3847285"},{"id":68439,"name":"Atzalan","stateId":3464,"stateCode":"VER","stateName":"Veracruz de Ignacio de la Llave","countryId":142,"countryCode":"MX","countryName":"Mexico","latitude":"19.78864000","longitude":"-97.24195000","wikiDataId":"Q3847243"},{"id":68452,"name":"Axochío","stateId":3464,"stateCode":"VER","stateName":"Veracruz de Ignacio de la Llave","countryId":142,"countryCode":"MX","countryName":"Mexico","latitude":"18.37175000","longitude":"-95.29985000","wikiDataId":"Q2651949"},{"id":68458,"name":"Ayahualulco","stateId":3464,"stateCode":"VER","stateName":"Veracruz de Ignacio de la Llave","countryId":142,"countryCode":"MX","countryName":"Mexico","latitude":"19.38613000","longitude":"-97.14853000","wikiDataId":"Q3847133"},{"id":68466,"name":"Ayotuxtla","stateId":3464,"stateCode":"VER","stateName":"Veracruz de Ignacio de la Llave","countryId":142,"countryCode":"MX","countryName":"Mexico","latitude":"20.64885000","longitude":"-98.30264000","wikiDataId":"Q3893079"},{"id":68511,"name":"Banderas","stateId":3464,"stateCode":"VER","stateName":"Veracruz de Ignacio de la Llave","countryId":142,"countryCode":"MX","countryName":"Mexico","latitude":"20.99083000","longitude":"-97.39361000","wikiDataId":"Q20264030"},{"id":68514,"name":"Banderilla","stateId":3464,"stateCode":"VER","stateName":"Veracruz de Ignacio de la Llave","countryId":142,"countryCode":"MX","countryName":"Mexico","latitude":"19.58893000","longitude":"-96.93727000","wikiDataId":"Q20253078"},{"id":68516,"name":"Bara de Chachalacas","stateId":3464,"stateCode":"VER","stateName":"Veracruz de Ignacio de la Llave","countryId":142,"countryCode":"MX","countryName":"Mexico","latitude":"19.40643000","longitude":"-96.34159000","wikiDataId":"Q20253078"},{"id":68518,"name":"Barra de Cazones","stateId":3464,"stateCode":"VER","stateName":"Veracruz de Ignacio de la Llave","countryId":142,"countryCode":"MX","countryName":"Mexico","latitude":"20.72307000","longitude":"-97.20320000","wikiDataId":"Q20253078"},{"id":68520,"name":"Barrancas","stateId":3464,"stateCode":"VER","stateName":"Veracruz de Ignacio de la Llave","countryId":142,"countryCode":"MX","countryName":"Mexico","latitude":"18.06918000","longitude":"-94.58691000","wikiDataId":"Q27767804"},{"id":68550,"name":"Barrio de San Miguel","stateId":3464,"stateCode":"VER","stateName":"Veracruz de Ignacio de la Llave","countryId":142,"countryCode":"MX","countryName":"Mexico","latitude":"19.64333000","longitude":"-97.12389000","wikiDataId":"Q20253424"},{"id":68575,"name":"Bella Esperanza","stateId":3464,"stateCode":"VER","stateName":"Veracruz de Ignacio de la Llave","countryId":142,"countryCode":"MX","countryName":"Mexico","latitude":"19.43329000","longitude":"-96.86648000","wikiDataId":"Q20253861"},{"id":68594,"name":"Benito Juárez","stateId":3464,"stateCode":"VER","stateName":"Veracruz de Ignacio de la Llave","countryId":142,"countryCode":"MX","countryName":"Mexico","latitude":"20.88635000","longitude":"-98.20594000","wikiDataId":"Q4888100"},{"id":68617,"name":"Blanca Espuma","stateId":3464,"stateCode":"VER","stateName":"Veracruz de Ignacio de la Llave","countryId":142,"countryCode":"MX","countryName":"Mexico","latitude":"19.58117000","longitude":"-96.68819000","wikiDataId":"Q20274868"},{"id":68621,"name":"Boca del Monte","stateId":3464,"stateCode":"VER","stateName":"Veracruz de Ignacio de la Llave","countryId":142,"countryCode":"MX","countryName":"Mexico","latitude":"19.15451000","longitude":"-96.83270000","wikiDataId":"Q20220968"},{"id":68622,"name":"Boca del Rio","stateId":3464,"stateCode":"VER","stateName":"Veracruz de Ignacio de la Llave","countryId":142,"countryCode":"MX","countryName":"Mexico","latitude":"19.10464000","longitude":"-96.10405000","wikiDataId":"Q888954"},{"id":68659,"name":"Buena Vista","stateId":3464,"stateCode":"VER","stateName":"Veracruz de Ignacio de la Llave","countryId":142,"countryCode":"MX","countryName":"Mexico","latitude":"19.04278000","longitude":"-96.85667000","wikiDataId":"Q20145790"},{"id":68669,"name":"Buenavista","stateId":3464,"stateCode":"VER","stateName":"Veracruz de Ignacio de la Llave","countryId":142,"countryCode":"MX","countryName":"Mexico","latitude":"18.89306000","longitude":"-97.03694000","wikiDataId":"Q20221044"},{"id":68685,"name":"Buenos Aires","stateId":3464,"stateCode":"VER","stateName":"Veracruz de Ignacio de la Llave","countryId":142,"countryCode":"MX","countryName":"Mexico","latitude":"18.46463000","longitude":"-95.24879000","wikiDataId":"Q20229054"},{"id":68691,"name":"Buenos Aires (San Isidro)","stateId":3464,"stateCode":"VER","stateName":"Veracruz de Ignacio de la Llave","countryId":142,"countryCode":"MX","countryName":"Mexico","latitude":"20.84028000","longitude":"-97.60139000","wikiDataId":"Q20268941"},{"id":68703,"name":"Cabezas","stateId":3464,"stateCode":"VER","stateName":"Veracruz de Ignacio de la Llave","countryId":142,"countryCode":"MX","countryName":"Mexico","latitude":"19.37167000","longitude":"-96.38278000","wikiDataId":"Q20147049"},{"id":68706,"name":"Cacahuatal","stateId":3464,"stateCode":"VER","stateName":"Veracruz de Ignacio de la Llave","countryId":142,"countryCode":"MX","countryName":"Mexico","latitude":"18.83098000","longitude":"-96.84192000","wikiDataId":"Q20254830"},{"id":68728,"name":"Calcahualco","stateId":3464,"stateCode":"VER","stateName":"Veracruz de Ignacio de la Llave","countryId":142,"countryCode":"MX","countryName":"Mexico","latitude":"19.13698000","longitude":"-97.14201000","wikiDataId":"Q3892704"},{"id":68734,"name":"Calería","stateId":3464,"stateCode":"VER","stateName":"Veracruz de Ignacio de la Llave","countryId":142,"countryCode":"MX","countryName":"Mexico","latitude":"18.42883000","longitude":"-95.17737000","wikiDataId":"Q20147578"},{"id":68735,"name":"Calichar Palma Sola","stateId":3464,"stateCode":"VER","stateName":"Veracruz de Ignacio de la Llave","countryId":142,"countryCode":"MX","countryName":"Mexico","latitude":"20.44155000","longitude":"-97.55103000","wikiDataId":"Q20147578"},{"id":68755,"name":"Calzadas","stateId":3464,"stateCode":"VER","stateName":"Veracruz de Ignacio de la Llave","countryId":142,"countryCode":"MX","countryName":"Mexico","latitude":"18.10121000","longitude":"-94.45524000","wikiDataId":"Q2656541"},{"id":68760,"name":"Camarón de Tejeda","stateId":3464,"stateCode":"VER","stateName":"Veracruz de Ignacio de la Llave","countryId":142,"countryCode":"MX","countryName":"Mexico","latitude":"19.00810000","longitude":"-96.56807000","wikiDataId":"Q5024980"},{"id":68763,"name":"Camerino Z. Mendoza","stateId":3464,"stateCode":"VER","stateName":"Veracruz de Ignacio de la Llave","countryId":142,"countryCode":"MX","countryName":"Mexico","latitude":"18.78246000","longitude":"-97.16016000","wikiDataId":"Q1997984"},{"id":68776,"name":"Campo Chico","stateId":3464,"stateCode":"VER","stateName":"Veracruz de Ignacio de la Llave","countryId":142,"countryCode":"MX","countryName":"Mexico","latitude":"18.83639000","longitude":"-97.02802000","wikiDataId":"Q20148604"},{"id":68780,"name":"Campo de Águila","stateId":3464,"stateCode":"VER","stateName":"Veracruz de Ignacio de la Llave","countryId":142,"countryCode":"MX","countryName":"Mexico","latitude":"18.06750000","longitude":"-94.98611000","wikiDataId":"Q20268951"},{"id":68777,"name":"Campo Grande","stateId":3464,"stateCode":"VER","stateName":"Veracruz de Ignacio de la Llave","countryId":142,"countryCode":"MX","countryName":"Mexico","latitude":"18.82296000","longitude":"-97.01265000","wikiDataId":"Q20148604"},{"id":68807,"name":"Capoluca","stateId":3464,"stateCode":"VER","stateName":"Veracruz de Ignacio de la Llave","countryId":142,"countryCode":"MX","countryName":"Mexico","latitude":"18.80639000","longitude":"-97.02722000","wikiDataId":"Q20256434"},{"id":68823,"name":"Caristay","stateId":3464,"stateCode":"VER","stateName":"Veracruz de Ignacio de la Llave","countryId":142,"countryCode":"MX","countryName":"Mexico","latitude":"20.64538000","longitude":"-97.30593000","wikiDataId":"Q15043366"},{"id":68824,"name":"Carlos A. Carrillo","stateId":3464,"stateCode":"VER","stateName":"Veracruz de Ignacio de la Llave","countryId":142,"countryCode":"MX","countryName":"Mexico","latitude":"18.37477000","longitude":"-95.75444000","wikiDataId":"Q20256568"},{"id":68840,"name":"Carrillo Puerto","stateId":3464,"stateCode":"VER","stateName":"Veracruz de Ignacio de la Llave","countryId":142,"countryCode":"MX","countryName":"Mexico","latitude":"18.81314000","longitude":"-96.58230000","wikiDataId":"Q3894268"},{"id":68841,"name":"Carrizal","stateId":3464,"stateCode":"VER","stateName":"Veracruz de Ignacio de la Llave","countryId":142,"countryCode":"MX","countryName":"Mexico","latitude":"20.59552000","longitude":"-97.25676000","wikiDataId":"Q3894268"},{"id":68857,"name":"Casitas","stateId":3464,"stateCode":"VER","stateName":"Veracruz de Ignacio de la Llave","countryId":142,"countryCode":"MX","countryName":"Mexico","latitude":"20.25532000","longitude":"-96.80114000","wikiDataId":"Q20275318"},{"id":68860,"name":"Castillo de Teayo","stateId":3464,"stateCode":"VER","stateName":"Veracruz de Ignacio de la Llave","countryId":142,"countryCode":"MX","countryName":"Mexico","latitude":"20.74927000","longitude":"-97.63030000","wikiDataId":"Q5049941"},{"id":68863,"name":"Catemaco","stateId":3464,"stateCode":"VER","stateName":"Veracruz de Ignacio de la Llave","countryId":142,"countryCode":"MX","countryName":"Mexico","latitude":"18.42131000","longitude":"-95.11398000","wikiDataId":"Q20221358"},{"id":68867,"name":"Caxapa","stateId":3464,"stateCode":"VER","stateName":"Veracruz de Ignacio de la Llave","countryId":142,"countryCode":"MX","countryName":"Mexico","latitude":"18.43103000","longitude":"-96.77456000","wikiDataId":"Q20275325"},{"id":68872,"name":"Cazones de Herrera","stateId":3464,"stateCode":"VER","stateName":"Veracruz de Ignacio de la Llave","countryId":142,"countryCode":"MX","countryName":"Mexico","latitude":"20.70423000","longitude":"-97.30994000","wikiDataId":"Q20221367"},{"id":68886,"name":"Cecilio Terán","stateId":3464,"stateCode":"VER","stateName":"Veracruz de Ignacio de la Llave","countryId":142,"countryCode":"MX","countryName":"Mexico","latitude":"18.81480000","longitude":"-97.22526000","wikiDataId":"Q20218036"},{"id":68894,"name":"Cementeras del Pital","stateId":3464,"stateCode":"VER","stateName":"Veracruz de Ignacio de la Llave","countryId":142,"countryCode":"MX","countryName":"Mexico","latitude":"20.17694000","longitude":"-96.89583000","wikiDataId":"Q20268976"},{"id":68901,"name":"Centro de Readaptación Social","stateId":3464,"stateCode":"VER","stateName":"Veracruz de Ignacio de la Llave","countryId":142,"countryCode":"MX","countryName":"Mexico","latitude":"19.62500000","longitude":"-97.22028000","wikiDataId":"Q20264544"},{"id":68914,"name":"Cerritos","stateId":3464,"stateCode":"VER","stateName":"Veracruz de Ignacio de la Llave","countryId":142,"countryCode":"MX","countryName":"Mexico","latitude":"19.13329000","longitude":"-96.60931000","wikiDataId":"Q20257423"},{"id":68922,"name":"Cerro Azul","stateId":3464,"stateCode":"VER","stateName":"Veracruz de Ignacio de la Llave","countryId":142,"countryCode":"MX","countryName":"Mexico","latitude":"21.19200000","longitude":"-97.74088000","wikiDataId":"Q27772333"},{"id":68925,"name":"Cerro Gordo","stateId":3464,"stateCode":"VER","stateName":"Veracruz de Ignacio de la Llave","countryId":142,"countryCode":"MX","countryName":"Mexico","latitude":"19.56951000","longitude":"-96.64835000","wikiDataId":"Q20257875"},{"id":68929,"name":"Cerro Grande","stateId":3464,"stateCode":"VER","stateName":"Veracruz de Ignacio de la Llave","countryId":142,"countryCode":"MX","countryName":"Mexico","latitude":"20.23861000","longitude":"-97.68194000","wikiDataId":"Q20221539"},{"id":68930,"name":"Cerro Guzmán","stateId":3464,"stateCode":"VER","stateName":"Veracruz de Ignacio de la Llave","countryId":142,"countryCode":"MX","countryName":"Mexico","latitude":"19.23543000","longitude":"-96.37856000","wikiDataId":"Q20221539"},{"id":68940,"name":"Cerro las Iguanas","stateId":3464,"stateCode":"VER","stateName":"Veracruz de Ignacio de la Llave","countryId":142,"countryCode":"MX","countryName":"Mexico","latitude":"18.41083000","longitude":"-95.19972000","wikiDataId":"Q20257918"},{"id":68945,"name":"Chacalapa","stateId":3464,"stateCode":"VER","stateName":"Veracruz de Ignacio de la Llave","countryId":142,"countryCode":"MX","countryName":"Mexico","latitude":"18.07860000","longitude":"-94.70280000","wikiDataId":"Q20268995"},{"id":68947,"name":"Chacaltianguis","stateId":3464,"stateCode":"VER","stateName":"Veracruz de Ignacio de la Llave","countryId":142,"countryCode":"MX","countryName":"Mexico","latitude":"18.30528000","longitude":"-95.84167000","wikiDataId":"Q3847197"},{"id":68964,"name":"Chalma","stateId":3464,"stateCode":"VER","stateName":"Veracruz de Ignacio de la Llave","countryId":142,"countryCode":"MX","countryName":"Mexico","latitude":"21.20799000","longitude":"-98.37526000","wikiDataId":"Q4936711"},{"id":68984,"name":"Chapopote Chico","stateId":3464,"stateCode":"VER","stateName":"Veracruz de Ignacio de la Llave","countryId":142,"countryCode":"MX","countryName":"Mexico","latitude":"21.13704000","longitude":"-98.24780000","wikiDataId":"Q3844596"},{"id":68985,"name":"Chapopote Núñez","stateId":3464,"stateCode":"VER","stateName":"Veracruz de Ignacio de la Llave","countryId":142,"countryCode":"MX","countryName":"Mexico","latitude":"20.93167000","longitude":"-97.68274000","wikiDataId":"Q3844596"},{"id":69001,"name":"Chavarrillo","stateId":3464,"stateCode":"VER","stateName":"Veracruz de Ignacio de la Llave","countryId":142,"countryCode":"MX","countryName":"Mexico","latitude":"19.42551000","longitude":"-96.79458000","wikiDataId":"Q50024901"},{"id":69003,"name":"Chavaxtla","stateId":3464,"stateCode":"VER","stateName":"Veracruz de Ignacio de la Llave","countryId":142,"countryCode":"MX","countryName":"Mexico","latitude":"19.13016000","longitude":"-96.83054000","wikiDataId":"Q50024901"},{"id":69024,"name":"Chichicaxtle","stateId":3464,"stateCode":"VER","stateName":"Veracruz de Ignacio de la Llave","countryId":142,"countryCode":"MX","countryName":"Mexico","latitude":"19.34306000","longitude":"-96.46861000","wikiDataId":"Q20264777"},{"id":69035,"name":"Chicola","stateId":3464,"stateCode":"VER","stateName":"Veracruz de Ignacio de la Llave","countryId":142,"countryCode":"MX","countryName":"Mexico","latitude":"18.90139000","longitude":"-97.10806000","wikiDataId":"Q20221666"},{"id":69039,"name":"Chiconamel","stateId":3464,"stateCode":"VER","stateName":"Veracruz de Ignacio de la Llave","countryId":142,"countryCode":"MX","countryName":"Mexico","latitude":"21.24326000","longitude":"-98.45426000","wikiDataId":"Q591603"},{"id":69043,"name":"Chiconquiaco","stateId":3464,"stateCode":"VER","stateName":"Veracruz de Ignacio de la Llave","countryId":142,"countryCode":"MX","countryName":"Mexico","latitude":"19.74208000","longitude":"-96.81851000","wikiDataId":"Q3847193"},{"id":69044,"name":"Chicontepec","stateId":3464,"stateCode":"VER","stateName":"Veracruz de Ignacio de la Llave","countryId":142,"countryCode":"MX","countryName":"Mexico","latitude":"20.97214000","longitude":"-98.17239000","wikiDataId":"Q4968555"},{"id":69046,"name":"Chicualoque","stateId":3464,"stateCode":"VER","stateName":"Veracruz de Ignacio de la Llave","countryId":142,"countryCode":"MX","countryName":"Mexico","latitude":"20.38272000","longitude":"-97.66163000","wikiDataId":"Q20264801"},{"id":69047,"name":"Chicuasen","stateId":3464,"stateCode":"VER","stateName":"Veracruz de Ignacio de la Llave","countryId":142,"countryCode":"MX","countryName":"Mexico","latitude":"19.52785000","longitude":"-96.67224000","wikiDataId":"Q20264801"},{"id":69063,"name":"Chilapa","stateId":3464,"stateCode":"VER","stateName":"Veracruz de Ignacio de la Llave","countryId":142,"countryCode":"MX","countryName":"Mexico","latitude":"18.98861000","longitude":"-97.15417000","wikiDataId":"Q20264844"},{"id":69074,"name":"Chiltoyac","stateId":3464,"stateCode":"VER","stateName":"Veracruz de Ignacio de la Llave","countryId":142,"countryCode":"MX","countryName":"Mexico","latitude":"19.57708000","longitude":"-96.86660000","wikiDataId":"Q207935"},{"id":69082,"name":"Chinameca","stateId":3464,"stateCode":"VER","stateName":"Veracruz de Ignacio de la Llave","countryId":142,"countryCode":"MX","countryName":"Mexico","latitude":"18.02195000","longitude":"-94.67945000","wikiDataId":"Q20269033"},{"id":69083,"name":"Chinampa de Gorostiza","stateId":3464,"stateCode":"VER","stateName":"Veracruz de Ignacio de la Llave","countryId":142,"countryCode":"MX","countryName":"Mexico","latitude":"21.35959000","longitude":"-97.73484000","wikiDataId":"Q3844933"},{"id":69097,"name":"Chocamán","stateId":3464,"stateCode":"VER","stateName":"Veracruz de Ignacio de la Llave","countryId":142,"countryCode":"MX","countryName":"Mexico","latitude":"19.01214000","longitude":"-97.03291000","wikiDataId":"Q5103501"},{"id":69104,"name":"Chonegal","stateId":3464,"stateCode":"VER","stateName":"Veracruz de Ignacio de la Llave","countryId":142,"countryCode":"MX","countryName":"Mexico","latitude":"18.57523000","longitude":"-95.39347000","wikiDataId":"Q1007232"},{"id":69107,"name":"Chontla","stateId":3464,"stateCode":"VER","stateName":"Veracruz de Ignacio de la Llave","countryId":142,"countryCode":"MX","countryName":"Mexico","latitude":"21.39198000","longitude":"-97.97877000","wikiDataId":"Q3847273"},{"id":69115,"name":"Chumatlán","stateId":3464,"stateCode":"VER","stateName":"Veracruz de Ignacio de la Llave","countryId":142,"countryCode":"MX","countryName":"Mexico","latitude":"20.20574000","longitude":"-97.59402000","wikiDataId":"Q3847206"},{"id":69120,"name":"Chuniapan de Arriba","stateId":3464,"stateCode":"VER","stateName":"Veracruz de Ignacio de la Llave","countryId":142,"countryCode":"MX","countryName":"Mexico","latitude":"18.34803000","longitude":"-95.18156000","wikiDataId":"Q368220"},{"id":69140,"name":"Citlaltépec","stateId":3464,"stateCode":"VER","stateName":"Veracruz de Ignacio de la Llave","countryId":142,"countryCode":"MX","countryName":"Mexico","latitude":"21.32912000","longitude":"-97.87861000","wikiDataId":"Q5770455"},{"id":69141,"name":"Citlaltépetl","stateId":3464,"stateCode":"VER","stateName":"Veracruz de Ignacio de la Llave","countryId":142,"countryCode":"MX","countryName":"Mexico","latitude":"21.34351000","longitude":"-97.89201000","wikiDataId":"Q5770480"},{"id":69152,"name":"Ciudad Cuauhtémoc","stateId":3464,"stateCode":"VER","stateName":"Veracruz de Ignacio de la Llave","countryId":142,"countryCode":"MX","countryName":"Mexico","latitude":"22.18439000","longitude":"-97.83472000","wikiDataId":"Q20273969"},{"id":69170,"name":"Ciudad Mendoza","stateId":3464,"stateCode":"VER","stateName":"Veracruz de Ignacio de la Llave","countryId":142,"countryCode":"MX","countryName":"Mexico","latitude":"18.80645000","longitude":"-97.17870000","wikiDataId":"Q4448359"},{"id":69206,"name":"Coacoatzintla","stateId":3464,"stateCode":"VER","stateName":"Veracruz de Ignacio de la Llave","countryId":142,"countryCode":"MX","countryName":"Mexico","latitude":"19.65163000","longitude":"-96.94043000","wikiDataId":"Q20265009"},{"id":69207,"name":"Coacotla","stateId":3464,"stateCode":"VER","stateName":"Veracruz de Ignacio de la Llave","countryId":142,"countryCode":"MX","countryName":"Mexico","latitude":"17.93656000","longitude":"-94.66711000","wikiDataId":"Q20265009"},{"id":69216,"name":"Coahuitlán","stateId":3464,"stateCode":"VER","stateName":"Veracruz de Ignacio de la Llave","countryId":142,"countryCode":"MX","countryName":"Mexico","latitude":"20.27543000","longitude":"-97.70022000","wikiDataId":"Q5137678"},{"id":69224,"name":"Coatepec","stateId":3464,"stateCode":"VER","stateName":"Veracruz de Ignacio de la Llave","countryId":142,"countryCode":"MX","countryName":"Mexico","latitude":"19.45229000","longitude":"-96.96148000","wikiDataId":"Q1104455"},{"id":69231,"name":"Coatzacoalcos","stateId":3464,"stateCode":"VER","stateName":"Veracruz de Ignacio de la Llave","countryId":142,"countryCode":"MX","countryName":"Mexico","latitude":"18.14905000","longitude":"-94.44470000","wikiDataId":"Q502023"},{"id":69233,"name":"Coatzintla","stateId":3464,"stateCode":"VER","stateName":"Veracruz de Ignacio de la Llave","countryId":142,"countryCode":"MX","countryName":"Mexico","latitude":"20.48699000","longitude":"-97.46823000","wikiDataId":"Q2448176"},{"id":69246,"name":"Coetzala","stateId":3464,"stateCode":"VER","stateName":"Veracruz de Ignacio de la Llave","countryId":142,"countryCode":"MX","countryName":"Mexico","latitude":"18.78521000","longitude":"-96.91697000","wikiDataId":"Q3847083"},{"id":69256,"name":"Colatlán","stateId":3464,"stateCode":"VER","stateName":"Veracruz de Ignacio de la Llave","countryId":142,"countryCode":"MX","countryName":"Mexico","latitude":"20.81642000","longitude":"-98.09697000","wikiDataId":"Q20236962"},{"id":69261,"name":"Colipa","stateId":3464,"stateCode":"VER","stateName":"Veracruz de Ignacio de la Llave","countryId":142,"countryCode":"MX","countryName":"Mexico","latitude":"19.92323000","longitude":"-96.72713000","wikiDataId":"Q3847092"},{"id":69272,"name":"Colonia Adolfo Ruiz Cortines (Colonia Obrera)","stateId":3464,"stateCode":"VER","stateName":"Veracruz de Ignacio de la Llave","countryId":142,"countryCode":"MX","countryName":"Mexico","latitude":"18.25694000","longitude":"-96.16139000","wikiDataId":"Q20265072"},{"id":69287,"name":"Colonia Chalchihuecan","stateId":3464,"stateCode":"VER","stateName":"Veracruz de Ignacio de la Llave","countryId":142,"countryCode":"MX","countryName":"Mexico","latitude":"19.21417000","longitude":"-96.21444000","wikiDataId":"Q20265121"},{"id":69390,"name":"Colonia el Renacimiento","stateId":3464,"stateCode":"VER","stateName":"Veracruz de Ignacio de la Llave","countryId":142,"countryCode":"MX","countryName":"Mexico","latitude":"19.21889000","longitude":"-96.21639000","wikiDataId":"Q20221959"},{"id":69397,"name":"Colonia las Flores","stateId":3464,"stateCode":"VER","stateName":"Veracruz de Ignacio de la Llave","countryId":142,"countryCode":"MX","countryName":"Mexico","latitude":"21.36167000","longitude":"-97.69306000","wikiDataId":"Q20222016"},{"id":69320,"name":"Colonia Lealtad","stateId":3464,"stateCode":"VER","stateName":"Veracruz de Ignacio de la Llave","countryId":142,"countryCode":"MX","countryName":"Mexico","latitude":"17.96306000","longitude":"-94.90250000","wikiDataId":"Q20265238"},{"id":69321,"name":"Colonia Libertad","stateId":3464,"stateCode":"VER","stateName":"Veracruz de Ignacio de la Llave","countryId":142,"countryCode":"MX","countryName":"Mexico","latitude":"19.67734000","longitude":"-97.21262000","wikiDataId":"Q20265238"},{"id":69327,"name":"Colonia Manuel González","stateId":3464,"stateCode":"VER","stateName":"Veracruz de Ignacio de la Llave","countryId":142,"countryCode":"MX","countryName":"Mexico","latitude":"19.11495000","longitude":"-96.85939000","wikiDataId":"Q20130268"},{"id":69369,"name":"Colonia Santa Bárbara","stateId":3464,"stateCode":"VER","stateName":"Veracruz de Ignacio de la Llave","countryId":142,"countryCode":"MX","countryName":"Mexico","latitude":"19.50191000","longitude":"-96.87817000","wikiDataId":"Q20265289"},{"id":69407,"name":"Colonia Úrsulo Galván","stateId":3464,"stateCode":"VER","stateName":"Veracruz de Ignacio de la Llave","countryId":142,"countryCode":"MX","countryName":"Mexico","latitude":"19.42862000","longitude":"-96.97842000","wikiDataId":"Q20235641"},{"id":69408,"name":"Colonias Pedernales","stateId":3464,"stateCode":"VER","stateName":"Veracruz de Ignacio de la Llave","countryId":142,"countryCode":"MX","countryName":"Mexico","latitude":"20.04583000","longitude":"-97.05139000","wikiDataId":"Q20265300"},{"id":69410,"name":"Colorines","stateId":3464,"stateCode":"VER","stateName":"Veracruz de Ignacio de la Llave","countryId":142,"countryCode":"MX","countryName":"Mexico","latitude":"18.88472000","longitude":"-96.97833000","wikiDataId":"Q20132864"},{"id":69423,"name":"Comapa","stateId":3464,"stateCode":"VER","stateName":"Veracruz de Ignacio de la Llave","countryId":142,"countryCode":"MX","countryName":"Mexico","latitude":"19.13889000","longitude":"-96.71374000","wikiDataId":"Q20270882"},{"id":69424,"name":"Comején","stateId":3464,"stateCode":"VER","stateName":"Veracruz de Ignacio de la Llave","countryId":142,"countryCode":"MX","countryName":"Mexico","latitude":"18.06126000","longitude":"-94.88552000","wikiDataId":"Q20270882"},{"id":69426,"name":"Comoapan","stateId":3464,"stateCode":"VER","stateName":"Veracruz de Ignacio de la Llave","countryId":142,"countryCode":"MX","countryName":"Mexico","latitude":"18.40684000","longitude":"-95.17415000","wikiDataId":"Q20133070"},{"id":69454,"name":"Congregación el Tajín","stateId":3464,"stateCode":"VER","stateName":"Veracruz de Ignacio de la Llave","countryId":142,"countryCode":"MX","countryName":"Mexico","latitude":"20.43047000","longitude":"-97.38183000","wikiDataId":"Q20133515"},{"id":69451,"name":"Congregación Hidalgo","stateId":3464,"stateCode":"VER","stateName":"Veracruz de Ignacio de la Llave","countryId":142,"countryCode":"MX","countryName":"Mexico","latitude":"17.93750000","longitude":"-94.97056000","wikiDataId":"Q20265315"},{"id":69661,"name":"Córdoba","stateId":3464,"stateCode":"VER","stateName":"Veracruz de Ignacio de la Llave","countryId":142,"countryCode":"MX","countryName":"Mexico","latitude":"18.88420000","longitude":"-96.92559000","wikiDataId":"Q27769955"},{"id":69662,"name":"Córdoba (Santa Leticia)","stateId":3464,"stateCode":"VER","stateName":"Veracruz de Ignacio de la Llave","countryId":142,"countryCode":"MX","countryName":"Mexico","latitude":"18.90861000","longitude":"-96.97889000","wikiDataId":"Q20265333"},{"id":69483,"name":"Corozal","stateId":3464,"stateCode":"VER","stateName":"Veracruz de Ignacio de la Llave","countryId":142,"countryCode":"MX","countryName":"Mexico","latitude":"21.54627000","longitude":"-98.55444000","wikiDataId":"Q2651332"},{"id":69485,"name":"Corral Nuevo","stateId":3464,"stateCode":"VER","stateName":"Veracruz de Ignacio de la Llave","countryId":142,"countryCode":"MX","countryName":"Mexico","latitude":"18.11461000","longitude":"-95.11542000","wikiDataId":"Q20134629"},{"id":69492,"name":"Corralillos","stateId":3464,"stateCode":"VER","stateName":"Veracruz de Ignacio de la Llave","countryId":142,"countryCode":"MX","countryName":"Mexico","latitude":"20.48273000","longitude":"-97.52582000","wikiDataId":"Q20222152"},{"id":69497,"name":"Cosamaloapan","stateId":3464,"stateCode":"VER","stateName":"Veracruz de Ignacio de la Llave","countryId":142,"countryCode":"MX","countryName":"Mexico","latitude":"18.36759000","longitude":"-95.79857000","wikiDataId":"Q506848"},{"id":69498,"name":"Cosamaloapan de Carpio","stateId":3464,"stateCode":"VER","stateName":"Veracruz de Ignacio de la Llave","countryId":142,"countryCode":"MX","countryName":"Mexico","latitude":"18.30163000","longitude":"-95.95967000","wikiDataId":"Q5655703"},{"id":69499,"name":"Cosautlán","stateId":3464,"stateCode":"VER","stateName":"Veracruz de Ignacio de la Llave","countryId":142,"countryCode":"MX","countryName":"Mexico","latitude":"19.33196000","longitude":"-96.99030000","wikiDataId":"Q20269086"},{"id":69500,"name":"Cosautlán de Carvajal","stateId":3464,"stateCode":"VER","stateName":"Veracruz de Ignacio de la Llave","countryId":142,"countryCode":"MX","countryName":"Mexico","latitude":"19.32878000","longitude":"-96.97719000","wikiDataId":"Q3847170"},{"id":69502,"name":"Coscomatepec de Bravo","stateId":3464,"stateCode":"VER","stateName":"Veracruz de Ignacio de la Llave","countryId":142,"countryCode":"MX","countryName":"Mexico","latitude":"19.07275000","longitude":"-97.04685000","wikiDataId":"Q543592"},{"id":69503,"name":"Cosolapa","stateId":3464,"stateCode":"VER","stateName":"Veracruz de Ignacio de la Llave","countryId":142,"countryCode":"MX","countryName":"Mexico","latitude":"18.60055000","longitude":"-96.68524000","wikiDataId":"Q20265355"},{"id":69504,"name":"Cosoleacaque","stateId":3464,"stateCode":"VER","stateName":"Veracruz de Ignacio de la Llave","countryId":142,"countryCode":"MX","countryName":"Mexico","latitude":"17.99913000","longitude":"-94.63590000","wikiDataId":"Q27769965"},{"id":69508,"name":"Cotaxtla","stateId":3464,"stateCode":"VER","stateName":"Veracruz de Ignacio de la Llave","countryId":142,"countryCode":"MX","countryName":"Mexico","latitude":"18.83555000","longitude":"-96.39640000","wikiDataId":"Q3847123"},{"id":69513,"name":"Coxquihui","stateId":3464,"stateCode":"VER","stateName":"Veracruz de Ignacio de la Llave","countryId":142,"countryCode":"MX","countryName":"Mexico","latitude":"20.18398000","longitude":"-97.58568000","wikiDataId":"Q20135304"},{"id":69518,"name":"Coyolito","stateId":3464,"stateCode":"VER","stateName":"Veracruz de Ignacio de la Llave","countryId":142,"countryCode":"MX","countryName":"Mexico","latitude":"19.22777000","longitude":"-96.87039000","wikiDataId":"Q661315"},{"id":69529,"name":"Coyutla","stateId":3464,"stateCode":"VER","stateName":"Veracruz de Ignacio de la Llave","countryId":142,"countryCode":"MX","countryName":"Mexico","latitude":"20.24720000","longitude":"-97.65824000","wikiDataId":"Q3847216"},{"id":69541,"name":"Cruz Blanca","stateId":3464,"stateCode":"VER","stateName":"Veracruz de Ignacio de la Llave","countryId":142,"countryCode":"MX","countryName":"Mexico","latitude":"19.63744000","longitude":"-97.16691000","wikiDataId":"Q20226524"},{"id":69547,"name":"Cruz del Milagro","stateId":3464,"stateCode":"VER","stateName":"Veracruz de Ignacio de la Llave","countryId":142,"countryCode":"MX","countryName":"Mexico","latitude":"17.90833000","longitude":"-95.01083000","wikiDataId":"Q20136343"},{"id":69545,"name":"Cruz Verde","stateId":3464,"stateCode":"VER","stateName":"Veracruz de Ignacio de la Llave","countryId":142,"countryCode":"MX","countryName":"Mexico","latitude":"19.13750000","longitude":"-97.10861000","wikiDataId":"Q20269091"},{"id":69574,"name":"Cuauhtamingo","stateId":3464,"stateCode":"VER","stateName":"Veracruz de Ignacio de la Llave","countryId":142,"countryCode":"MX","countryName":"Mexico","latitude":"19.76472000","longitude":"-97.31417000","wikiDataId":"Q20137392"},{"id":69594,"name":"Cuautlapán","stateId":3464,"stateCode":"VER","stateName":"Veracruz de Ignacio de la Llave","countryId":142,"countryCode":"MX","countryName":"Mexico","latitude":"18.87747000","longitude":"-97.02291000","wikiDataId":"Q20222295"},{"id":69604,"name":"Cucharas","stateId":3464,"stateCode":"VER","stateName":"Veracruz de Ignacio de la Llave","countryId":142,"countryCode":"MX","countryName":"Mexico","latitude":"21.61568000","longitude":"-97.66099000","wikiDataId":"Q5138674"},{"id":69617,"name":"Cuesta Amarilla","stateId":3464,"stateCode":"VER","stateName":"Veracruz de Ignacio de la Llave","countryId":142,"countryCode":"MX","countryName":"Mexico","latitude":"18.34667000","longitude":"-95.23389000","wikiDataId":"Q20137897"},{"id":69619,"name":"Cuesta de Laja","stateId":3464,"stateCode":"VER","stateName":"Veracruz de Ignacio de la Llave","countryId":142,"countryCode":"MX","countryName":"Mexico","latitude":"18.29333000","longitude":"-95.22111000","wikiDataId":"Q20137970"},{"id":69626,"name":"Cuichapa","stateId":3464,"stateCode":"VER","stateName":"Veracruz de Ignacio de la Llave","countryId":142,"countryCode":"MX","countryName":"Mexico","latitude":"17.93889000","longitude":"-94.28000000","wikiDataId":"Q20138157"},{"id":69628,"name":"Cuitláhuac","stateId":3464,"stateCode":"VER","stateName":"Veracruz de Ignacio de la Llave","countryId":142,"countryCode":"MX","countryName":"Mexico","latitude":"18.81429000","longitude":"-96.72281000","wikiDataId":"Q20222319"},{"id":69630,"name":"Cuiyachapa","stateId":3464,"stateCode":"VER","stateName":"Veracruz de Ignacio de la Llave","countryId":142,"countryCode":"MX","countryName":"Mexico","latitude":"19.04569000","longitude":"-97.17436000","wikiDataId":"Q20265505"},{"id":69671,"name":"Dehesa","stateId":3464,"stateCode":"VER","stateName":"Veracruz de Ignacio de la Llave","countryId":142,"countryCode":"MX","countryName":"Mexico","latitude":"17.94167000","longitude":"-94.99806000","wikiDataId":"Q20222342"},{"id":69673,"name":"Delfino Victoria (Santa Fe)","stateId":3464,"stateCode":"VER","stateName":"Veracruz de Ignacio de la Llave","countryId":142,"countryCode":"MX","countryName":"Mexico","latitude":"19.20750000","longitude":"-96.27333000","wikiDataId":"Q20269102"},{"id":69698,"name":"Doctor Montes de Oca","stateId":3464,"stateCode":"VER","stateName":"Veracruz de Ignacio de la Llave","countryId":142,"countryCode":"MX","countryName":"Mexico","latitude":"20.93477000","longitude":"-97.55585000","wikiDataId":"Q20139320"},{"id":69717,"name":"Dos Bocas","stateId":3464,"stateCode":"VER","stateName":"Veracruz de Ignacio de la Llave","countryId":142,"countryCode":"MX","countryName":"Mexico","latitude":"18.41087000","longitude":"-95.70732000","wikiDataId":"Q20258219"},{"id":69720,"name":"Dos Ríos","stateId":3464,"stateCode":"VER","stateName":"Veracruz de Ignacio de la Llave","countryId":142,"countryCode":"MX","countryName":"Mexico","latitude":"19.48417000","longitude":"-96.79944000","wikiDataId":"Q20140402"},{"id":69757,"name":"Ejidal","stateId":3464,"stateCode":"VER","stateName":"Veracruz de Ignacio de la Llave","countryId":142,"countryCode":"MX","countryName":"Mexico","latitude":"18.90380000","longitude":"-96.22583000","wikiDataId":"Q20140685"},{"id":69816,"name":"Ejido la Piña (Maromilla)","stateId":3464,"stateCode":"VER","stateName":"Veracruz de Ignacio de la Llave","countryId":142,"countryCode":"MX","countryName":"Mexico","latitude":"19.02861000","longitude":"-96.78361000","wikiDataId":"Q20141428"},{"id":69825,"name":"El Aguacate","stateId":3464,"stateCode":"VER","stateName":"Veracruz de Ignacio de la Llave","countryId":142,"countryCode":"MX","countryName":"Mexico","latitude":"18.19808000","longitude":"-94.97053000","wikiDataId":"Q1144317"},{"id":70265,"name":"El Águila","stateId":3464,"stateCode":"VER","stateName":"Veracruz de Ignacio de la Llave","countryId":142,"countryCode":"MX","countryName":"Mexico","latitude":"20.63072000","longitude":"-97.45632000","wikiDataId":"Q20219114"},{"id":69829,"name":"El Anono","stateId":3464,"stateCode":"VER","stateName":"Veracruz de Ignacio de la Llave","countryId":142,"countryCode":"MX","countryName":"Mexico","latitude":"21.25559000","longitude":"-97.65648000","wikiDataId":"Q1144317"},{"id":69834,"name":"El Arenal","stateId":3464,"stateCode":"VER","stateName":"Veracruz de Ignacio de la Llave","countryId":142,"countryCode":"MX","countryName":"Mexico","latitude":"20.26829000","longitude":"-97.59250000","wikiDataId":"Q2652273"},{"id":69846,"name":"El Blanco","stateId":3464,"stateCode":"VER","stateName":"Veracruz de Ignacio de la Llave","countryId":142,"countryCode":"MX","countryName":"Mexico","latitude":"18.07418000","longitude":"-95.28053000","wikiDataId":"Q56650617"},{"id":69886,"name":"El Castillo","stateId":3464,"stateCode":"VER","stateName":"Veracruz de Ignacio de la Llave","countryId":142,"countryCode":"MX","countryName":"Mexico","latitude":"19.54661000","longitude":"-96.86425000","wikiDataId":"Q20222798"},{"id":69900,"name":"El Chico","stateId":3464,"stateCode":"VER","stateName":"Veracruz de Ignacio de la Llave","countryId":142,"countryCode":"MX","countryName":"Mexico","latitude":"19.46570000","longitude":"-96.83642000","wikiDataId":"Q20277919"},{"id":69903,"name":"El Chote","stateId":3464,"stateCode":"VER","stateName":"Veracruz de Ignacio de la Llave","countryId":142,"countryCode":"MX","countryName":"Mexico","latitude":"20.40167000","longitude":"-97.34389000","wikiDataId":"Q20222925"},{"id":69908,"name":"El Cocuite","stateId":3464,"stateCode":"VER","stateName":"Veracruz de Ignacio de la Llave","countryId":142,"countryCode":"MX","countryName":"Mexico","latitude":"18.71765000","longitude":"-96.08442000","wikiDataId":"Q20206482"},{"id":69917,"name":"El Conejo","stateId":3464,"stateCode":"VER","stateName":"Veracruz de Ignacio de la Llave","countryId":142,"countryCode":"MX","countryName":"Mexico","latitude":"19.53140000","longitude":"-97.15383000","wikiDataId":"Q20278144"},{"id":69927,"name":"El Corte","stateId":3464,"stateCode":"VER","stateName":"Veracruz de Ignacio de la Llave","countryId":142,"countryCode":"MX","countryName":"Mexico","latitude":"18.45226000","longitude":"-95.73510000","wikiDataId":"Q20220716"},{"id":69955,"name":"El Escobillo","stateId":3464,"stateCode":"VER","stateName":"Veracruz de Ignacio de la Llave","countryId":142,"countryCode":"MX","countryName":"Mexico","latitude":"19.51450000","longitude":"-97.19791000","wikiDataId":"Q20238057"},{"id":69961,"name":"El Espinal","stateId":3464,"stateCode":"VER","stateName":"Veracruz de Ignacio de la Llave","countryId":142,"countryCode":"MX","countryName":"Mexico","latitude":"19.62444000","longitude":"-96.87250000","wikiDataId":"Q20223249"},{"id":69981,"name":"El Hatito","stateId":3464,"stateCode":"VER","stateName":"Veracruz de Ignacio de la Llave","countryId":142,"countryCode":"MX","countryName":"Mexico","latitude":"19.27750000","longitude":"-96.39361000","wikiDataId":"Q20223364"},{"id":69983,"name":"El Higo","stateId":3464,"stateCode":"VER","stateName":"Veracruz de Ignacio de la Llave","countryId":142,"countryCode":"MX","countryName":"Mexico","latitude":"21.76708000","longitude":"-98.45186000","wikiDataId":"Q3891411"},{"id":69994,"name":"El Huérfano","stateId":3464,"stateCode":"VER","stateName":"Veracruz de Ignacio de la Llave","countryId":142,"countryCode":"MX","countryName":"Mexico","latitude":"19.74082000","longitude":"-96.74528000","wikiDataId":"Q5822143"},{"id":69989,"name":"El Huidero","stateId":3464,"stateCode":"VER","stateName":"Veracruz de Ignacio de la Llave","countryId":142,"countryCode":"MX","countryName":"Mexico","latitude":"18.38750000","longitude":"-95.17917000","wikiDataId":"Q20223402"},{"id":69993,"name":"El Humo","stateId":3464,"stateCode":"VER","stateName":"Veracruz de Ignacio de la Llave","countryId":142,"countryCode":"MX","countryName":"Mexico","latitude":"21.17568000","longitude":"-97.94169000","wikiDataId":"Q5822143"},{"id":70006,"name":"El Jobo","stateId":3464,"stateCode":"VER","stateName":"Veracruz de Ignacio de la Llave","countryId":142,"countryCode":"MX","countryName":"Mexico","latitude":"20.01405000","longitude":"-97.16461000","wikiDataId":"Q20230841"},{"id":70008,"name":"El Juile","stateId":3464,"stateCode":"VER","stateName":"Veracruz de Ignacio de la Llave","countryId":142,"countryCode":"MX","countryName":"Mexico","latitude":"17.74412000","longitude":"-94.98946000","wikiDataId":"Q20230841"},{"id":70010,"name":"El Laurel","stateId":3464,"stateCode":"VER","stateName":"Veracruz de Ignacio de la Llave","countryId":142,"countryCode":"MX","countryName":"Mexico","latitude":"18.27409000","longitude":"-95.32900000","wikiDataId":"Q20220807"},{"id":70011,"name":"El Lencero","stateId":3464,"stateCode":"VER","stateName":"Veracruz de Ignacio de la Llave","countryId":142,"countryCode":"MX","countryName":"Mexico","latitude":"19.48897000","longitude":"-96.81622000","wikiDataId":"Q20220807"},{"id":70019,"name":"El Lindero","stateId":3464,"stateCode":"VER","stateName":"Veracruz de Ignacio de la Llave","countryId":142,"countryCode":"MX","countryName":"Mexico","latitude":"21.31278000","longitude":"-98.22000000","wikiDataId":"Q20223530"},{"id":70028,"name":"El Maguey","stateId":3464,"stateCode":"VER","stateName":"Veracruz de Ignacio de la Llave","countryId":142,"countryCode":"MX","countryName":"Mexico","latitude":"18.83295000","longitude":"-96.73434000","wikiDataId":"Q20238120"},{"id":70038,"name":"El Mirador","stateId":3464,"stateCode":"VER","stateName":"Veracruz de Ignacio de la Llave","countryId":142,"countryCode":"MX","countryName":"Mexico","latitude":"21.01168000","longitude":"-97.94387000","wikiDataId":"Q20206792"},{"id":70043,"name":"El Molino","stateId":3464,"stateCode":"VER","stateName":"Veracruz de Ignacio de la Llave","countryId":142,"countryCode":"MX","countryName":"Mexico","latitude":"21.91602000","longitude":"-98.29885000","wikiDataId":"Q20238151"},{"id":70048,"name":"El Mollejon","stateId":3464,"stateCode":"VER","stateName":"Veracruz de Ignacio de la Llave","countryId":142,"countryCode":"MX","countryName":"Mexico","latitude":"20.54222000","longitude":"-97.41111000","wikiDataId":"Q20223726"},{"id":70056,"name":"El Naranjito","stateId":3464,"stateCode":"VER","stateName":"Veracruz de Ignacio de la Llave","countryId":142,"countryCode":"MX","countryName":"Mexico","latitude":"17.99785000","longitude":"-94.60666000","wikiDataId":"Q20206594"},{"id":70062,"name":"El Nigromante","stateId":3464,"stateCode":"VER","stateName":"Veracruz de Ignacio de la Llave","countryId":142,"countryCode":"MX","countryName":"Mexico","latitude":"17.76472000","longitude":"-95.75722000","wikiDataId":"Q20220862"},{"id":70079,"name":"El Palmar","stateId":3464,"stateCode":"VER","stateName":"Veracruz de Ignacio de la Llave","countryId":142,"countryCode":"MX","countryName":"Mexico","latitude":"18.80330000","longitude":"-96.66560000","wikiDataId":"Q20238188"},{"id":70085,"name":"El Panorama","stateId":3464,"stateCode":"VER","stateName":"Veracruz de Ignacio de la Llave","countryId":142,"countryCode":"MX","countryName":"Mexico","latitude":"20.28918000","longitude":"-97.63554000","wikiDataId":"Q20213439"},{"id":70088,"name":"El Paraíso","stateId":3464,"stateCode":"VER","stateName":"Veracruz de Ignacio de la Llave","countryId":142,"countryCode":"MX","countryName":"Mexico","latitude":"17.51592000","longitude":"-95.14271000","wikiDataId":"Q20223959"},{"id":70092,"name":"El Paraíso (La Charca)","stateId":3464,"stateCode":"VER","stateName":"Veracruz de Ignacio de la Llave","countryId":142,"countryCode":"MX","countryName":"Mexico","latitude":"19.42889000","longitude":"-96.35500000","wikiDataId":"Q20223973"},{"id":70108,"name":"El Pital","stateId":3464,"stateCode":"VER","stateName":"Veracruz de Ignacio de la Llave","countryId":142,"countryCode":"MX","countryName":"Mexico","latitude":"20.15695000","longitude":"-96.89805000","wikiDataId":"Q20253523"},{"id":70117,"name":"El Porvenir","stateId":3464,"stateCode":"VER","stateName":"Veracruz de Ignacio de la Llave","countryId":142,"countryCode":"MX","countryName":"Mexico","latitude":"18.92083000","longitude":"-96.92583000","wikiDataId":"Q20224095"},{"id":70125,"name":"El Potrero","stateId":3464,"stateCode":"VER","stateName":"Veracruz de Ignacio de la Llave","countryId":142,"countryCode":"MX","countryName":"Mexico","latitude":"18.67822000","longitude":"-97.25499000","wikiDataId":"Q20254039"},{"id":70134,"name":"El Progreso","stateId":3464,"stateCode":"VER","stateName":"Veracruz de Ignacio de la Llave","countryId":142,"countryCode":"MX","countryName":"Mexico","latitude":"20.11417000","longitude":"-97.01444000","wikiDataId":"Q20224148"},{"id":70137,"name":"El Pueblito","stateId":3464,"stateCode":"VER","stateName":"Veracruz de Ignacio de la Llave","countryId":142,"countryCode":"MX","countryName":"Mexico","latitude":"18.88639000","longitude":"-96.96946000","wikiDataId":"Q1962054"},{"id":70138,"name":"El Pueblito (Garbanzal)","stateId":3464,"stateCode":"VER","stateName":"Veracruz de Ignacio de la Llave","countryId":142,"countryCode":"MX","countryName":"Mexico","latitude":"19.59389000","longitude":"-96.92417000","wikiDataId":"Q20224156"},{"id":70157,"name":"El Remolino","stateId":3464,"stateCode":"VER","stateName":"Veracruz de Ignacio de la Llave","countryId":142,"countryCode":"MX","countryName":"Mexico","latitude":"20.38921000","longitude":"-97.21213000","wikiDataId":"Q20280633"},{"id":70193,"name":"El Salto de Eyipantla","stateId":3464,"stateCode":"VER","stateName":"Veracruz de Ignacio de la Llave","countryId":142,"countryCode":"MX","countryName":"Mexico","latitude":"18.38954000","longitude":"-95.20285000","wikiDataId":"Q20206883"},{"id":70213,"name":"El Tejar","stateId":3464,"stateCode":"VER","stateName":"Veracruz de Ignacio de la Llave","countryId":142,"countryCode":"MX","countryName":"Mexico","latitude":"19.07433000","longitude":"-96.16097000","wikiDataId":"Q20265947"},{"id":70222,"name":"El Terrero","stateId":3464,"stateCode":"VER","stateName":"Veracruz de Ignacio de la Llave","countryId":142,"countryCode":"MX","countryName":"Mexico","latitude":"19.53709000","longitude":"-96.79907000","wikiDataId":"Q50012188"},{"id":70236,"name":"El Triunfo","stateId":3464,"stateCode":"VER","stateName":"Veracruz de Ignacio de la Llave","countryId":142,"countryCode":"MX","countryName":"Mexico","latitude":"19.42136000","longitude":"-97.22002000","wikiDataId":"Q20228543"},{"id":70243,"name":"El Tulín","stateId":3464,"stateCode":"VER","stateName":"Veracruz de Ignacio de la Llave","countryId":142,"countryCode":"MX","countryName":"Mexico","latitude":"18.24750000","longitude":"-94.95373000","wikiDataId":"Q2990973"},{"id":70258,"name":"El Volador","stateId":3464,"stateCode":"VER","stateName":"Veracruz de Ignacio de la Llave","countryId":142,"countryCode":"MX","countryName":"Mexico","latitude":"20.64294000","longitude":"-97.24885000","wikiDataId":"Q20219114"},{"id":70262,"name":"El Zapote Bravo","stateId":3464,"stateCode":"VER","stateName":"Veracruz de Ignacio de la Llave","countryId":142,"countryCode":"MX","countryName":"Mexico","latitude":"20.66200000","longitude":"-97.99907000","wikiDataId":"Q20219114"},{"id":70271,"name":"Elotepec","stateId":3464,"stateCode":"VER","stateName":"Veracruz de Ignacio de la Llave","countryId":142,"countryCode":"MX","countryName":"Mexico","latitude":"19.18820000","longitude":"-97.03768000","wikiDataId":"Q11077460"},{"id":70290,"name":"Emiliano Zapata","stateId":3464,"stateCode":"VER","stateName":"Veracruz de Ignacio de la Llave","countryId":142,"countryCode":"MX","countryName":"Mexico","latitude":"19.45766000","longitude":"-96.76584000","wikiDataId":"Q5371735"},{"id":70306,"name":"Entabladero","stateId":3464,"stateCode":"VER","stateName":"Veracruz de Ignacio de la Llave","countryId":142,"countryCode":"MX","countryName":"Mexico","latitude":"20.27515000","longitude":"-97.55114000","wikiDataId":"Q1548691"},{"id":70320,"name":"Escolín de Olarte","stateId":3464,"stateCode":"VER","stateName":"Veracruz de Ignacio de la Llave","countryId":142,"countryCode":"MX","countryName":"Mexico","latitude":"20.49840000","longitude":"-97.42336000","wikiDataId":"Q20281581"},{"id":70330,"name":"Espinal","stateId":3464,"stateCode":"VER","stateName":"Veracruz de Ignacio de la Llave","countryId":142,"countryCode":"MX","countryName":"Mexico","latitude":"20.26997000","longitude":"-97.48927000","wikiDataId":"Q8778635"},{"id":70342,"name":"Estación Dobladero","stateId":3464,"stateCode":"VER","stateName":"Veracruz de Ignacio de la Llave","countryId":142,"countryCode":"MX","countryName":"Mexico","latitude":"18.11500000","longitude":"-95.76611000","wikiDataId":"Q20135893"},{"id":70345,"name":"Estación Juanita","stateId":3464,"stateCode":"VER","stateName":"Veracruz de Ignacio de la Llave","countryId":142,"countryCode":"MX","countryName":"Mexico","latitude":"17.80889000","longitude":"-95.21750000","wikiDataId":"Q20135918"},{"id":70365,"name":"Estanzuela","stateId":3464,"stateCode":"VER","stateName":"Veracruz de Ignacio de la Llave","countryId":142,"countryCode":"MX","countryName":"Mexico","latitude":"19.46081000","longitude":"-96.85819000","wikiDataId":"Q20207085"},{"id":70369,"name":"Estero de Milpas","stateId":3464,"stateCode":"VER","stateName":"Veracruz de Ignacio de la Llave","countryId":142,"countryCode":"MX","countryName":"Mexico","latitude":"21.25370000","longitude":"-97.45082000","wikiDataId":"Q20259160"},{"id":70370,"name":"Estero del Ídolo","stateId":3464,"stateCode":"VER","stateName":"Veracruz de Ignacio de la Llave","countryId":142,"countryCode":"MX","countryName":"Mexico","latitude":"20.88953000","longitude":"-97.65878000","wikiDataId":"Q20259160"},{"id":70389,"name":"Ex-hacienda la Concepción","stateId":3464,"stateCode":"VER","stateName":"Veracruz de Ignacio de la Llave","countryId":142,"countryCode":"MX","countryName":"Mexico","latitude":"18.84855000","longitude":"-96.82437000","wikiDataId":"Q20136559"},{"id":70390,"name":"Excola","stateId":3464,"stateCode":"VER","stateName":"Veracruz de Ignacio de la Llave","countryId":142,"countryCode":"MX","countryName":"Mexico","latitude":"19.13876000","longitude":"-97.12251000","wikiDataId":"Q20136559"},{"id":70396,"name":"Felipe Carrillo Puerto","stateId":3464,"stateCode":"VER","stateName":"Veracruz de Ignacio de la Llave","countryId":142,"countryCode":"MX","countryName":"Mexico","latitude":"20.13578000","longitude":"-96.95164000","wikiDataId":"Q1403187"},{"id":70402,"name":"Filomeno Mata","stateId":3464,"stateCode":"VER","stateName":"Veracruz de Ignacio de la Llave","countryId":142,"countryCode":"MX","countryName":"Mexico","latitude":"20.20004000","longitude":"-97.70392000","wikiDataId":"Q20262201"},{"id":70410,"name":"Fortín de las Flores","stateId":3464,"stateCode":"VER","stateName":"Veracruz de Ignacio de la Llave","countryId":142,"countryCode":"MX","countryName":"Mexico","latitude":"18.90806000","longitude":"-97.00000000","wikiDataId":"Q2652472"},{"id":70411,"name":"Fraccionamiento Arboledas San Ramón","stateId":3464,"stateCode":"VER","stateName":"Veracruz de Ignacio de la Llave","countryId":142,"countryCode":"MX","countryName":"Mexico","latitude":"19.09417000","longitude":"-96.15667000","wikiDataId":"Q20266259"},{"id":70413,"name":"Fraccionamiento Ciudad Olmeca","stateId":3464,"stateCode":"VER","stateName":"Veracruz de Ignacio de la Llave","countryId":142,"countryCode":"MX","countryName":"Mexico","latitude":"18.15056000","longitude":"-94.55250000","wikiDataId":"Q20138891"},{"id":70418,"name":"Fraccionamiento Costa Dorada","stateId":3464,"stateCode":"VER","stateName":"Veracruz de Ignacio de la Llave","countryId":142,"countryCode":"MX","countryName":"Mexico","latitude":"19.20833000","longitude":"-96.21639000","wikiDataId":"Q20266261"},{"id":70422,"name":"Fraccionamiento Geovillas los Pinos","stateId":3464,"stateCode":"VER","stateName":"Veracruz de Ignacio de la Llave","countryId":142,"countryCode":"MX","countryName":"Mexico","latitude":"19.21722000","longitude":"-96.22639000","wikiDataId":"Q20269183"},{"id":70450,"name":"Fraccionamiento la Florida","stateId":3464,"stateCode":"VER","stateName":"Veracruz de Ignacio de la Llave","countryId":142,"countryCode":"MX","countryName":"Mexico","latitude":"20.58667000","longitude":"-97.42833000","wikiDataId":"Q20266269"},{"id":70455,"name":"Fraccionamiento las Fuentes","stateId":3464,"stateCode":"VER","stateName":"Veracruz de Ignacio de la Llave","countryId":142,"countryCode":"MX","countryName":"Mexico","latitude":"19.49611000","longitude":"-96.88639000","wikiDataId":"Q20139105"},{"id":70458,"name":"Fraccionamiento los Álamos","stateId":3464,"stateCode":"VER","stateName":"Veracruz de Ignacio de la Llave","countryId":142,"countryCode":"MX","countryName":"Mexico","latitude":"18.92389000","longitude":"-96.97528000","wikiDataId":"Q20139156"},{"id":70457,"name":"Fraccionamiento los Prados","stateId":3464,"stateCode":"VER","stateName":"Veracruz de Ignacio de la Llave","countryId":142,"countryCode":"MX","countryName":"Mexico","latitude":"17.97778000","longitude":"-94.63917000","wikiDataId":"Q20139183"},{"id":70442,"name":"Fraccionamiento Santa Cruz","stateId":3464,"stateCode":"VER","stateName":"Veracruz de Ignacio de la Llave","countryId":142,"countryCode":"MX","countryName":"Mexico","latitude":"17.97194000","longitude":"-94.89500000","wikiDataId":"Q20139388"},{"id":70444,"name":"Fraccionamiento Valle Dorado","stateId":3464,"stateCode":"VER","stateName":"Veracruz de Ignacio de la Llave","countryId":142,"countryCode":"MX","countryName":"Mexico","latitude":"18.86889000","longitude":"-97.12222000","wikiDataId":"Q20266281"},{"id":70447,"name":"Fraccionamiento Villas de la Llave","stateId":3464,"stateCode":"VER","stateName":"Veracruz de Ignacio de la Llave","countryId":142,"countryCode":"MX","countryName":"Mexico","latitude":"18.91583000","longitude":"-96.99111000","wikiDataId":"Q20139449"},{"id":70465,"name":"Francisco I. Madero","stateId":3464,"stateCode":"VER","stateName":"Veracruz de Ignacio de la Llave","countryId":142,"countryCode":"MX","countryName":"Mexico","latitude":"19.52718000","longitude":"-97.27067000","wikiDataId":"Q20266297"},{"id":70487,"name":"Fredepo","stateId":3464,"stateCode":"VER","stateName":"Veracruz de Ignacio de la Llave","countryId":142,"countryCode":"MX","countryName":"Mexico","latitude":"18.88056000","longitude":"-96.97694000","wikiDataId":"Q20140119"},{"id":70500,"name":"Gabino Barreda","stateId":3464,"stateCode":"VER","stateName":"Veracruz de Ignacio de la Llave","countryId":142,"countryCode":"MX","countryName":"Mexico","latitude":"18.17922000","longitude":"-96.09162000","wikiDataId":"Q2445418"},{"id":70525,"name":"General Alatriste (San Joaquín)","stateId":3464,"stateCode":"VER","stateName":"Veracruz de Ignacio de la Llave","countryId":142,"countryCode":"MX","countryName":"Mexico","latitude":"18.84028000","longitude":"-96.79361000","wikiDataId":"Q20269198"},{"id":70536,"name":"General Juan José Baz (San José del Corral)","stateId":3464,"stateCode":"VER","stateName":"Veracruz de Ignacio de la Llave","countryId":142,"countryCode":"MX","countryName":"Mexico","latitude":"18.82167000","longitude":"-96.81806000","wikiDataId":"Q20140902"},{"id":70542,"name":"General Miguel Alemán","stateId":3464,"stateCode":"VER","stateName":"Veracruz de Ignacio de la Llave","countryId":142,"countryCode":"MX","countryName":"Mexico","latitude":"18.89346000","longitude":"-96.79239000","wikiDataId":"Q20239615"},{"id":70570,"name":"Guadalupe","stateId":3464,"stateCode":"VER","stateName":"Veracruz de Ignacio de la Llave","countryId":142,"countryCode":"MX","countryName":"Mexico","latitude":"18.81560000","longitude":"-96.92444000","wikiDataId":"Q10762837"},{"id":70603,"name":"Guadalupe Victoria","stateId":3464,"stateCode":"VER","stateName":"Veracruz de Ignacio de la Llave","countryId":142,"countryCode":"MX","countryName":"Mexico","latitude":"19.55472000","longitude":"-96.96056000","wikiDataId":"Q20269225"},{"id":70624,"name":"Guayalejo","stateId":3464,"stateCode":"VER","stateName":"Veracruz de Ignacio de la Llave","countryId":142,"countryCode":"MX","countryName":"Mexico","latitude":"22.38306000","longitude":"-98.48306000","wikiDataId":"Q20269241"},{"id":70634,"name":"Guillermo Prieto","stateId":3464,"stateCode":"VER","stateName":"Veracruz de Ignacio de la Llave","countryId":142,"countryCode":"MX","countryName":"Mexico","latitude":"18.16077000","longitude":"-94.27658000","wikiDataId":"Q957163"},{"id":70642,"name":"Gutiérrez Zamora","stateId":3464,"stateCode":"VER","stateName":"Veracruz de Ignacio de la Llave","countryId":142,"countryCode":"MX","countryName":"Mexico","latitude":"20.45347000","longitude":"-97.08588000","wikiDataId":"Q27769204"},{"id":70654,"name":"Hacienda Sotavento","stateId":3464,"stateCode":"VER","stateName":"Veracruz de Ignacio de la Llave","countryId":142,"countryCode":"MX","countryName":"Mexico","latitude":"19.13361000","longitude":"-96.18139000","wikiDataId":"Q20225227"},{"id":70665,"name":"Helio García Alfaro","stateId":3464,"stateCode":"VER","stateName":"Veracruz de Ignacio de la Llave","countryId":142,"countryCode":"MX","countryName":"Mexico","latitude":"17.25968000","longitude":"-94.28849000","wikiDataId":"Q2284273"},{"id":70667,"name":"Hermanos Cedillo","stateId":3464,"stateCode":"VER","stateName":"Veracruz de Ignacio de la Llave","countryId":142,"countryCode":"MX","countryName":"Mexico","latitude":"17.25194000","longitude":"-94.61129000","wikiDataId":"Q20283184"},{"id":70671,"name":"Hermenegildo J. Aldana","stateId":3464,"stateCode":"VER","stateName":"Veracruz de Ignacio de la Llave","countryId":142,"countryCode":"MX","countryName":"Mexico","latitude":"18.00611000","longitude":"-94.61222000","wikiDataId":"Q20269271"},{"id":70687,"name":"Hidalgo Amajac","stateId":3464,"stateCode":"VER","stateName":"Veracruz de Ignacio de la Llave","countryId":142,"countryCode":"MX","countryName":"Mexico","latitude":"20.90500000","longitude":"-97.62944000","wikiDataId":"Q20144877"},{"id":70690,"name":"Hidalgotitlán","stateId":3464,"stateCode":"VER","stateName":"Veracruz de Ignacio de la Llave","countryId":142,"countryCode":"MX","countryName":"Mexico","latitude":"17.77051000","longitude":"-94.64703000","wikiDataId":"Q3308449"},{"id":70711,"name":"Hornitos","stateId":3464,"stateCode":"VER","stateName":"Veracruz de Ignacio de la Llave","countryId":142,"countryCode":"MX","countryName":"Mexico","latitude":"19.46083000","longitude":"-96.42111000","wikiDataId":"Q20225290"},{"id":70743,"name":"Huatusco","stateId":3464,"stateCode":"VER","stateName":"Veracruz de Ignacio de la Llave","countryId":142,"countryCode":"MX","countryName":"Mexico","latitude":"19.14876000","longitude":"-96.96760000","wikiDataId":"Q2448188"},{"id":70751,"name":"Huayacanes","stateId":3464,"stateCode":"VER","stateName":"Veracruz de Ignacio de la Llave","countryId":142,"countryCode":"MX","countryName":"Mexico","latitude":"17.91844000","longitude":"-95.27767000","wikiDataId":"Q27769221"},{"id":70752,"name":"Huayacocotla","stateId":3464,"stateCode":"VER","stateName":"Veracruz de Ignacio de la Llave","countryId":142,"countryCode":"MX","countryName":"Mexico","latitude":"20.53671000","longitude":"-98.48080000","wikiDataId":"Q5926420"},{"id":70755,"name":"Huazuntlán","stateId":3464,"stateCode":"VER","stateName":"Veracruz de Ignacio de la Llave","countryId":142,"countryCode":"MX","countryName":"Mexico","latitude":"18.15667000","longitude":"-94.79306000","wikiDataId":"Q20145618"},{"id":70772,"name":"Huexotitla","stateId":3464,"stateCode":"VER","stateName":"Veracruz de Ignacio de la Llave","countryId":142,"countryCode":"MX","countryName":"Mexico","latitude":"20.76984000","longitude":"-98.08872000","wikiDataId":"Q2651175"},{"id":70776,"name":"Hueyapan de Ocampo","stateId":3464,"stateCode":"VER","stateName":"Veracruz de Ignacio de la Llave","countryId":142,"countryCode":"MX","countryName":"Mexico","latitude":"18.14479000","longitude":"-95.14873000","wikiDataId":"Q3847301"},{"id":70784,"name":"Hueytepec","stateId":3464,"stateCode":"VER","stateName":"Veracruz de Ignacio de la Llave","countryId":142,"countryCode":"MX","countryName":"Mexico","latitude":"20.32635000","longitude":"-97.02680000","wikiDataId":"Q20230241"},{"id":70793,"name":"Huiloapan","stateId":3464,"stateCode":"VER","stateName":"Veracruz de Ignacio de la Llave","countryId":142,"countryCode":"MX","countryName":"Mexico","latitude":"18.75000000","longitude":"-97.31667000","wikiDataId":"Q20146462"},{"id":70794,"name":"Huiloapan de Cuauhtémoc","stateId":3464,"stateCode":"VER","stateName":"Veracruz de Ignacio de la Llave","countryId":142,"countryCode":"MX","countryName":"Mexico","latitude":"18.81722000","longitude":"-97.15444000","wikiDataId":"Q3847180"},{"id":70805,"name":"Huitzila","stateId":3464,"stateCode":"VER","stateName":"Veracruz de Ignacio de la Llave","countryId":142,"countryCode":"MX","countryName":"Mexico","latitude":"18.71898000","longitude":"-97.17033000","wikiDataId":"Q27769233"},{"id":70817,"name":"Huixcolotla","stateId":3464,"stateCode":"VER","stateName":"Veracruz de Ignacio de la Llave","countryId":142,"countryCode":"MX","countryName":"Mexico","latitude":"18.66556000","longitude":"-96.49750000","wikiDataId":"Q20225339"},{"id":70860,"name":"Ignacio de la Llave","stateId":3464,"stateCode":"VER","stateName":"Veracruz de Ignacio de la Llave","countryId":142,"countryCode":"MX","countryName":"Mexico","latitude":"18.72580000","longitude":"-95.98696000","wikiDataId":"Q20252795"},{"id":70849,"name":"Ignacio Zaragoza","stateId":3464,"stateCode":"VER","stateName":"Veracruz de Ignacio de la Llave","countryId":142,"countryCode":"MX","countryName":"Mexico","latitude":"19.71222000","longitude":"-97.22500000","wikiDataId":"Q20269318"},{"id":70864,"name":"Ilamatlán","stateId":3464,"stateCode":"VER","stateName":"Veracruz de Ignacio de la Llave","countryId":142,"countryCode":"MX","countryName":"Mexico","latitude":"20.78053000","longitude":"-98.44320000","wikiDataId":"Q3846970"},{"id":70882,"name":"Isla","stateId":3464,"stateCode":"VER","stateName":"Veracruz de Ignacio de la Llave","countryId":142,"countryCode":"MX","countryName":"Mexico","latitude":"18.06369000","longitude":"-95.55320000","wikiDataId":"Q4204016"},{"id":70899,"name":"Ixcapantla","stateId":3464,"stateCode":"VER","stateName":"Veracruz de Ignacio de la Llave","countryId":142,"countryCode":"MX","countryName":"Mexico","latitude":"19.02571000","longitude":"-96.97052000","wikiDataId":"Q6793335"},{"id":70904,"name":"Ixcatepec","stateId":3464,"stateCode":"VER","stateName":"Veracruz de Ignacio de la Llave","countryId":142,"countryCode":"MX","countryName":"Mexico","latitude":"21.23695000","longitude":"-98.00689000","wikiDataId":"Q3846947"},{"id":70905,"name":"Ixcatla","stateId":3464,"stateCode":"VER","stateName":"Veracruz de Ignacio de la Llave","countryId":142,"countryCode":"MX","countryName":"Mexico","latitude":"19.07528000","longitude":"-96.91889000","wikiDataId":"Q20269347"},{"id":70909,"name":"Ixhuacán de los Reyes","stateId":3464,"stateCode":"VER","stateName":"Veracruz de Ignacio de la Llave","countryId":142,"countryCode":"MX","countryName":"Mexico","latitude":"19.35526000","longitude":"-97.11751000","wikiDataId":"Q3888173"},{"id":70910,"name":"Ixhuapan","stateId":3464,"stateCode":"VER","stateName":"Veracruz de Ignacio de la Llave","countryId":142,"countryCode":"MX","countryName":"Mexico","latitude":"18.01333000","longitude":"-94.87667000","wikiDataId":"Q20147927"},{"id":70913,"name":"Ixhuatlán de Madero","stateId":3464,"stateCode":"VER","stateName":"Veracruz de Ignacio de la Llave","countryId":142,"countryCode":"MX","countryName":"Mexico","latitude":"20.68879000","longitude":"-98.01177000","wikiDataId":"Q3846681"},{"id":70914,"name":"Ixhuatlán del Café","stateId":3464,"stateCode":"VER","stateName":"Veracruz de Ignacio de la Llave","countryId":142,"countryCode":"MX","countryName":"Mexico","latitude":"19.04179000","longitude":"-96.92694000","wikiDataId":"Q3846759"},{"id":70915,"name":"Ixhuatlán del Sureste","stateId":3464,"stateCode":"VER","stateName":"Veracruz de Ignacio de la Llave","countryId":142,"countryCode":"MX","countryName":"Mexico","latitude":"18.01368000","longitude":"-94.37794000","wikiDataId":"Q3846842"},{"id":70912,"name":"Ixhuatlancillo","stateId":3464,"stateCode":"VER","stateName":"Veracruz de Ignacio de la Llave","countryId":142,"countryCode":"MX","countryName":"Mexico","latitude":"18.89766000","longitude":"-97.14899000","wikiDataId":"Q3391844"},{"id":70920,"name":"Ixpila","stateId":3464,"stateCode":"VER","stateName":"Veracruz de Ignacio de la Llave","countryId":142,"countryCode":"MX","countryName":"Mexico","latitude":"19.11837000","longitude":"-96.96675000","wikiDataId":"Q4968045"},{"id":70922,"name":"Ixtacapa el Chico","stateId":3464,"stateCode":"VER","stateName":"Veracruz de Ignacio de la Llave","countryId":142,"countryCode":"MX","countryName":"Mexico","latitude":"18.49001000","longitude":"-96.74246000","wikiDataId":"Q2330345"},{"id":70924,"name":"Ixtaczoquitlán","stateId":3464,"stateCode":"VER","stateName":"Veracruz de Ignacio de la Llave","countryId":142,"countryCode":"MX","countryName":"Mexico","latitude":"18.85364000","longitude":"-97.06229000","wikiDataId":"Q2559772"},{"id":70958,"name":"Jacarandas","stateId":3464,"stateCode":"VER","stateName":"Veracruz de Ignacio de la Llave","countryId":142,"countryCode":"MX","countryName":"Mexico","latitude":"19.49556000","longitude":"-96.85278000","wikiDataId":"Q20269353"},{"id":70963,"name":"Jalacingo","stateId":3464,"stateCode":"VER","stateName":"Veracruz de Ignacio de la Llave","countryId":142,"countryCode":"MX","countryName":"Mexico","latitude":"19.80333000","longitude":"-97.30830000","wikiDataId":"Q6125824"},{"id":70967,"name":"Jalapilla","stateId":3464,"stateCode":"VER","stateName":"Veracruz de Ignacio de la Llave","countryId":142,"countryCode":"MX","countryName":"Mexico","latitude":"18.82642000","longitude":"-97.08865000","wikiDataId":"Q20269354"},{"id":70970,"name":"Jalcomulco","stateId":3464,"stateCode":"VER","stateName":"Veracruz de Ignacio de la Llave","countryId":142,"countryCode":"MX","countryName":"Mexico","latitude":"19.33185000","longitude":"-96.76250000","wikiDataId":"Q3845106"},{"id":71148,"name":"Jáltipan de Morelos","stateId":3464,"stateCode":"VER","stateName":"Veracruz de Ignacio de la Llave","countryId":142,"countryCode":"MX","countryName":"Mexico","latitude":"17.96542000","longitude":"-94.71396000","wikiDataId":"Q20230341"},{"id":70997,"name":"Jamapa","stateId":3464,"stateCode":"VER","stateName":"Veracruz de Ignacio de la Llave","countryId":142,"countryCode":"MX","countryName":"Mexico","latitude":"19.04179000","longitude":"-96.24143000","wikiDataId":"Q2447646"},{"id":71022,"name":"Jesús Carranza","stateId":3464,"stateCode":"VER","stateName":"Veracruz de Ignacio de la Llave","countryId":142,"countryCode":"MX","countryName":"Mexico","latitude":"17.43526000","longitude":"-95.02637000","wikiDataId":"Q20225433"},{"id":71044,"name":"Jilotepec","stateId":3464,"stateCode":"VER","stateName":"Veracruz de Ignacio de la Llave","countryId":142,"countryCode":"MX","countryName":"Mexico","latitude":"19.61184000","longitude":"-96.95169000","wikiDataId":"Q20269360"},{"id":71062,"name":"Joachín","stateId":3464,"stateCode":"VER","stateName":"Veracruz de Ignacio de la Llave","countryId":142,"countryCode":"MX","countryName":"Mexico","latitude":"18.63855000","longitude":"-96.23318000","wikiDataId":"Q984646"},{"id":71088,"name":"José Cardel","stateId":3464,"stateCode":"VER","stateName":"Veracruz de Ignacio de la Llave","countryId":142,"countryCode":"MX","countryName":"Mexico","latitude":"19.36810000","longitude":"-96.36951000","wikiDataId":"Q20284654"},{"id":71091,"name":"José F. Gutiérrez","stateId":3464,"stateCode":"VER","stateName":"Veracruz de Ignacio de la Llave","countryId":142,"countryCode":"MX","countryName":"Mexico","latitude":"18.02526000","longitude":"-94.61028000","wikiDataId":"Q4594274"},{"id":71116,"name":"Juan Díaz Covarrubias","stateId":3464,"stateCode":"VER","stateName":"Veracruz de Ignacio de la Llave","countryId":142,"countryCode":"MX","countryName":"Mexico","latitude":"18.15964000","longitude":"-95.18675000","wikiDataId":"Q6299095"},{"id":71120,"name":"Juan Jacobo Torres [Bodega de Totontepec]","stateId":3464,"stateCode":"VER","stateName":"Veracruz de Ignacio de la Llave","countryId":142,"countryCode":"MX","countryName":"Mexico","latitude":"18.33645000","longitude":"-95.26033000","wikiDataId":"Q20269404"},{"id":71122,"name":"Juan Marcos (San José Buenavista)","stateId":3464,"stateCode":"VER","stateName":"Veracruz de Ignacio de la Llave","countryId":142,"countryCode":"MX","countryName":"Mexico","latitude":"19.72917000","longitude":"-97.19667000","wikiDataId":"Q20269406"},{"id":71126,"name":"Juan Rodríguez Clara","stateId":3464,"stateCode":"VER","stateName":"Veracruz de Ignacio de la Llave","countryId":142,"countryCode":"MX","countryName":"Mexico","latitude":"17.99283000","longitude":"-95.40099000","wikiDataId":"Q15153937"},{"id":71131,"name":"Juchique de Ferrer","stateId":3464,"stateCode":"VER","stateName":"Veracruz de Ignacio de la Llave","countryId":142,"countryCode":"MX","countryName":"Mexico","latitude":"19.83985000","longitude":"-96.69463000","wikiDataId":"Q3846692"},{"id":71175,"name":"La Antigua","stateId":3464,"stateCode":"VER","stateName":"Veracruz de Ignacio de la Llave","countryId":142,"countryCode":"MX","countryName":"Mexico","latitude":"19.31619000","longitude":"-96.31736000","wikiDataId":"Q1002990"},{"id":71193,"name":"La Camelia","stateId":3464,"stateCode":"VER","stateName":"Veracruz de Ignacio de la Llave","countryId":142,"countryCode":"MX","countryName":"Mexico","latitude":"20.89631000","longitude":"-97.77247000","wikiDataId":"Q20239236"},{"id":71201,"name":"La Capilla","stateId":3464,"stateCode":"VER","stateName":"Veracruz de Ignacio de la Llave","countryId":142,"countryCode":"MX","countryName":"Mexico","latitude":"18.89442000","longitude":"-96.24132000","wikiDataId":"Q20264226"},{"id":71213,"name":"La Cerquilla","stateId":3464,"stateCode":"VER","stateName":"Veracruz de Ignacio de la Llave","countryId":142,"countryCode":"MX","countryName":"Mexico","latitude":"17.90786000","longitude":"-95.05497000","wikiDataId":"Q20264429"},{"id":71221,"name":"La Colonia Guadalupe","stateId":3464,"stateCode":"VER","stateName":"Veracruz de Ignacio de la Llave","countryId":142,"countryCode":"MX","countryName":"Mexico","latitude":"20.34387000","longitude":"-97.62223000","wikiDataId":"Q20287902"},{"id":71229,"name":"La Concepción","stateId":3464,"stateCode":"VER","stateName":"Veracruz de Ignacio de la Llave","countryId":142,"countryCode":"MX","countryName":"Mexico","latitude":"19.60620000","longitude":"-96.90016000","wikiDataId":"Q20287965"},{"id":71254,"name":"La Cuesta","stateId":3464,"stateCode":"VER","stateName":"Veracruz de Ignacio de la Llave","countryId":142,"countryCode":"MX","countryName":"Mexico","latitude":"18.79028000","longitude":"-97.16806000","wikiDataId":"Q20269663"},{"id":71258,"name":"La Defensa","stateId":3464,"stateCode":"VER","stateName":"Veracruz de Ignacio de la Llave","countryId":142,"countryCode":"MX","countryName":"Mexico","latitude":"20.10507000","longitude":"-96.96079000","wikiDataId":"Q20269680"},{"id":71300,"name":"La Gloria","stateId":3464,"stateCode":"VER","stateName":"Veracruz de Ignacio de la Llave","countryId":142,"countryCode":"MX","countryName":"Mexico","latitude":"19.42631000","longitude":"-96.40211000","wikiDataId":"Q15241114"},{"id":71311,"name":"La Guadalupe","stateId":3464,"stateCode":"VER","stateName":"Veracruz de Ignacio de la Llave","countryId":142,"countryCode":"MX","countryName":"Mexico","latitude":"20.37336000","longitude":"-96.91925000","wikiDataId":"Q20250596"},{"id":71313,"name":"La Guásima","stateId":3464,"stateCode":"VER","stateName":"Veracruz de Ignacio de la Llave","countryId":142,"countryCode":"MX","countryName":"Mexico","latitude":"20.53973000","longitude":"-97.24950000","wikiDataId":"Q20250596"},{"id":71318,"name":"La Horqueta (Poblado Doce)","stateId":3464,"stateCode":"VER","stateName":"Veracruz de Ignacio de la Llave","countryId":142,"countryCode":"MX","countryName":"Mexico","latitude":"17.21012000","longitude":"-94.20249000","wikiDataId":"Q20239725"},{"id":71325,"name":"La Isla","stateId":3464,"stateCode":"VER","stateName":"Veracruz de Ignacio de la Llave","countryId":142,"countryCode":"MX","countryName":"Mexico","latitude":"18.60000000","longitude":"-96.15000000","wikiDataId":"Q20269861"},{"id":71326,"name":"La Isla (Kilómetro 10)","stateId":3464,"stateCode":"VER","stateName":"Veracruz de Ignacio de la Llave","countryId":142,"countryCode":"MX","countryName":"Mexico","latitude":"20.60806000","longitude":"-97.50139000","wikiDataId":"Q20251261"},{"id":71328,"name":"La Isla de Chapachapa","stateId":3464,"stateCode":"VER","stateName":"Veracruz de Ignacio de la Llave","countryId":142,"countryCode":"MX","countryName":"Mexico","latitude":"20.12186000","longitude":"-96.88208000","wikiDataId":"Q20251261"},{"id":71327,"name":"La Isla Km 10","stateId":3464,"stateCode":"VER","stateName":"Veracruz de Ignacio de la Llave","countryId":142,"countryCode":"MX","countryName":"Mexico","latitude":"20.60677000","longitude":"-97.49950000","wikiDataId":"Q20251261"},{"id":71329,"name":"La Joya","stateId":3464,"stateCode":"VER","stateName":"Veracruz de Ignacio de la Llave","countryId":142,"countryCode":"MX","countryName":"Mexico","latitude":"19.61099000","longitude":"-97.02687000","wikiDataId":"Q20269867"},{"id":71335,"name":"La Junta","stateId":3464,"stateCode":"VER","stateName":"Veracruz de Ignacio de la Llave","countryId":142,"countryCode":"MX","countryName":"Mexico","latitude":"18.49136000","longitude":"-96.65720000","wikiDataId":"Q20238842"},{"id":71344,"name":"La Laguna","stateId":3464,"stateCode":"VER","stateName":"Veracruz de Ignacio de la Llave","countryId":142,"countryCode":"MX","countryName":"Mexico","latitude":"19.48214000","longitude":"-96.93366000","wikiDataId":"Q56527491"},{"id":71347,"name":"La Laguna y Monte del Castillo","stateId":3464,"stateCode":"VER","stateName":"Veracruz de Ignacio de la Llave","countryId":142,"countryCode":"MX","countryName":"Mexico","latitude":"18.98334000","longitude":"-96.07806000","wikiDataId":"Q20226680"},{"id":71353,"name":"La Libertad","stateId":3464,"stateCode":"VER","stateName":"Veracruz de Ignacio de la Llave","countryId":142,"countryCode":"MX","countryName":"Mexico","latitude":"20.05345000","longitude":"-96.97314000","wikiDataId":"Q20216167"},{"id":71410,"name":"La Nueva Era","stateId":3464,"stateCode":"VER","stateName":"Veracruz de Ignacio de la Llave","countryId":142,"countryCode":"MX","countryName":"Mexico","latitude":"17.69861000","longitude":"-95.80833000","wikiDataId":"Q20128665"},{"id":71411,"name":"La Nueva Victoria","stateId":3464,"stateCode":"VER","stateName":"Veracruz de Ignacio de la Llave","countryId":142,"countryCode":"MX","countryName":"Mexico","latitude":"18.65639000","longitude":"-95.25806000","wikiDataId":"Q20129072"},{"id":71413,"name":"La Orduña","stateId":3464,"stateCode":"VER","stateName":"Veracruz de Ignacio de la Llave","countryId":142,"countryCode":"MX","countryName":"Mexico","latitude":"19.45141000","longitude":"-96.93598000","wikiDataId":"Q20129072"},{"id":71419,"name":"La Palma","stateId":3464,"stateCode":"VER","stateName":"Veracruz de Ignacio de la Llave","countryId":142,"countryCode":"MX","countryName":"Mexico","latitude":"20.17941000","longitude":"-97.06718000","wikiDataId":"Q20129271"},{"id":71428,"name":"La Palmilla","stateId":3464,"stateCode":"VER","stateName":"Veracruz de Ignacio de la Llave","countryId":142,"countryCode":"MX","countryName":"Mexico","latitude":"20.02041000","longitude":"-97.14553000","wikiDataId":"Q20292994"},{"id":71441,"name":"La Perla","stateId":3464,"stateCode":"VER","stateName":"Veracruz de Ignacio de la Llave","countryId":142,"countryCode":"MX","countryName":"Mexico","latitude":"18.92817000","longitude":"-97.13362000","wikiDataId":"Q20131414"},{"id":71464,"name":"La Providencia","stateId":3464,"stateCode":"VER","stateName":"Veracruz de Ignacio de la Llave","countryId":142,"countryCode":"MX","countryName":"Mexico","latitude":"18.75304000","longitude":"-96.77087000","wikiDataId":"Q20133535"},{"id":71473,"name":"La Reforma","stateId":3464,"stateCode":"VER","stateName":"Veracruz de Ignacio de la Llave","countryId":142,"countryCode":"MX","countryName":"Mexico","latitude":"19.59664000","longitude":"-96.63302000","wikiDataId":"Q7731295"},{"id":71488,"name":"La Sidra","stateId":3464,"stateCode":"VER","stateName":"Veracruz de Ignacio de la Llave","countryId":142,"countryCode":"MX","countryName":"Mexico","latitude":"18.93380000","longitude":"-97.07989000","wikiDataId":"Q20135979"},{"id":71497,"name":"La Sombra","stateId":3464,"stateCode":"VER","stateName":"Veracruz de Ignacio de la Llave","countryId":142,"countryCode":"MX","countryName":"Mexico","latitude":"19.75076000","longitude":"-96.71420000","wikiDataId":"Q20136257"},{"id":71503,"name":"La Tinaja","stateId":3464,"stateCode":"VER","stateName":"Veracruz de Ignacio de la Llave","countryId":142,"countryCode":"MX","countryName":"Mexico","latitude":"18.76082000","longitude":"-96.46283000","wikiDataId":"Q20293791"},{"id":71505,"name":"La Toma","stateId":3464,"stateCode":"VER","stateName":"Veracruz de Ignacio de la Llave","countryId":142,"countryCode":"MX","countryName":"Mexico","latitude":"19.45278000","longitude":"-97.19361000","wikiDataId":"Q20137470"},{"id":71523,"name":"La Unión","stateId":3464,"stateCode":"VER","stateName":"Veracruz de Ignacio de la Llave","countryId":142,"countryCode":"MX","countryName":"Mexico","latitude":"20.89222000","longitude":"-97.66528000","wikiDataId":"Q20138201"},{"id":71525,"name":"La Unión Paso Largo","stateId":3464,"stateCode":"VER","stateName":"Veracruz de Ignacio de la Llave","countryId":142,"countryCode":"MX","countryName":"Mexico","latitude":"20.14224000","longitude":"-96.99995000","wikiDataId":"Q20138180"},{"id":71532,"name":"La Victoria","stateId":3464,"stateCode":"VER","stateName":"Veracruz de Ignacio de la Llave","countryId":142,"countryCode":"MX","countryName":"Mexico","latitude":"18.37486000","longitude":"-95.12213000","wikiDataId":"Q20239873"},{"id":71535,"name":"La Victoria (La Peñita)","stateId":3464,"stateCode":"VER","stateName":"Veracruz de Ignacio de la Llave","countryId":142,"countryCode":"MX","countryName":"Mexico","latitude":"20.93694000","longitude":"-97.37250000","wikiDataId":"Q20139095"},{"id":71547,"name":"Laguna Chica (Pueblo Nuevo)","stateId":3464,"stateCode":"VER","stateName":"Veracruz de Ignacio de la Llave","countryId":142,"countryCode":"MX","countryName":"Mexico","latitude":"18.54306000","longitude":"-96.73306000","wikiDataId":"Q20227219"},{"id":71551,"name":"Laguna de Farfán","stateId":3464,"stateCode":"VER","stateName":"Veracruz de Ignacio de la Llave","countryId":142,"countryCode":"MX","countryName":"Mexico","latitude":"19.80327000","longitude":"-96.64386000","wikiDataId":"Q20227219"},{"id":71560,"name":"Laguneta","stateId":3464,"stateCode":"VER","stateName":"Veracruz de Ignacio de la Llave","countryId":142,"countryCode":"MX","countryName":"Mexico","latitude":"18.34298000","longitude":"-95.15181000","wikiDataId":"Q474420"},{"id":71569,"name":"Landero y Coss","stateId":3464,"stateCode":"VER","stateName":"Veracruz de Ignacio de la Llave","countryId":142,"countryCode":"MX","countryName":"Mexico","latitude":"19.73935000","longitude":"-96.85009000","wikiDataId":"Q3846402"},{"id":71573,"name":"Las Amapolas","stateId":3464,"stateCode":"VER","stateName":"Veracruz de Ignacio de la Llave","countryId":142,"countryCode":"MX","countryName":"Mexico","latitude":"19.15194000","longitude":"-96.19778000","wikiDataId":"Q20141092"},{"id":71577,"name":"Las Barrillas","stateId":3464,"stateCode":"VER","stateName":"Veracruz de Ignacio de la Llave","countryId":142,"countryCode":"MX","countryName":"Mexico","latitude":"18.18617000","longitude":"-94.59542000","wikiDataId":"Q20294885"},{"id":71587,"name":"Las Choapas","stateId":3464,"stateCode":"VER","stateName":"Veracruz de Ignacio de la Llave","countryId":142,"countryCode":"MX","countryName":"Mexico","latitude":"17.91177000","longitude":"-94.09646000","wikiDataId":"Q3847143"},{"id":71602,"name":"Las Higueras","stateId":3464,"stateCode":"VER","stateName":"Veracruz de Ignacio de la Llave","countryId":142,"countryCode":"MX","countryName":"Mexico","latitude":"20.03693000","longitude":"-96.62199000","wikiDataId":"Q20216801"},{"id":71612,"name":"Las Lomas","stateId":3464,"stateCode":"VER","stateName":"Veracruz de Ignacio de la Llave","countryId":142,"countryCode":"MX","countryName":"Mexico","latitude":"20.26067000","longitude":"-97.61528000","wikiDataId":"Q20227388"},{"id":71614,"name":"Las Lomas de Tacamichapan","stateId":3464,"stateCode":"VER","stateName":"Veracruz de Ignacio de la Llave","countryId":142,"countryCode":"MX","countryName":"Mexico","latitude":"17.86611000","longitude":"-94.70833000","wikiDataId":"Q20227387"},{"id":71624,"name":"Las Minas","stateId":3464,"stateCode":"VER","stateName":"Veracruz de Ignacio de la Llave","countryId":142,"countryCode":"MX","countryName":"Mexico","latitude":"19.70449000","longitude":"-97.14699000","wikiDataId":"Q5970594"},{"id":71639,"name":"Las Sabanetas","stateId":3464,"stateCode":"VER","stateName":"Veracruz de Ignacio de la Llave","countryId":142,"countryCode":"MX","countryName":"Mexico","latitude":"18.12661000","longitude":"-95.82265000","wikiDataId":"Q20296680"},{"id":71640,"name":"Las Sabinas","stateId":3464,"stateCode":"VER","stateName":"Veracruz de Ignacio de la Llave","countryId":142,"countryCode":"MX","countryName":"Mexico","latitude":"21.31806000","longitude":"-97.88083000","wikiDataId":"Q20227482"},{"id":71645,"name":"Las Trancas","stateId":3464,"stateCode":"VER","stateName":"Veracruz de Ignacio de la Llave","countryId":142,"countryCode":"MX","countryName":"Mexico","latitude":"19.50444000","longitude":"-96.86444000","wikiDataId":"Q20227492"},{"id":71653,"name":"Las Vigas de Ramírez","stateId":3464,"stateCode":"VER","stateName":"Veracruz de Ignacio de la Llave","countryId":142,"countryCode":"MX","countryName":"Mexico","latitude":"19.63722000","longitude":"-97.09821000","wikiDataId":"Q20227510"},{"id":71900,"name":"Lázaro Cárdenas (Santana)","stateId":3464,"stateCode":"VER","stateName":"Veracruz de Ignacio de la Llave","countryId":142,"countryCode":"MX","countryName":"Mexico","latitude":"20.22500000","longitude":"-97.59306000","wikiDataId":"Q20227519"},{"id":71662,"name":"Lerdo de Tejada","stateId":3464,"stateCode":"VER","stateName":"Veracruz de Ignacio de la Llave","countryId":142,"countryCode":"MX","countryName":"Mexico","latitude":"18.62936000","longitude":"-95.51968000","wikiDataId":"Q20227551"},{"id":71678,"name":"Limones","stateId":3464,"stateCode":"VER","stateName":"Veracruz de Ignacio de la Llave","countryId":142,"countryCode":"MX","countryName":"Mexico","latitude":"19.33820000","longitude":"-96.92336000","wikiDataId":"Q20258442"},{"id":71680,"name":"Lindavista","stateId":3464,"stateCode":"VER","stateName":"Veracruz de Ignacio de la Llave","countryId":142,"countryCode":"MX","countryName":"Mexico","latitude":"18.08899000","longitude":"-95.77597000","wikiDataId":"Q991413"},{"id":71691,"name":"Llano de Enmedio","stateId":3464,"stateCode":"VER","stateName":"Veracruz de Ignacio de la Llave","countryId":142,"countryCode":"MX","countryName":"Mexico","latitude":"20.78328000","longitude":"-98.01364000","wikiDataId":"Q20270009"},{"id":71685,"name":"Llano Grande","stateId":3464,"stateCode":"VER","stateName":"Veracruz de Ignacio de la Llave","countryId":142,"countryCode":"MX","countryName":"Mexico","latitude":"19.37035000","longitude":"-96.88002000","wikiDataId":"Q20208349"},{"id":71711,"name":"Loma Angosta","stateId":3464,"stateCode":"VER","stateName":"Veracruz de Ignacio de la Llave","countryId":142,"countryCode":"MX","countryName":"Mexico","latitude":"18.78309000","longitude":"-96.67588000","wikiDataId":"Q20282672"},{"id":71736,"name":"Loma de los Carmona","stateId":3464,"stateCode":"VER","stateName":"Veracruz de Ignacio de la Llave","countryId":142,"countryCode":"MX","countryName":"Mexico","latitude":"19.10556000","longitude":"-96.39369000","wikiDataId":"Q20208609"},{"id":71732,"name":"Loma de Sogotegoyo","stateId":3464,"stateCode":"VER","stateName":"Veracruz de Ignacio de la Llave","countryId":142,"countryCode":"MX","countryName":"Mexico","latitude":"18.21896000","longitude":"-94.97373000","wikiDataId":"Q20270136"},{"id":71719,"name":"Loma Grande","stateId":3464,"stateCode":"VER","stateName":"Veracruz de Ignacio de la Llave","countryId":142,"countryCode":"MX","countryName":"Mexico","latitude":"18.92250000","longitude":"-97.23083000","wikiDataId":"Q20270191"},{"id":71745,"name":"Lomas de Barrillas","stateId":3464,"stateCode":"VER","stateName":"Veracruz de Ignacio de la Llave","countryId":142,"countryCode":"MX","countryName":"Mexico","latitude":"18.14806000","longitude":"-94.52639000","wikiDataId":"Q20128655"},{"id":71748,"name":"Lomas de Río Medio Cuatro","stateId":3464,"stateCode":"VER","stateName":"Veracruz de Ignacio de la Llave","countryId":142,"countryCode":"MX","countryName":"Mexico","latitude":"19.19333000","longitude":"-96.21056000","wikiDataId":"Q20270218"},{"id":71742,"name":"Lomas Verdes","stateId":3464,"stateCode":"VER","stateName":"Veracruz de Ignacio de la Llave","countryId":142,"countryCode":"MX","countryName":"Mexico","latitude":"19.50446000","longitude":"-96.88899000","wikiDataId":"Q20270224"},{"id":71768,"name":"Los Altos","stateId":3464,"stateCode":"VER","stateName":"Veracruz de Ignacio de la Llave","countryId":142,"countryCode":"MX","countryName":"Mexico","latitude":"21.50976000","longitude":"-97.75705000","wikiDataId":"Q20270237"},{"id":71787,"name":"Los Cerritos","stateId":3464,"stateCode":"VER","stateName":"Veracruz de Ignacio de la Llave","countryId":142,"countryCode":"MX","countryName":"Mexico","latitude":"18.07884000","longitude":"-94.61668000","wikiDataId":"Q20210814"},{"id":71873,"name":"Los Ídolos","stateId":3464,"stateCode":"VER","stateName":"Veracruz de Ignacio de la Llave","countryId":142,"countryCode":"MX","countryName":"Mexico","latitude":"19.41173000","longitude":"-96.51808000","wikiDataId":"Q20208663"},{"id":71810,"name":"Los Lirios","stateId":3464,"stateCode":"VER","stateName":"Veracruz de Ignacio de la Llave","countryId":142,"countryCode":"MX","countryName":"Mexico","latitude":"18.50058000","longitude":"-95.38828000","wikiDataId":"Q20136843"},{"id":71814,"name":"Los Mangos","stateId":3464,"stateCode":"VER","stateName":"Veracruz de Ignacio de la Llave","countryId":142,"countryCode":"MX","countryName":"Mexico","latitude":"18.24361000","longitude":"-95.12222000","wikiDataId":"Q20270389"},{"id":71818,"name":"Los Molinos","stateId":3464,"stateCode":"VER","stateName":"Veracruz de Ignacio de la Llave","countryId":142,"countryCode":"MX","countryName":"Mexico","latitude":"19.59565000","longitude":"-97.21513000","wikiDataId":"Q752460"},{"id":71820,"name":"Los Naranjos","stateId":3464,"stateCode":"VER","stateName":"Veracruz de Ignacio de la Llave","countryId":142,"countryCode":"MX","countryName":"Mexico","latitude":"18.33111000","longitude":"-95.24167000","wikiDataId":"Q20270417"},{"id":71829,"name":"Los Pescados","stateId":3464,"stateCode":"VER","stateName":"Veracruz de Ignacio de la Llave","countryId":142,"countryCode":"MX","countryName":"Mexico","latitude":"19.56114000","longitude":"-97.14848000","wikiDataId":"Q20285655"},{"id":71833,"name":"Los Pinos","stateId":3464,"stateCode":"VER","stateName":"Veracruz de Ignacio de la Llave","countryId":142,"countryCode":"MX","countryName":"Mexico","latitude":"18.44389000","longitude":"-95.24333000","wikiDataId":"Q20270469"},{"id":71846,"name":"Los Reyes","stateId":3464,"stateCode":"VER","stateName":"Veracruz de Ignacio de la Llave","countryId":142,"countryCode":"MX","countryName":"Mexico","latitude":"18.67428000","longitude":"-97.03851000","wikiDataId":"Q5980299"},{"id":71854,"name":"Los Robles","stateId":3464,"stateCode":"VER","stateName":"Veracruz de Ignacio de la Llave","countryId":142,"countryCode":"MX","countryName":"Mexico","latitude":"18.97305000","longitude":"-96.11768000","wikiDataId":"Q992162"},{"id":71864,"name":"Los Tigres (San Marcos)","stateId":3464,"stateCode":"VER","stateName":"Veracruz de Ignacio de la Llave","countryId":142,"countryCode":"MX","countryName":"Mexico","latitude":"17.89056000","longitude":"-95.34944000","wikiDataId":"Q20270513"},{"id":71865,"name":"Los Torrentes","stateId":3464,"stateCode":"VER","stateName":"Veracruz de Ignacio de la Llave","countryId":142,"countryCode":"MX","countryName":"Mexico","latitude":"19.20194000","longitude":"-96.21139000","wikiDataId":"Q20142489"},{"id":71904,"name":"Macedonio Alonso","stateId":3464,"stateCode":"VER","stateName":"Veracruz de Ignacio de la Llave","countryId":142,"countryCode":"MX","countryName":"Mexico","latitude":"20.27417000","longitude":"-97.69194000","wikiDataId":"Q20143687"},{"id":71919,"name":"Mafafas","stateId":3464,"stateCode":"VER","stateName":"Veracruz de Ignacio de la Llave","countryId":142,"countryCode":"MX","countryName":"Mexico","latitude":"19.65866000","longitude":"-96.75591000","wikiDataId":"Q5638036"},{"id":71920,"name":"Magdalena","stateId":3464,"stateCode":"VER","stateName":"Veracruz de Ignacio de la Llave","countryId":142,"countryCode":"MX","countryName":"Mexico","latitude":"18.76066000","longitude":"-97.04385000","wikiDataId":"Q2000139"},