[{"id":85775,"name":"Abramów","stateId":1638,"stateCode":"LU","stateName":"Lublin Voivodeship","countryId":176,"countryCode":"PL","countryName":"Poland","latitude":"51.45647000","longitude":"22.31521000","wikiDataId":"Q2277800"},{"id":85776,"name":"Adamów","stateId":1638,"stateCode":"LU","stateName":"Lublin Voivodeship","countryId":176,"countryCode":"PL","countryName":"Poland","latitude":"51.74335000","longitude":"22.26414000","wikiDataId":"Q2035593"},{"id":85779,"name":"Aleksandrów","stateId":1638,"stateCode":"LU","stateName":"Lublin Voivodeship","countryId":176,"countryCode":"PL","countryName":"Poland","latitude":"50.46630000","longitude":"22.89225000","wikiDataId":"Q2606206"},{"id":85786,"name":"Annopol","stateId":1638,"stateCode":"LU","stateName":"Lublin Voivodeship","countryId":176,"countryCode":"PL","countryName":"Poland","latitude":"50.88551000","longitude":"21.85678000","wikiDataId":"Q567332"},{"id":85804,"name":"Baranów","stateId":1638,"stateCode":"LU","stateName":"Lublin Voivodeship","countryId":176,"countryCode":"PL","countryName":"Poland","latitude":"51.55786000","longitude":"22.13625000","wikiDataId":"Q2147121"},{"id":85818,"name":"Batorz","stateId":1638,"stateCode":"LU","stateName":"Lublin Voivodeship","countryId":176,"countryCode":"PL","countryName":"Poland","latitude":"50.85050000","longitude":"22.49313000","wikiDataId":"Q2185382"},{"id":85831,"name":"Bełżec","stateId":1638,"stateCode":"LU","stateName":"Lublin Voivodeship","countryId":176,"countryCode":"PL","countryName":"Poland","latitude":"50.38453000","longitude":"23.43839000","wikiDataId":"Q2179399"},{"id":85832,"name":"Bełżyce","stateId":1638,"stateCode":"LU","stateName":"Lublin Voivodeship","countryId":176,"countryCode":"PL","countryName":"Poland","latitude":"51.17415000","longitude":"22.28027000","wikiDataId":"Q854624"},{"id":85836,"name":"Biała Podlaska","stateId":1638,"stateCode":"LU","stateName":"Lublin Voivodeship","countryId":176,"countryCode":"PL","countryName":"Poland","latitude":"52.03238000","longitude":"23.11652000","wikiDataId":"Q209932"},{"id":85878,"name":"Biłgoraj","stateId":1638,"stateCode":"LU","stateName":"Lublin Voivodeship","countryId":176,"countryCode":"PL","countryName":"Poland","latitude":"50.54114000","longitude":"22.72204000","wikiDataId":"Q319445"},{"id":85876,"name":"Biszcza","stateId":1638,"stateCode":"LU","stateName":"Lublin Voivodeship","countryId":176,"countryCode":"PL","countryName":"Poland","latitude":"50.40146000","longitude":"22.65063000","wikiDataId":"Q673585"},{"id":85920,"name":"Borki","stateId":1638,"stateCode":"LU","stateName":"Lublin Voivodeship","countryId":176,"countryCode":"PL","countryName":"Poland","latitude":"51.72161000","longitude":"22.52129000","wikiDataId":"Q1005972"},{"id":85928,"name":"Borzechów","stateId":1638,"stateCode":"LU","stateName":"Lublin Voivodeship","countryId":176,"countryCode":"PL","countryName":"Poland","latitude":"51.09258000","longitude":"22.28414000","wikiDataId":"Q2246402"},{"id":85997,"name":"Bychawa","stateId":1638,"stateCode":"LU","stateName":"Lublin Voivodeship","countryId":176,"countryCode":"PL","countryName":"Poland","latitude":"51.01608000","longitude":"22.53296000","wikiDataId":"Q995820"},{"id":86027,"name":"Chełm","stateId":1638,"stateCode":"LU","stateName":"Lublin Voivodeship","countryId":176,"countryCode":"PL","countryName":"Poland","latitude":"51.14312000","longitude":"23.47160000","wikiDataId":"Q234184"},{"id":86045,"name":"Chodel","stateId":1638,"stateCode":"LU","stateName":"Lublin Voivodeship","countryId":176,"countryCode":"PL","countryName":"Poland","latitude":"51.11177000","longitude":"22.13269000","wikiDataId":"Q2264237"},{"id":86061,"name":"Chrzanów","stateId":1638,"stateCode":"LU","stateName":"Lublin Voivodeship","countryId":176,"countryCode":"PL","countryName":"Poland","latitude":"50.77256000","longitude":"22.60351000","wikiDataId":"Q5115091"},{"id":86097,"name":"Cyców","stateId":1638,"stateCode":"LU","stateName":"Lublin Voivodeship","countryId":176,"countryCode":"PL","countryName":"Poland","latitude":"51.29928000","longitude":"23.14124000","wikiDataId":"Q2128677"},{"id":86124,"name":"Czemierniki","stateId":1638,"stateCode":"LU","stateName":"Lublin Voivodeship","countryId":176,"countryCode":"PL","countryName":"Poland","latitude":"51.67298000","longitude":"22.63887000","wikiDataId":"Q2557505"},{"id":86248,"name":"Dęblin","stateId":1638,"stateCode":"LU","stateName":"Lublin Voivodeship","countryId":176,"countryCode":"PL","countryName":"Poland","latitude":"51.55912000","longitude":"21.84829000","wikiDataId":"Q983732"},{"id":86253,"name":"Dębowa Kłoda","stateId":1638,"stateCode":"LU","stateName":"Lublin Voivodeship","countryId":176,"countryCode":"PL","countryName":"Poland","latitude":"51.59446000","longitude":"23.00640000","wikiDataId":"Q3744963"},{"id":86192,"name":"Dołhobyczów","stateId":1638,"stateCode":"LU","stateName":"Lublin Voivodeship","countryId":176,"countryCode":"PL","countryName":"Poland","latitude":"50.58591000","longitude":"24.03594000","wikiDataId":"Q656888"},{"id":86190,"name":"Dorohusk","stateId":1638,"stateCode":"LU","stateName":"Lublin Voivodeship","countryId":176,"countryCode":"PL","countryName":"Poland","latitude":"51.15475000","longitude":"23.80325000","wikiDataId":"Q594248"},{"id":86196,"name":"Drelów","stateId":1638,"stateCode":"LU","stateName":"Lublin Voivodeship","countryId":176,"countryCode":"PL","countryName":"Poland","latitude":"51.91219000","longitude":"22.87165000","wikiDataId":"Q326123"},{"id":86205,"name":"Dubienka","stateId":1638,"stateCode":"LU","stateName":"Lublin Voivodeship","countryId":176,"countryCode":"PL","countryName":"Poland","latitude":"51.04862000","longitude":"23.89252000","wikiDataId":"Q2398279"},{"id":86232,"name":"Dzwola","stateId":1638,"stateCode":"LU","stateName":"Lublin Voivodeship","countryId":176,"countryCode":"PL","countryName":"Poland","latitude":"50.69657000","longitude":"22.56729000","wikiDataId":"Q5320040"},{"id":86267,"name":"Fajsławice","stateId":1638,"stateCode":"LU","stateName":"Lublin Voivodeship","countryId":176,"countryCode":"PL","countryName":"Poland","latitude":"51.09592000","longitude":"22.96323000","wikiDataId":"Q2388556"},{"id":86271,"name":"Firlej","stateId":1638,"stateCode":"LU","stateName":"Lublin Voivodeship","countryId":176,"countryCode":"PL","countryName":"Poland","latitude":"51.55882000","longitude":"22.50841000","wikiDataId":"Q2221577"},{"id":86273,"name":"Frampol","stateId":1638,"stateCode":"LU","stateName":"Lublin Voivodeship","countryId":176,"countryCode":"PL","countryName":"Poland","latitude":"50.67159000","longitude":"22.67061000","wikiDataId":"Q985646"},{"id":86282,"name":"Garbów","stateId":1638,"stateCode":"LU","stateName":"Lublin Voivodeship","countryId":176,"countryCode":"PL","countryName":"Poland","latitude":"51.35517000","longitude":"22.32937000","wikiDataId":"Q948075"},{"id":86320,"name":"Godziszów","stateId":1638,"stateCode":"LU","stateName":"Lublin Voivodeship","countryId":176,"countryCode":"PL","countryName":"Poland","latitude":"50.74889000","longitude":"22.49794000","wikiDataId":"Q2074140"},{"id":86321,"name":"Godziszów Pierwszy","stateId":1638,"stateCode":"LU","stateName":"Lublin Voivodeship","countryId":176,"countryCode":"PL","countryName":"Poland","latitude":"50.75753000","longitude":"22.48386000","wikiDataId":"Q2074140"},{"id":86332,"name":"Goraj","stateId":1638,"stateCode":"LU","stateName":"Lublin Voivodeship","countryId":176,"countryCode":"PL","countryName":"Poland","latitude":"50.72184000","longitude":"22.66651000","wikiDataId":"Q2461391"},{"id":86337,"name":"Gorzków","stateId":1638,"stateCode":"LU","stateName":"Lublin Voivodeship","countryId":176,"countryCode":"PL","countryName":"Poland","latitude":"50.94778000","longitude":"23.01267000","wikiDataId":"Q2313432"},{"id":86360,"name":"Gościeradów","stateId":1638,"stateCode":"LU","stateName":"Lublin Voivodeship","countryId":176,"countryCode":"PL","countryName":"Poland","latitude":"50.86859000","longitude":"22.00536000","wikiDataId":"Q5590445"},{"id":86365,"name":"Grabowiec","stateId":1638,"stateCode":"LU","stateName":"Lublin Voivodeship","countryId":176,"countryCode":"PL","countryName":"Poland","latitude":"50.82090000","longitude":"23.55057000","wikiDataId":"Q2261958"},{"id":86444,"name":"Hańsk","stateId":1638,"stateCode":"LU","stateName":"Lublin Voivodeship","countryId":176,"countryCode":"PL","countryName":"Poland","latitude":"51.41286000","longitude":"23.39942000","wikiDataId":"Q3017017"},{"id":86450,"name":"Horodło","stateId":1638,"stateCode":"LU","stateName":"Lublin Voivodeship","countryId":176,"countryCode":"PL","countryName":"Poland","latitude":"50.89459000","longitude":"24.03723000","wikiDataId":"Q934815"},{"id":86452,"name":"Hrubieszów","stateId":1638,"stateCode":"LU","stateName":"Lublin Voivodeship","countryId":176,"countryCode":"PL","countryName":"Poland","latitude":"50.80502000","longitude":"23.89251000","wikiDataId":"Q924103"},{"id":86468,"name":"Izbica","stateId":1638,"stateCode":"LU","stateName":"Lublin Voivodeship","countryId":176,"countryCode":"PL","countryName":"Poland","latitude":"50.88728000","longitude":"23.15248000","wikiDataId":"Q2039456"},{"id":86486,"name":"Jabłoń","stateId":1638,"stateCode":"LU","stateName":"Lublin Voivodeship","countryId":176,"countryCode":"PL","countryName":"Poland","latitude":"51.72501000","longitude":"23.08743000","wikiDataId":"Q2270968"},{"id":86481,"name":"Jabłonna","stateId":1638,"stateCode":"LU","stateName":"Lublin Voivodeship","countryId":176,"countryCode":"PL","countryName":"Poland","latitude":"51.08875000","longitude":"22.59364000","wikiDataId":"Q1906165"},{"id":86491,"name":"Jakubowice Murowane","stateId":1638,"stateCode":"LU","stateName":"Lublin Voivodeship","countryId":176,"countryCode":"PL","countryName":"Poland","latitude":"51.26992000","longitude":"22.63415000","wikiDataId":"Q2755421"},{"id":86503,"name":"Janów Lubelski","stateId":1638,"stateCode":"LU","stateName":"Lublin Voivodeship","countryId":176,"countryCode":"PL","countryName":"Poland","latitude":"50.70695000","longitude":"22.41039000","wikiDataId":"Q991840"},{"id":86504,"name":"Janów Podlaski","stateId":1638,"stateCode":"LU","stateName":"Lublin Voivodeship","countryId":176,"countryCode":"PL","countryName":"Poland","latitude":"52.19398000","longitude":"23.21218000","wikiDataId":"Q2199195"},{"id":86500,"name":"Janowiec","stateId":1638,"stateCode":"LU","stateName":"Lublin Voivodeship","countryId":176,"countryCode":"PL","countryName":"Poland","latitude":"51.32359000","longitude":"21.88940000","wikiDataId":"Q1682963"},{"id":86506,"name":"Jarczów","stateId":1638,"stateCode":"LU","stateName":"Lublin Voivodeship","countryId":176,"countryCode":"PL","countryName":"Poland","latitude":"50.42438000","longitude":"23.58576000","wikiDataId":"Q2148486"},{"id":86521,"name":"Jastków","stateId":1638,"stateCode":"LU","stateName":"Lublin Voivodeship","countryId":176,"countryCode":"PL","countryName":"Poland","latitude":"51.30411000","longitude":"22.43546000","wikiDataId":"Q2461112"},{"id":86557,"name":"Jeziorzany","stateId":1638,"stateCode":"LU","stateName":"Lublin Voivodeship","countryId":176,"countryCode":"PL","countryName":"Poland","latitude":"51.60245000","longitude":"22.27667000","wikiDataId":"Q744063"},{"id":86575,"name":"Józefów","stateId":1638,"stateCode":"LU","stateName":"Lublin Voivodeship","countryId":176,"countryCode":"PL","countryName":"Poland","latitude":"50.48119000","longitude":"23.05404000","wikiDataId":"Q1025336"},{"id":86577,"name":"Józefów nad Wisłą","stateId":1638,"stateCode":"LU","stateName":"Lublin Voivodeship","countryId":176,"countryCode":"PL","countryName":"Poland","latitude":"51.04183000","longitude":"21.83018000","wikiDataId":"Q2460974"},{"id":86603,"name":"Kamionka","stateId":1638,"stateCode":"LU","stateName":"Lublin Voivodeship","countryId":176,"countryCode":"PL","countryName":"Poland","latitude":"51.47165000","longitude":"22.46275000","wikiDataId":"Q991887"},{"id":86610,"name":"Karczmiska","stateId":1638,"stateCode":"LU","stateName":"Lublin Voivodeship","countryId":176,"countryCode":"PL","countryName":"Poland","latitude":"51.22952000","longitude":"21.98158000","wikiDataId":"Q2234291"},{"id":86626,"name":"Kazimierz Dolny","stateId":1638,"stateCode":"LU","stateName":"Lublin Voivodeship","countryId":176,"countryCode":"PL","countryName":"Poland","latitude":"51.31911000","longitude":"21.95502000","wikiDataId":"Q774098"},{"id":86863,"name":"Kłoczew","stateId":1638,"stateCode":"LU","stateName":"Lublin Voivodeship","countryId":176,"countryCode":"PL","countryName":"Poland","latitude":"51.72134000","longitude":"21.96493000","wikiDataId":"Q2315541"},{"id":86672,"name":"Kock","stateId":1638,"stateCode":"LU","stateName":"Lublin Voivodeship","countryId":176,"countryCode":"PL","countryName":"Poland","latitude":"51.63997000","longitude":"22.44391000","wikiDataId":"Q991819"},{"id":86674,"name":"Kodeń","stateId":1638,"stateCode":"LU","stateName":"Lublin Voivodeship","countryId":176,"countryCode":"PL","countryName":"Poland","latitude":"51.91171000","longitude":"23.60301000","wikiDataId":"Q614142"},{"id":86683,"name":"Komarów-Osada","stateId":1638,"stateCode":"LU","stateName":"Lublin Voivodeship","countryId":176,"countryCode":"PL","countryName":"Poland","latitude":"50.62888000","longitude":"23.47740000","wikiDataId":"Q2648217"},{"id":86684,"name":"Komarówka Podlaska","stateId":1638,"stateCode":"LU","stateName":"Lublin Voivodeship","countryId":176,"countryCode":"PL","countryName":"Poland","latitude":"51.80315000","longitude":"22.94392000","wikiDataId":"Q2436138"},{"id":86751,"name":"Końskowola","stateId":1638,"stateCode":"LU","stateName":"Lublin Voivodeship","countryId":176,"countryCode":"PL","countryName":"Poland","latitude":"51.40922000","longitude":"22.05175000","wikiDataId":"Q1959"},{"id":86697,"name":"Konstantynów","stateId":1638,"stateCode":"LU","stateName":"Lublin Voivodeship","countryId":176,"countryCode":"PL","countryName":"Poland","latitude":"52.20746000","longitude":"23.08530000","wikiDataId":"Q614343"},{"id":86736,"name":"Kozubszczyzna","stateId":1638,"stateCode":"LU","stateName":"Lublin Voivodeship","countryId":176,"countryCode":"PL","countryName":"Poland","latitude":"51.22323000","longitude":"22.42747000","wikiDataId":"Q2691704"},{"id":86776,"name":"Kraśniczyn","stateId":1638,"stateCode":"LU","stateName":"Lublin Voivodeship","countryId":176,"countryCode":"PL","countryName":"Poland","latitude":"50.93171000","longitude":"23.34929000","wikiDataId":"Q2137339"},{"id":86777,"name":"Kraśnik","stateId":1638,"stateCode":"LU","stateName":"Lublin Voivodeship","countryId":176,"countryCode":"PL","countryName":"Poland","latitude":"50.92360000","longitude":"22.22706000","wikiDataId":"Q983723"},{"id":86770,"name":"Krasnobród","stateId":1638,"stateCode":"LU","stateName":"Lublin Voivodeship","countryId":176,"countryCode":"PL","countryName":"Poland","latitude":"50.54551000","longitude":"23.21308000","wikiDataId":"Q999623"},{"id":86773,"name":"Krasnystaw","stateId":1638,"stateCode":"LU","stateName":"Lublin Voivodeship","countryId":176,"countryCode":"PL","countryName":"Poland","latitude":"50.98464000","longitude":"23.17420000","wikiDataId":"Q155088"},{"id":86796,"name":"Krynice","stateId":1638,"stateCode":"LU","stateName":"Lublin Voivodeship","countryId":176,"countryCode":"PL","countryName":"Poland","latitude":"50.58760000","longitude":"23.38157000","wikiDataId":"Q2563569"},{"id":86802,"name":"Krzczonów","stateId":1638,"stateCode":"LU","stateName":"Lublin Voivodeship","countryId":176,"countryCode":"PL","countryName":"Poland","latitude":"51.00727000","longitude":"22.71097000","wikiDataId":"Q2291444"},{"id":86819,"name":"Krzywda","stateId":1638,"stateCode":"LU","stateName":"Lublin Voivodeship","countryId":176,"countryCode":"PL","countryName":"Poland","latitude":"51.79519000","longitude":"22.19994000","wikiDataId":"Q2636567"},{"id":86832,"name":"Księżomierz","stateId":1638,"stateCode":"LU","stateName":"Lublin Voivodeship","countryId":176,"countryCode":"PL","countryName":"Poland","latitude":"50.90855000","longitude":"21.98965000","wikiDataId":"Q3817245"},{"id":86833,"name":"Księżpol","stateId":1638,"stateCode":"LU","stateName":"Lublin Voivodeship","countryId":176,"countryCode":"PL","countryName":"Poland","latitude":"50.42323000","longitude":"22.73526000","wikiDataId":"Q2461121"},{"id":86843,"name":"Kurów","stateId":1638,"stateCode":"LU","stateName":"Lublin Voivodeship","countryId":176,"countryCode":"PL","countryName":"Poland","latitude":"51.38941000","longitude":"22.18637000","wikiDataId":"Q2316"},{"id":86890,"name":"Leśna Podlaska","stateId":1638,"stateCode":"LU","stateName":"Lublin Voivodeship","countryId":176,"countryCode":"PL","countryName":"Poland","latitude":"52.13317000","longitude":"23.02786000","wikiDataId":"Q614327"},{"id":86932,"name":"Lubartów","stateId":1638,"stateCode":"LU","stateName":"Lublin Voivodeship","countryId":176,"countryCode":"PL","countryName":"Poland","latitude":"51.46026000","longitude":"22.60952000","wikiDataId":"Q283885"},{"id":86947,"name":"Lublin","stateId":1638,"stateCode":"LU","stateName":"Lublin Voivodeship","countryId":176,"countryCode":"PL","countryName":"Poland","latitude":"51.25000000","longitude":"22.56667000","wikiDataId":"Q37333"},{"id":86962,"name":"Lubycza Królewska","stateId":1638,"stateCode":"LU","stateName":"Lublin Voivodeship","countryId":176,"countryCode":"PL","countryName":"Poland","latitude":"50.34102000","longitude":"23.51941000","wikiDataId":"Q149111"},{"id":86964,"name":"Ludwin","stateId":1638,"stateCode":"LU","stateName":"Lublin Voivodeship","countryId":176,"countryCode":"PL","countryName":"Poland","latitude":"51.34605000","longitude":"22.90581000","wikiDataId":"Q2460605"},{"id":88757,"name":"Łabunie","stateId":1638,"stateCode":"LU","stateName":"Lublin Voivodeship","countryId":176,"countryCode":"PL","countryName":"Poland","latitude":"50.65517000","longitude":"23.36620000","wikiDataId":"Q2138970"},{"id":88772,"name":"Łaszczów","stateId":1638,"stateCode":"LU","stateName":"Lublin Voivodeship","countryId":176,"countryCode":"PL","countryName":"Poland","latitude":"50.53332000","longitude":"23.72562000","wikiDataId":"Q2167485"},{"id":88773,"name":"Łaziska","stateId":1638,"stateCode":"LU","stateName":"Lublin Voivodeship","countryId":176,"countryCode":"PL","countryName":"Poland","latitude":"51.14226000","longitude":"21.87919000","wikiDataId":"Q2316344"},{"id":88816,"name":"Łęczna","stateId":1638,"stateCode":"LU","stateName":"Lublin Voivodeship","countryId":176,"countryCode":"PL","countryName":"Poland","latitude":"51.30121000","longitude":"22.88135000","wikiDataId":"Q384433"},{"id":88784,"name":"Łomazy","stateId":1638,"stateCode":"LU","stateName":"Lublin Voivodeship","countryId":176,"countryCode":"PL","countryName":"Poland","latitude":"51.90435000","longitude":"23.17656000","wikiDataId":"Q152112"},{"id":88788,"name":"Łopiennik Górny","stateId":1638,"stateCode":"LU","stateName":"Lublin Voivodeship","countryId":176,"countryCode":"PL","countryName":"Poland","latitude":"51.04080000","longitude":"23.01833000","wikiDataId":"Q1895208"},{"id":88805,"name":"Łuków","stateId":1638,"stateCode":"LU","stateName":"Lublin Voivodeship","countryId":176,"countryCode":"PL","countryName":"Poland","latitude":"51.92900000","longitude":"22.37956000","wikiDataId":"Q384244"},{"id":88803,"name":"Łukowa","stateId":1638,"stateCode":"LU","stateName":"Lublin Voivodeship","countryId":176,"countryCode":"PL","countryName":"Poland","latitude":"50.37426000","longitude":"22.94349000","wikiDataId":"Q2460478"},{"id":86996,"name":"Markuszów","stateId":1638,"stateCode":"LU","stateName":"Lublin Voivodeship","countryId":176,"countryCode":"PL","countryName":"Poland","latitude":"51.37457000","longitude":"22.25804000","wikiDataId":"Q735224"},{"id":87014,"name":"Mełgiew","stateId":1638,"stateCode":"LU","stateName":"Lublin Voivodeship","countryId":176,"countryCode":"PL","countryName":"Poland","latitude":"51.22519000","longitude":"22.78414000","wikiDataId":"Q2856331"},{"id":87058,"name":"Miączyn","stateId":1638,"stateCode":"LU","stateName":"Lublin Voivodeship","countryId":176,"countryCode":"PL","countryName":"Poland","latitude":"50.73825000","longitude":"23.50130000","wikiDataId":"Q3197459"},{"id":87022,"name":"Michałów","stateId":1638,"stateCode":"LU","stateName":"Lublin Voivodeship","countryId":176,"countryCode":"PL","countryName":"Poland","latitude":"50.54709000","longitude":"23.60361000","wikiDataId":"Q6835951"},{"id":87025,"name":"Michów","stateId":1638,"stateCode":"LU","stateName":"Lublin Voivodeship","countryId":176,"countryCode":"PL","countryName":"Poland","latitude":"51.52573000","longitude":"22.31435000","wikiDataId":"Q2460527"},{"id":87064,"name":"Międzyrzec Podlaski","stateId":1638,"stateCode":"LU","stateName":"Lublin Voivodeship","countryId":176,"countryCode":"PL","countryName":"Poland","latitude":"51.98640000","longitude":"22.78248000","wikiDataId":"Q34267"},{"id":87046,"name":"Milanów","stateId":1638,"stateCode":"LU","stateName":"Lublin Voivodeship","countryId":176,"countryCode":"PL","countryName":"Poland","latitude":"51.70374000","longitude":"22.88830000","wikiDataId":"Q2112229"},{"id":87049,"name":"Milejów","stateId":1638,"stateCode":"LU","stateName":"Lublin Voivodeship","countryId":176,"countryCode":"PL","countryName":"Poland","latitude":"51.23226000","longitude":"22.92443000","wikiDataId":"Q2429259"},{"id":87052,"name":"Mircze","stateId":1638,"stateCode":"LU","stateName":"Lublin Voivodeship","countryId":176,"countryCode":"PL","countryName":"Poland","latitude":"50.65164000","longitude":"23.89604000","wikiDataId":"Q1965753"},{"id":87081,"name":"Modliborzyce","stateId":1638,"stateCode":"LU","stateName":"Lublin Voivodeship","countryId":176,"countryCode":"PL","countryName":"Poland","latitude":"50.75416000","longitude":"22.32945000","wikiDataId":"Q2460426"},{"id":87143,"name":"Nałęczów","stateId":1638,"stateCode":"LU","stateName":"Lublin Voivodeship","countryId":176,"countryCode":"PL","countryName":"Poland","latitude":"51.28581000","longitude":"22.21539000","wikiDataId":"Q1916952"},{"id":87155,"name":"Niedrzwica Duża","stateId":1638,"stateCode":"LU","stateName":"Lublin Voivodeship","countryId":176,"countryCode":"PL","countryName":"Poland","latitude":"51.11462000","longitude":"22.38911000","wikiDataId":"Q3990648"},{"id":87157,"name":"Niedźwiada","stateId":1638,"stateCode":"LU","stateName":"Lublin Voivodeship","countryId":176,"countryCode":"PL","countryName":"Poland","latitude":"51.54409000","longitude":"22.69140000","wikiDataId":"Q2022205"},{"id":87161,"name":"Nielisz","stateId":1638,"stateCode":"LU","stateName":"Lublin Voivodeship","countryId":176,"countryCode":"PL","countryName":"Poland","latitude":"50.80067000","longitude":"23.04451000","wikiDataId":"Q2258810"},{"id":87162,"name":"Niemce","stateId":1638,"stateCode":"LU","stateName":"Lublin Voivodeship","countryId":176,"countryCode":"PL","countryName":"Poland","latitude":"51.36155000","longitude":"22.63939000","wikiDataId":"Q117729"},{"id":87193,"name":"Nowodwór","stateId":1638,"stateCode":"LU","stateName":"Lublin Voivodeship","countryId":176,"countryCode":"PL","countryName":"Poland","latitude":"51.63901000","longitude":"22.10183000","wikiDataId":"Q593819"},{"id":87222,"name":"Obsza","stateId":1638,"stateCode":"LU","stateName":"Lublin Voivodeship","countryId":176,"countryCode":"PL","countryName":"Poland","latitude":"50.31520000","longitude":"22.95688000","wikiDataId":"Q2618632"},{"id":87263,"name":"Opole Lubelskie","stateId":1638,"stateCode":"LU","stateName":"Lublin Voivodeship","countryId":176,"countryCode":"PL","countryName":"Poland","latitude":"51.14775000","longitude":"21.96897000","wikiDataId":"Q1787507"},{"id":87309,"name":"Ostrów Lubelski","stateId":1638,"stateCode":"LU","stateName":"Lublin Voivodeship","countryId":176,"countryCode":"PL","countryName":"Poland","latitude":"51.49416000","longitude":"22.85287000","wikiDataId":"Q1946017"},{"id":87313,"name":"Ostrówek","stateId":1638,"stateCode":"LU","stateName":"Lublin Voivodeship","countryId":176,"countryCode":"PL","countryName":"Poland","latitude":"51.58150000","longitude":"22.61227000","wikiDataId":"Q630572"},{"id":87347,"name":"Parczew","stateId":1638,"stateCode":"LU","stateName":"Lublin Voivodeship","countryId":176,"countryCode":"PL","countryName":"Poland","latitude":"51.64021000","longitude":"22.90057000","wikiDataId":"Q2343396"},{"id":87370,"name":"Piaski","stateId":1638,"stateCode":"LU","stateName":"Lublin Voivodeship","countryId":176,"countryCode":"PL","countryName":"Poland","latitude":"51.13892000","longitude":"22.84856000","wikiDataId":"Q2720748"},{"id":87399,"name":"Piszczac","stateId":1638,"stateCode":"LU","stateName":"Lublin Voivodeship","countryId":176,"countryCode":"PL","countryName":"Poland","latitude":"51.98118000","longitude":"23.37719000","wikiDataId":"Q2921762"},{"id":87414,"name":"Podedwórze","stateId":1638,"stateCode":"LU","stateName":"Lublin Voivodeship","countryId":176,"countryCode":"PL","countryName":"Poland","latitude":"51.68815000","longitude":"23.19961000","wikiDataId":"Q576442"},{"id":87428,"name":"Pokrówka","stateId":1638,"stateCode":"LU","stateName":"Lublin Voivodeship","countryId":176,"countryCode":"PL","countryName":"Poland","latitude":"51.09479000","longitude":"23.46345000","wikiDataId":"Q2787357"},{"id":87439,"name":"Poniatowa","stateId":1638,"stateCode":"LU","stateName":"Lublin Voivodeship","countryId":176,"countryCode":"PL","countryName":"Poland","latitude":"51.17983000","longitude":"22.13093000","wikiDataId":"Q986912"},{"id":87452,"name":"Potok Górny","stateId":1638,"stateCode":"LU","stateName":"Lublin Voivodeship","countryId":176,"countryCode":"PL","countryName":"Poland","latitude":"50.38477000","longitude":"22.56188000","wikiDataId":"Q2118585"},{"id":87453,"name":"Potok Wielki","stateId":1638,"stateCode":"LU","stateName":"Lublin Voivodeship","countryId":176,"countryCode":"PL","countryName":"Poland","latitude":"50.79150000","longitude":"22.21642000","wikiDataId":"Q1909200"},{"id":87461,"name":"Powiat bialski","stateId":1638,"stateCode":"LU","stateName":"Lublin Voivodeship","countryId":176,"countryCode":"PL","countryName":"Poland","latitude":"51.97222000","longitude":"23.15328000","wikiDataId":"Q910824"},{"id":87469,"name":"Powiat biłgorajski","stateId":1638,"stateCode":"LU","stateName":"Lublin Voivodeship","countryId":176,"countryCode":"PL","countryName":"Poland","latitude":"50.58582000","longitude":"22.79513000","wikiDataId":"Q910918"},{"id":87483,"name":"Powiat chełmski","stateId":1638,"stateCode":"LU","stateName":"Lublin Voivodeship","countryId":176,"countryCode":"PL","countryName":"Poland","latitude":"51.15092000","longitude":"23.38165000","wikiDataId":"Q772520"},{"id":87523,"name":"Powiat hrubieszowski","stateId":1638,"stateCode":"LU","stateName":"Lublin Voivodeship","countryId":176,"countryCode":"PL","countryName":"Poland","latitude":"50.70776000","longitude":"23.86307000","wikiDataId":"Q125413"},{"id":87526,"name":"Powiat janowski","stateId":1638,"stateCode":"LU","stateName":"Lublin Voivodeship","countryId":176,"countryCode":"PL","countryName":"Poland","latitude":"50.74558000","longitude":"22.41147000","wikiDataId":"Q654050"},{"id":87553,"name":"Powiat kraśnicki","stateId":1638,"stateCode":"LU","stateName":"Lublin Voivodeship","countryId":176,"countryCode":"PL","countryName":"Poland","latitude":"50.91535000","longitude":"22.14576000","wikiDataId":"Q1335561"},{"id":87552,"name":"Powiat krasnostawski","stateId":1638,"stateCode":"LU","stateName":"Lublin Voivodeship","countryId":176,"countryCode":"PL","countryName":"Poland","latitude":"50.98486000","longitude":"23.17514000","wikiDataId":"Q772111"},{"id":87574,"name":"Powiat lubartowski","stateId":1638,"stateCode":"LU","stateName":"Lublin Voivodeship","countryId":176,"countryCode":"PL","countryName":"Poland","latitude":"51.53497000","longitude":"22.60585000","wikiDataId":"Q912706"},{"id":87576,"name":"Powiat lubelski","stateId":1638,"stateCode":"LU","stateName":"Lublin Voivodeship","countryId":176,"countryCode":"PL","countryName":"Poland","latitude":"51.13419000","longitude":"22.46654000","wikiDataId":"Q687757"},{"id":87755,"name":"Powiat łęczyński","stateId":1638,"stateCode":"LU","stateName":"Lublin Voivodeship","countryId":176,"countryCode":"PL","countryName":"Poland","latitude":"51.30429000","longitude":"22.96701000","wikiDataId":"Q914769"},{"id":87752,"name":"Powiat łukowski","stateId":1638,"stateCode":"LU","stateName":"Lublin Voivodeship","countryId":176,"countryCode":"PL","countryName":"Poland","latitude":"51.85365000","longitude":"22.24035000","wikiDataId":"Q914615"},{"id":87617,"name":"Powiat opolski","stateId":1638,"stateCode":"LU","stateName":"Lublin Voivodeship","countryId":176,"countryCode":"PL","countryName":"Poland","latitude":"51.12904000","longitude":"22.00944000","wikiDataId":"Q912974"},{"id":87630,"name":"Powiat parczewski","stateId":1638,"stateCode":"LU","stateName":"Lublin Voivodeship","countryId":176,"countryCode":"PL","countryName":"Poland","latitude":"51.59982000","longitude":"22.99629000","wikiDataId":"Q913021"},{"id":87650,"name":"Powiat puławski","stateId":1638,"stateCode":"LU","stateName":"Lublin Voivodeship","countryId":176,"countryCode":"PL","countryName":"Poland","latitude":"51.41853000","longitude":"22.03752000","wikiDataId":"Q913353"},{"id":87659,"name":"Powiat radzyński","stateId":1638,"stateCode":"LU","stateName":"Lublin Voivodeship","countryId":176,"countryCode":"PL","countryName":"Poland","latitude":"51.78255000","longitude":"22.70758000","wikiDataId":"Q913458"},{"id":87664,"name":"Powiat rycki","stateId":1638,"stateCode":"LU","stateName":"Lublin Voivodeship","countryId":176,"countryCode":"PL","countryName":"Poland","latitude":"51.66219000","longitude":"21.92929000","wikiDataId":"Q913563"},{"id":87760,"name":"Powiat świdnicki","stateId":1638,"stateCode":"LU","stateName":"Lublin Voivodeship","countryId":176,"countryCode":"PL","countryName":"Poland","latitude":"51.12470000","longitude":"22.85397000","wikiDataId":"Q915920"},{"id":87706,"name":"Powiat tomaszowski","stateId":1638,"stateCode":"LU","stateName":"Lublin Voivodeship","countryId":176,"countryCode":"PL","countryName":"Poland","latitude":"50.47825000","longitude":"23.52083000","wikiDataId":"Q913630"},{"id":87734,"name":"Powiat włodawski","stateId":1638,"stateCode":"LU","stateName":"Lublin Voivodeship","countryId":176,"countryCode":"PL","countryName":"Poland","latitude":"51.52267000","longitude":"23.38279000","wikiDataId":"Q855537"},{"id":87737,"name":"Powiat zamojski","stateId":1638,"stateCode":"LU","stateName":"Lublin Voivodeship","countryId":176,"countryCode":"PL","countryName":"Poland","latitude":"50.69160000","longitude":"23.21261000","wikiDataId":"Q1125749"},{"id":87832,"name":"Przytoczno","stateId":1638,"stateCode":"LU","stateName":"Lublin Voivodeship","countryId":176,"countryCode":"PL","countryName":"Poland","latitude":"51.61951000","longitude":"22.27135000","wikiDataId":"Q7253733"},{"id":87846,"name":"Puchaczów","stateId":1638,"stateCode":"LU","stateName":"Lublin Voivodeship","countryId":176,"countryCode":"PL","countryName":"Poland","latitude":"51.31050000","longitude":"22.97370000","wikiDataId":"Q749523"},{"id":87851,"name":"Puławy","stateId":1638,"stateCode":"LU","stateName":"Lublin Voivodeship","countryId":176,"countryCode":"PL","countryName":"Poland","latitude":"51.41655000","longitude":"21.96939000","wikiDataId":"Q320007"},{"id":87871,"name":"Rachanie","stateId":1638,"stateCode":"LU","stateName":"Lublin Voivodeship","countryId":176,"countryCode":"PL","countryName":"Poland","latitude":"50.53842000","longitude":"23.54688000","wikiDataId":"Q2056520"},{"id":87879,"name":"Radecznica","stateId":1638,"stateCode":"LU","stateName":"Lublin Voivodeship","countryId":176,"countryCode":"PL","countryName":"Poland","latitude":"50.75155000","longitude":"22.82976000","wikiDataId":"Q7280081"},{"id":87904,"name":"Radzyń Podlaski","stateId":1638,"stateCode":"LU","stateName":"Lublin Voivodeship","countryId":176,"countryCode":"PL","countryName":"Poland","latitude":"51.78333000","longitude":"22.61667000","wikiDataId":"Q983866"},{"id":87933,"name":"Rejowiec","stateId":1638,"stateCode":"LU","stateName":"Lublin Voivodeship","countryId":176,"countryCode":"PL","countryName":"Poland","latitude":"51.09134000","longitude":"23.28192000","wikiDataId":"Q2459184"},{"id":87934,"name":"Rejowiec Fabryczny","stateId":1638,"stateCode":"LU","stateName":"Lublin Voivodeship","countryId":176,"countryCode":"PL","countryName":"Poland","latitude":"51.11414000","longitude":"23.24724000","wikiDataId":"Q1906301"},{"id":87951,"name":"Rogóźno","stateId":1638,"stateCode":"LU","stateName":"Lublin Voivodeship","countryId":176,"countryCode":"PL","countryName":"Poland","latitude":"50.46417000","longitude":"23.39041000","wikiDataId":"Q7359635"},{"id":87958,"name":"Rokitno","stateId":1638,"stateCode":"LU","stateName":"Lublin Voivodeship","countryId":176,"countryCode":"PL","countryName":"Poland","latitude":"52.12142000","longitude":"23.29514000","wikiDataId":"Q554945"},{"id":87972,"name":"Ruda-Huta","stateId":1638,"stateCode":"LU","stateName":"Lublin Voivodeship","countryId":176,"countryCode":"PL","countryName":"Poland","latitude":"51.23666000","longitude":"23.59486000","wikiDataId":"Q2662840"},{"id":87978,"name":"Rudnik","stateId":1638,"stateCode":"LU","stateName":"Lublin Voivodeship","countryId":176,"countryCode":"PL","countryName":"Poland","latitude":"50.88035000","longitude":"22.97293000","wikiDataId":"Q606218"},{"id":87992,"name":"Rybczewice","stateId":1638,"stateCode":"LU","stateName":"Lublin Voivodeship","countryId":176,"countryCode":"PL","countryName":"Poland","latitude":"51.02876000","longitude":"22.85053000","wikiDataId":"Q2690632"},{"id":88008,"name":"Ryki","stateId":1638,"stateCode":"LU","stateName":"Lublin Voivodeship","countryId":176,"countryCode":"PL","countryName":"Poland","latitude":"51.62574000","longitude":"21.93274000","wikiDataId":"Q1922307"},{"id":88018,"name":"Rzeczyca","stateId":1638,"stateCode":"LU","stateName":"Lublin Voivodeship","countryId":176,"countryCode":"PL","countryName":"Poland","latitude":"51.96225000","longitude":"22.74942000","wikiDataId":"Q2459493"},{"id":88053,"name":"Sawin","stateId":1638,"stateCode":"LU","stateName":"Lublin Voivodeship","countryId":176,"countryCode":"PL","countryName":"Poland","latitude":"51.27443000","longitude":"23.43375000","wikiDataId":"Q2459599"},{"id":88056,"name":"Serniki","stateId":1638,"stateCode":"LU","stateName":"Lublin Voivodeship","countryId":176,"countryCode":"PL","countryName":"Poland","latitude":"51.43716000","longitude":"22.65853000","wikiDataId":"Q2459599"},{"id":88058,"name":"Serokomla","stateId":1638,"stateCode":"LU","stateName":"Lublin Voivodeship","countryId":176,"countryCode":"PL","countryName":"Poland","latitude":"51.70070000","longitude":"22.33237000","wikiDataId":"Q569838"},{"id":88074,"name":"Siemień","stateId":1638,"stateCode":"LU","stateName":"Lublin Voivodeship","countryId":176,"countryCode":"PL","countryName":"Poland","latitude":"51.62883000","longitude":"22.77243000","wikiDataId":"Q129973"},{"id":88082,"name":"Siennica Różana","stateId":1638,"stateCode":"LU","stateName":"Lublin Voivodeship","countryId":176,"countryCode":"PL","countryName":"Poland","latitude":"51.00123000","longitude":"23.32260000","wikiDataId":"Q2561328"},{"id":88094,"name":"Sitno","stateId":1638,"stateCode":"LU","stateName":"Lublin Voivodeship","countryId":176,"countryCode":"PL","countryName":"Poland","latitude":"50.74944000","longitude":"23.36260000","wikiDataId":"Q989846"},{"id":88106,"name":"Skierbieszów","stateId":1638,"stateCode":"LU","stateName":"Lublin Voivodeship","countryId":176,"countryCode":"PL","countryName":"Poland","latitude":"50.85158000","longitude":"23.35917000","wikiDataId":"Q1932465"},{"id":88335,"name":"Sławatycze","stateId":1638,"stateCode":"LU","stateName":"Lublin Voivodeship","countryId":176,"countryCode":"PL","countryName":"Poland","latitude":"51.76338000","longitude":"23.55460000","wikiDataId":"Q834490"},{"id":88150,"name":"Sosnowica","stateId":1638,"stateCode":"LU","stateName":"Lublin Voivodeship","countryId":176,"countryCode":"PL","countryName":"Poland","latitude":"51.52065000","longitude":"23.09215000","wikiDataId":"Q2274514"},{"id":88153,"name":"Sosnówka","stateId":1638,"stateCode":"LU","stateName":"Lublin Voivodeship","countryId":176,"countryCode":"PL","countryName":"Poland","latitude":"51.75084000","longitude":"23.33814000","wikiDataId":"Q2480947"},{"id":88161,"name":"Spiczyn","stateId":1638,"stateCode":"LU","stateName":"Lublin Voivodeship","countryId":176,"countryCode":"PL","countryName":"Poland","latitude":"51.34128000","longitude":"22.75354000","wikiDataId":"Q597884"},{"id":88197,"name":"Stary Zamość","stateId":1638,"stateCode":"LU","stateName":"Lublin Voivodeship","countryId":176,"countryCode":"PL","countryName":"Poland","latitude":"50.82004000","longitude":"23.17154000","wikiDataId":"Q2661870"},{"id":88244,"name":"Stężyca","stateId":1638,"stateCode":"LU","stateName":"Lublin Voivodeship","countryId":176,"countryCode":"PL","countryName":"Poland","latitude":"51.58187000","longitude":"21.77087000","wikiDataId":"Q638725"},{"id":88206,"name":"Stoczek Łukowski","stateId":1638,"stateCode":"LU","stateName":"Lublin Voivodeship","countryId":176,"countryCode":"PL","countryName":"Poland","latitude":"51.96135000","longitude":"21.97137000","wikiDataId":"Q219106"},{"id":88234,"name":"Strzyżowice","stateId":1638,"stateCode":"LU","stateName":"Lublin Voivodeship","countryId":176,"countryCode":"PL","countryName":"Poland","latitude":"51.04830000","longitude":"22.44018000","wikiDataId":"Q577473"},{"id":88273,"name":"Sułów","stateId":1638,"stateCode":"LU","stateName":"Lublin Voivodeship","countryId":176,"countryCode":"PL","countryName":"Poland","latitude":"50.90661000","longitude":"22.36061000","wikiDataId":"Q7636868"},{"id":88266,"name":"Susiec","stateId":1638,"stateCode":"LU","stateName":"Lublin Voivodeship","countryId":176,"countryCode":"PL","countryName":"Poland","latitude":"50.41973000","longitude":"23.19626000","wikiDataId":"Q2297696"},{"id":88843,"name":"Świdnik","stateId":1638,"stateCode":"LU","stateName":"Lublin Voivodeship","countryId":176,"countryCode":"PL","countryName":"Poland","latitude":"51.21898000","longitude":"22.69621000","wikiDataId":"Q8082073"},{"id":88288,"name":"Szastarka","stateId":1638,"stateCode":"LU","stateName":"Lublin Voivodeship","countryId":176,"countryCode":"PL","countryName":"Poland","latitude":"50.85527000","longitude":"22.31971000","wikiDataId":"Q1921688"},{"id":88292,"name":"Szczebrzeszyn","stateId":1638,"stateCode":"LU","stateName":"Lublin Voivodeship","countryId":176,"countryCode":"PL","countryName":"Poland","latitude":"50.69499000","longitude":"22.97954000","wikiDataId":"Q436"},{"id":88358,"name":"Tarnawatka","stateId":1638,"stateCode":"LU","stateName":"Lublin Voivodeship","countryId":176,"countryCode":"PL","countryName":"Poland","latitude":"50.53154000","longitude":"23.39590000","wikiDataId":"Q2036732"},{"id":88360,"name":"Tarnogród","stateId":1638,"stateCode":"LU","stateName":"Lublin Voivodeship","countryId":176,"countryCode":"PL","countryName":"Poland","latitude":"50.36090000","longitude":"22.74174000","wikiDataId":"Q777169"},{"id":88371,"name":"Telatyn","stateId":1638,"stateCode":"LU","stateName":"Lublin Voivodeship","countryId":176,"countryCode":"PL","countryName":"Poland","latitude":"50.52712000","longitude":"23.83956000","wikiDataId":"Q2402868"},{"id":88374,"name":"Terespol","stateId":1638,"stateCode":"LU","stateName":"Lublin Voivodeship","countryId":176,"countryCode":"PL","countryName":"Poland","latitude":"52.07550000","longitude":"23.61614000","wikiDataId":"Q218897"},{"id":88375,"name":"Tereszpol","stateId":1638,"stateCode":"LU","stateName":"Lublin Voivodeship","countryId":176,"countryCode":"PL","countryName":"Poland","latitude":"50.58373000","longitude":"22.87980000","wikiDataId":"Q3209644"},{"id":88379,"name":"Tomaszów Lubelski","stateId":1638,"stateCode":"LU","stateName":"Lublin Voivodeship","countryId":176,"countryCode":"PL","countryName":"Poland","latitude":"50.44767000","longitude":"23.41616000","wikiDataId":"Q911009"},{"id":88388,"name":"Trawniki","stateId":1638,"stateCode":"LU","stateName":"Lublin Voivodeship","countryId":176,"countryCode":"PL","countryName":"Poland","latitude":"51.13633000","longitude":"22.99816000","wikiDataId":"Q153096"},{"id":88405,"name":"Trzebieszów","stateId":1638,"stateCode":"LU","stateName":"Lublin Voivodeship","countryId":176,"countryCode":"PL","countryName":"Poland","latitude":"51.99006000","longitude":"22.55502000","wikiDataId":"Q1917218"},{"id":88413,"name":"Trzydnik Duży","stateId":1638,"stateCode":"LU","stateName":"Lublin Voivodeship","countryId":176,"countryCode":"PL","countryName":"Poland","latitude":"50.84887000","longitude":"22.13359000","wikiDataId":"Q667199"},{"id":88425,"name":"Turobin","stateId":1638,"stateCode":"LU","stateName":"Lublin Voivodeship","countryId":176,"countryCode":"PL","countryName":"Poland","latitude":"50.82367000","longitude":"22.74273000","wikiDataId":"Q2595900"},{"id":88443,"name":"Tyszowce","stateId":1638,"stateCode":"LU","stateName":"Lublin Voivodeship","countryId":176,"countryCode":"PL","countryName":"Poland","latitude":"50.61699000","longitude":"23.69927000","wikiDataId":"Q1946027"},{"id":88454,"name":"Ulhówek","stateId":1638,"stateCode":"LU","stateName":"Lublin Voivodeship","countryId":176,"countryCode":"PL","countryName":"Poland","latitude":"50.44969000","longitude":"23.79956000","wikiDataId":"Q2793686"},{"id":88466,"name":"Ułęż","stateId":1638,"stateCode":"LU","stateName":"Lublin Voivodeship","countryId":176,"countryCode":"PL","countryName":"Poland","latitude":"51.59195000","longitude":"22.10741000","wikiDataId":"Q1940909"},{"id":88459,"name":"Urszulin","stateId":1638,"stateCode":"LU","stateName":"Lublin Voivodeship","countryId":176,"countryCode":"PL","countryName":"Poland","latitude":"51.39390000","longitude":"23.19480000","wikiDataId":"Q1280107"},{"id":88461,"name":"Urzędów","stateId":1638,"stateCode":"LU","stateName":"Lublin Voivodeship","countryId":176,"countryCode":"PL","countryName":"Poland","latitude":"50.99323000","longitude":"22.14260000","wikiDataId":"Q2044194"},{"id":88468,"name":"Uścimów Stary","stateId":1638,"stateCode":"LU","stateName":"Lublin Voivodeship","countryId":176,"countryCode":"PL","countryName":"Poland","latitude":"51.46962000","longitude":"22.95516000","wikiDataId":"Q1940909"},{"id":88637,"name":"Wąwolnica","stateId":1638,"stateCode":"LU","stateName":"Lublin Voivodeship","countryId":176,"countryCode":"PL","countryName":"Poland","latitude":"51.29467000","longitude":"22.14681000","wikiDataId":"Q2303915"},{"id":88491,"name":"Werbkowice","stateId":1638,"stateCode":"LU","stateName":"Lublin Voivodeship","countryId":176,"countryCode":"PL","countryName":"Poland","latitude":"50.75373000","longitude":"23.76411000","wikiDataId":"Q2608922"},{"id":88540,"name":"Wilkołaz","stateId":1638,"stateCode":"LU","stateName":"Lublin Voivodeship","countryId":176,"countryCode":"PL","countryName":"Poland","latitude":"51.01473000","longitude":"22.35014000","wikiDataId":"Q2832384"},{"id":88541,"name":"Wilków","stateId":1638,"stateCode":"LU","stateName":"Lublin Voivodeship","countryId":176,"countryCode":"PL","countryName":"Poland","latitude":"51.26224000","longitude":"21.87756000","wikiDataId":"Q2832384"},{"id":88546,"name":"Wisznice","stateId":1638,"stateCode":"LU","stateName":"Lublin Voivodeship","countryId":176,"countryCode":"PL","countryName":"Poland","latitude":"51.78924000","longitude":"23.20836000","wikiDataId":"Q655956"},{"id":88650,"name":"Włodawa","stateId":1638,"stateCode":"LU","stateName":"Lublin Voivodeship","countryId":176,"countryCode":"PL","countryName":"Poland","latitude":"51.55000000","longitude":"23.55000000","wikiDataId":"Q751076"},{"id":88570,"name":"Wohyń","stateId":1638,"stateCode":"LU","stateName":"Lublin Voivodeship","countryId":176,"countryCode":"PL","countryName":"Poland","latitude":"51.75642000","longitude":"22.78582000","wikiDataId":"Q321946"},{"id":88573,"name":"Wojciechów","stateId":1638,"stateCode":"LU","stateName":"Lublin Voivodeship","countryId":176,"countryCode":"PL","countryName":"Poland","latitude":"51.23543000","longitude":"22.24551000","wikiDataId":"Q2335641"},{"id":88574,"name":"Wojcieszków","stateId":1638,"stateCode":"LU","stateName":"Lublin Voivodeship","countryId":176,"countryCode":"PL","countryName":"Poland","latitude":"51.76922000","longitude":"22.31589000","wikiDataId":"Q2879227"},{"id":88579,"name":"Wojsławice","stateId":1638,"stateCode":"LU","stateName":"Lublin Voivodeship","countryId":176,"countryCode":"PL","countryName":"Poland","latitude":"50.91916000","longitude":"23.54602000","wikiDataId":"Q2212388"},{"id":88589,"name":"Wola Sernicka","stateId":1638,"stateCode":"LU","stateName":"Lublin Voivodeship","countryId":176,"countryCode":"PL","countryName":"Poland","latitude":"51.44978000","longitude":"22.68351000","wikiDataId":"Q9377601"},{"id":88590,"name":"Wola Uhruska","stateId":1638,"stateCode":"LU","stateName":"Lublin Voivodeship","countryId":176,"countryCode":"PL","countryName":"Poland","latitude":"51.32139000","longitude":"23.62627000","wikiDataId":"Q819176"},{"id":88621,"name":"Wysokie","stateId":1638,"stateCode":"LU","stateName":"Lublin Voivodeship","countryId":176,"countryCode":"PL","countryName":"Poland","latitude":"50.91093000","longitude":"22.66600000","wikiDataId":"Q8040563"},{"id":88678,"name":"Zakrzew","stateId":1638,"stateCode":"LU","stateName":"Lublin Voivodeship","countryId":176,"countryCode":"PL","countryName":"Poland","latitude":"50.89004000","longitude":"22.59115000","wikiDataId":"Q2534290"},{"id":88682,"name":"Zakrzówek","stateId":1638,"stateCode":"LU","stateName":"Lublin Voivodeship","countryId":176,"countryCode":"PL","countryName":"Poland","latitude":"50.95124000","longitude":"22.38138000","wikiDataId":"Q2458228"},{"id":88691,"name":"Zamch","stateId":1638,"stateCode":"LU","stateName":"Lublin Voivodeship","countryId":176,"countryCode":"PL","countryName":"Poland","latitude":"50.31713000","longitude":"23.02786000","wikiDataId":"Q3574721"},{"id":88692,"name":"Zamość","stateId":1638,"stateCode":"LU","stateName":"Lublin Voivodeship","countryId":176,"countryCode":"PL","countryName":"Poland","latitude":"50.72314000","longitude":"23.25196000","wikiDataId":"Q145972"},{"id":88903,"name":"Żółkiewka","stateId":1638,"stateCode":"LU","stateName":"Lublin Voivodeship","countryId":176,"countryCode":"PL","countryName":"Poland","latitude":"50.90991000","longitude":"22.83465000","wikiDataId":"Q393275"},{"id":88735,"name":"Zwierzyniec","stateId":1638,"stateCode":"LU","stateName":"Lublin Voivodeship","countryId":176,"countryCode":"PL","countryName":"Poland","latitude":"50.61400000","longitude":"22.97512000","wikiDataId":"Q1946056"},{"id":88900,"name":"Żyrzyn","stateId":1638,"stateCode":"LU","stateName":"Lublin Voivodeship","countryId":176,"countryCode":"PL","countryName":"Poland","latitude":"51.49918000","longitude":"22.09170000","wikiDataId":"Q1971654"}]