[{"id":97510,"name":"Afonino","stateId":1857,"stateCode":"NIZ","stateName":"Nizhny Novgorod Oblast","countryId":182,"countryCode":"RU","countryName":"Russia","latitude":"56.26201000","longitude":"44.09503000","wikiDataId":"Q4072790"},{"id":97691,"name":"Ar’ya","stateId":1857,"stateCode":"NIZ","stateName":"Nizhny Novgorod Oblast","countryId":182,"countryCode":"RU","countryName":"Russia","latitude":"57.49146000","longitude":"45.96691000","wikiDataId":"Q704844"},{"id":97655,"name":"Ardatov","stateId":1857,"stateCode":"NIZ","stateName":"Nizhny Novgorod Oblast","countryId":182,"countryCode":"RU","countryName":"Russia","latitude":"55.24205000","longitude":"43.09699000","wikiDataId":"Q905459"},{"id":97657,"name":"Ardatovskiy Rayon","stateId":1857,"stateCode":"NIZ","stateName":"Nizhny Novgorod Oblast","countryId":182,"countryCode":"RU","countryName":"Russia","latitude":"55.25000000","longitude":"43.08333000","wikiDataId":"Q3266296"},{"id":97688,"name":"Arzamas","stateId":1857,"stateCode":"NIZ","stateName":"Nizhny Novgorod Oblast","countryId":182,"countryCode":"RU","countryName":"Russia","latitude":"55.39485000","longitude":"43.83992000","wikiDataId":"Q103789"},{"id":97689,"name":"Arzamasskiy Rayon","stateId":1857,"stateCode":"NIZ","stateName":"Nizhny Novgorod Oblast","countryId":182,"countryCode":"RU","countryName":"Russia","latitude":"55.33333000","longitude":"43.75000000","wikiDataId":"Q1650986"},{"id":97741,"name":"Babino","stateId":1857,"stateCode":"NIZ","stateName":"Nizhny Novgorod Oblast","countryId":182,"countryCode":"RU","countryName":"Russia","latitude":"56.22564000","longitude":"43.62380000","wikiDataId":"Q4074348"},{"id":97954,"name":"Blizhne-Pesochnoye","stateId":1857,"stateCode":"NIZ","stateName":"Nizhny Novgorod Oblast","countryId":182,"countryCode":"RU","countryName":"Russia","latitude":"55.34560000","longitude":"42.10150000","wikiDataId":"Q4088108"},{"id":97968,"name":"Bogorodsk","stateId":1857,"stateCode":"NIZ","stateName":"Nizhny Novgorod Oblast","countryId":182,"countryCode":"RU","countryName":"Russia","latitude":"56.10513000","longitude":"43.51294000","wikiDataId":"Q105243"},{"id":97969,"name":"Bogorodskiy Rayon","stateId":1857,"stateCode":"NIZ","stateName":"Nizhny Novgorod Oblast","countryId":182,"countryCode":"RU","countryName":"Russia","latitude":"56.08333000","longitude":"43.50000000","wikiDataId":"Q3641599"},{"id":98003,"name":"Bol’sheboldinskiy Rayon","stateId":1857,"stateCode":"NIZ","stateName":"Nizhny Novgorod Oblast","countryId":182,"countryCode":"RU","countryName":"Russia","latitude":"55.00000000","longitude":"45.25000000","wikiDataId":"Q3014094"},{"id":98012,"name":"Bol’shoye Boldino","stateId":1857,"stateCode":"NIZ","stateName":"Nizhny Novgorod Oblast","countryId":182,"countryCode":"RU","countryName":"Russia","latitude":"55.00588000","longitude":"45.31419000","wikiDataId":"Q4092262"},{"id":98014,"name":"Bol’shoye Kozino","stateId":1857,"stateCode":"NIZ","stateName":"Nizhny Novgorod Oblast","countryId":182,"countryCode":"RU","countryName":"Russia","latitude":"56.40397000","longitude":"43.71424000","wikiDataId":"Q31918357"},{"id":98015,"name":"Bol’shoye Murashkino","stateId":1857,"stateCode":"NIZ","stateName":"Nizhny Novgorod Oblast","countryId":182,"countryCode":"RU","countryName":"Russia","latitude":"55.78261000","longitude":"44.77541000","wikiDataId":"Q31918374"},{"id":98019,"name":"Bor","stateId":1857,"stateCode":"NIZ","stateName":"Nizhny Novgorod Oblast","countryId":182,"countryCode":"RU","countryName":"Russia","latitude":"56.35808000","longitude":"44.07477000","wikiDataId":"Q105360"},{"id":98021,"name":"Bor Urban Okrug","stateId":1857,"stateCode":"NIZ","stateName":"Nizhny Novgorod Oblast","countryId":182,"countryCode":"RU","countryName":"Russia","latitude":"56.35325000","longitude":"44.09010000","wikiDataId":"Q37961753"},{"id":98078,"name":"Burevestnik","stateId":1857,"stateCode":"NIZ","stateName":"Nizhny Novgorod Oblast","countryId":182,"countryCode":"RU","countryName":"Russia","latitude":"56.14403000","longitude":"43.78832000","wikiDataId":"Q34784552"},{"id":98087,"name":"Buturlino","stateId":1857,"stateCode":"NIZ","stateName":"Nizhny Novgorod Oblast","countryId":182,"countryCode":"RU","countryName":"Russia","latitude":"55.56673000","longitude":"44.89738000","wikiDataId":"Q34788085"},{"id":98175,"name":"Chernukha","stateId":1857,"stateCode":"NIZ","stateName":"Nizhny Novgorod Oblast","countryId":182,"countryCode":"RU","countryName":"Russia","latitude":"55.59739000","longitude":"43.75560000","wikiDataId":"Q34792630"},{"id":98202,"name":"Chistoye","stateId":1857,"stateCode":"NIZ","stateName":"Nizhny Novgorod Oblast","countryId":182,"countryCode":"RU","countryName":"Russia","latitude":"56.53753000","longitude":"43.00445000","wikiDataId":"Q34793138"},{"id":98206,"name":"Chkalovsk","stateId":1857,"stateCode":"NIZ","stateName":"Nizhny Novgorod Oblast","countryId":182,"countryCode":"RU","countryName":"Russia","latitude":"56.76776000","longitude":"43.25135000","wikiDataId":"Q198125"},{"id":98239,"name":"Dal’nekonstantinovskiy Rayon","stateId":1857,"stateCode":"NIZ","stateName":"Nizhny Novgorod Oblast","countryId":182,"countryCode":"RU","countryName":"Russia","latitude":"55.83333000","longitude":"44.08333000","wikiDataId":"Q3700969"},{"id":98240,"name":"Dal’neye Konstantinovo","stateId":1857,"stateCode":"NIZ","stateName":"Nizhny Novgorod Oblast","countryId":182,"countryCode":"RU","countryName":"Russia","latitude":"55.81025000","longitude":"44.09595000","wikiDataId":"Q4154261"},{"id":98278,"name":"Diveyevo","stateId":1857,"stateCode":"NIZ","stateName":"Nizhny Novgorod Oblast","countryId":182,"countryCode":"RU","countryName":"Russia","latitude":"55.04329000","longitude":"43.24178000","wikiDataId":"Q3711923"},{"id":98322,"name":"Doschatoye","stateId":1857,"stateCode":"NIZ","stateName":"Nizhny Novgorod Oblast","countryId":182,"countryCode":"RU","countryName":"Russia","latitude":"55.38860000","longitude":"42.10320000","wikiDataId":"Q37783764"},{"id":98367,"name":"Dzerzhinsk","stateId":1857,"stateCode":"NIZ","stateName":"Nizhny Novgorod Oblast","countryId":182,"countryCode":"RU","countryName":"Russia","latitude":"56.24143000","longitude":"43.45539000","wikiDataId":"Q76493"},{"id":98436,"name":"Frolishchi","stateId":1857,"stateCode":"NIZ","stateName":"Nizhny Novgorod Oblast","countryId":182,"countryCode":"RU","countryName":"Russia","latitude":"56.42177000","longitude":"42.65187000","wikiDataId":"Q37785268"},{"id":98448,"name":"Gagino","stateId":1857,"stateCode":"NIZ","stateName":"Nizhny Novgorod Oblast","countryId":182,"countryCode":"RU","countryName":"Russia","latitude":"55.23142000","longitude":"45.03386000","wikiDataId":"Q37785381"},{"id":98488,"name":"Gidrotorf","stateId":1857,"stateCode":"NIZ","stateName":"Nizhny Novgorod Oblast","countryId":182,"countryCode":"RU","countryName":"Russia","latitude":"56.47562000","longitude":"43.53813000","wikiDataId":"Q3266286"},{"id":98517,"name":"Gorbatov","stateId":1857,"stateCode":"NIZ","stateName":"Nizhny Novgorod Oblast","countryId":182,"countryCode":"RU","countryName":"Russia","latitude":"56.13110000","longitude":"43.06363000","wikiDataId":"Q134473"},{"id":98518,"name":"Gorbatovka","stateId":1857,"stateCode":"NIZ","stateName":"Nizhny Novgorod Oblast","countryId":182,"countryCode":"RU","countryName":"Russia","latitude":"56.25716000","longitude":"43.74577000","wikiDataId":"Q4119306"},{"id":98558,"name":"Gorodets","stateId":1857,"stateCode":"NIZ","stateName":"Nizhny Novgorod Oblast","countryId":182,"countryCode":"RU","countryName":"Russia","latitude":"56.65493000","longitude":"43.47273000","wikiDataId":"Q134506"},{"id":98559,"name":"Gorodetskiy Rayon","stateId":1857,"stateCode":"NIZ","stateName":"Nizhny Novgorod Oblast","countryId":182,"countryCode":"RU","countryName":"Russia","latitude":"56.75000000","longitude":"43.75000000","wikiDataId":"Q1642240"},{"id":98585,"name":"Gremyachevo","stateId":1857,"stateCode":"NIZ","stateName":"Nizhny Novgorod Oblast","countryId":182,"countryCode":"RU","countryName":"Russia","latitude":"55.39193000","longitude":"43.02734000","wikiDataId":"Q4148340"},{"id":98648,"name":"Ilyinogorsk","stateId":1857,"stateCode":"NIZ","stateName":"Nizhny Novgorod Oblast","countryId":182,"countryCode":"RU","countryName":"Russia","latitude":"56.22775000","longitude":"42.95385000","wikiDataId":"Q12074231"},{"id":98662,"name":"Imeni M. I. Kalinina","stateId":1857,"stateCode":"NIZ","stateName":"Nizhny Novgorod Oblast","countryId":182,"countryCode":"RU","countryName":"Russia","latitude":"56.17926000","longitude":"44.33098000","wikiDataId":"Q4413937"},{"id":98666,"name":"Imeni Stepana Razina","stateId":1857,"stateCode":"NIZ","stateName":"Nizhny Novgorod Oblast","countryId":182,"countryCode":"RU","countryName":"Russia","latitude":"54.89320000","longitude":"44.29627000","wikiDataId":"Q37808059"},{"id":99114,"name":"Knyaginino","stateId":1857,"stateCode":"NIZ","stateName":"Nizhny Novgorod Oblast","countryId":182,"countryCode":"RU","countryName":"Russia","latitude":"55.82278000","longitude":"45.03489000","wikiDataId":"Q153734"},{"id":99254,"name":"Kovernino","stateId":1857,"stateCode":"NIZ","stateName":"Nizhny Novgorod Oblast","countryId":182,"countryCode":"RU","countryName":"Russia","latitude":"57.12818000","longitude":"43.81350000","wikiDataId":"Q35700938"},{"id":99279,"name":"Krasnaya Gorka","stateId":1857,"stateCode":"NIZ","stateName":"Nizhny Novgorod Oblast","countryId":182,"countryCode":"RU","countryName":"Russia","latitude":"55.38666000","longitude":"46.10925000","wikiDataId":"Q35702183"},{"id":99330,"name":"Krasnooktyabr’skiy Rayon","stateId":1857,"stateCode":"NIZ","stateName":"Nizhny Novgorod Oblast","countryId":182,"countryCode":"RU","countryName":"Russia","latitude":"55.33333000","longitude":"45.58333000","wikiDataId":"Q1958573"},{"id":99381,"name":"Krasnyye Baki","stateId":1857,"stateCode":"NIZ","stateName":"Nizhny Novgorod Oblast","countryId":182,"countryCode":"RU","countryName":"Russia","latitude":"57.13100000","longitude":"45.15992000","wikiDataId":"Q4239312"},{"id":99411,"name":"Kstovo","stateId":1857,"stateCode":"NIZ","stateName":"Nizhny Novgorod Oblast","countryId":182,"countryCode":"RU","countryName":"Russia","latitude":"56.14733000","longitude":"44.19787000","wikiDataId":"Q155893"},{"id":99430,"name":"Kulebaki","stateId":1857,"stateCode":"NIZ","stateName":"Nizhny Novgorod Oblast","countryId":182,"countryCode":"RU","countryName":"Russia","latitude":"55.41333000","longitude":"42.53250000","wikiDataId":"Q155963"},{"id":99630,"name":"Linda","stateId":1857,"stateCode":"NIZ","stateName":"Nizhny Novgorod Oblast","countryId":182,"countryCode":"RU","countryName":"Russia","latitude":"56.61571000","longitude":"44.09544000","wikiDataId":"Q35717258"},{"id":99687,"name":"Lukino","stateId":1857,"stateCode":"NIZ","stateName":"Nizhny Novgorod Oblast","countryId":182,"countryCode":"RU","countryName":"Russia","latitude":"56.44183000","longitude":"43.62932000","wikiDataId":"Q35721001"},{"id":99690,"name":"Lukoyanov","stateId":1857,"stateCode":"NIZ","stateName":"Nizhny Novgorod Oblast","countryId":182,"countryCode":"RU","countryName":"Russia","latitude":"55.02772000","longitude":"44.47865000","wikiDataId":"Q146372"},{"id":99691,"name":"Lukoyanovskiy Rayon","stateId":1857,"stateCode":"NIZ","stateName":"Nizhny Novgorod Oblast","countryId":182,"countryCode":"RU","countryName":"Russia","latitude":"55.00000000","longitude":"44.50000000","wikiDataId":"Q1652732"},{"id":99707,"name":"Lyskovo","stateId":1857,"stateCode":"NIZ","stateName":"Nizhny Novgorod Oblast","countryId":182,"countryCode":"RU","countryName":"Russia","latitude":"56.03282000","longitude":"45.04220000","wikiDataId":"Q157764"},{"id":99999,"name":"Mukhtolovo","stateId":1857,"stateCode":"NIZ","stateName":"Nizhny Novgorod Oblast","countryId":182,"countryCode":"RU","countryName":"Russia","latitude":"55.46751000","longitude":"43.19973000","wikiDataId":"Q3266284"},{"id":100000,"name":"Mulino","stateId":1857,"stateCode":"NIZ","stateName":"Nizhny Novgorod Oblast","countryId":182,"countryCode":"RU","countryName":"Russia","latitude":"56.28923000","longitude":"42.92005000","wikiDataId":"Q35735605"},{"id":100070,"name":"Navashino","stateId":1857,"stateCode":"NIZ","stateName":"Nizhny Novgorod Oblast","countryId":182,"countryCode":"RU","countryName":"Russia","latitude":"55.54410000","longitude":"42.19680000","wikiDataId":"Q163845"},{"id":100089,"name":"Neklyudovo","stateId":1857,"stateCode":"NIZ","stateName":"Nizhny Novgorod Oblast","countryId":182,"countryCode":"RU","countryName":"Russia","latitude":"56.41421000","longitude":"43.97721000","wikiDataId":"Q4316537"},{"id":100173,"name":"Nizhniy Novgorod","stateId":1857,"stateCode":"NIZ","stateName":"Nizhny Novgorod Oblast","countryId":182,"countryCode":"RU","countryName":"Russia","latitude":"56.32867000","longitude":"44.00205000","wikiDataId":"Q891"},{"id":100199,"name":"Novaya Balakhna","stateId":1857,"stateCode":"NIZ","stateName":"Nizhny Novgorod Oblast","countryId":182,"countryCode":"RU","countryName":"Russia","latitude":"56.48989000","longitude":"43.60114000","wikiDataId":"Q104559"},{"id":100308,"name":"Novosmolinskiy","stateId":1857,"stateCode":"NIZ","stateName":"Nizhny Novgorod Oblast","countryId":182,"countryCode":"RU","countryName":"Russia","latitude":"56.28410000","longitude":"43.05071000","wikiDataId":"Q18793526"},{"id":100533,"name":"Pamyat’ Parizhskoy Kommuny","stateId":1857,"stateCode":"NIZ","stateName":"Nizhny Novgorod Oblast","countryId":182,"countryCode":"RU","countryName":"Russia","latitude":"56.10480000","longitude":"44.49520000","wikiDataId":"Q37959348"},{"id":100570,"name":"Pavlovo","stateId":1857,"stateCode":"NIZ","stateName":"Nizhny Novgorod Oblast","countryId":182,"countryCode":"RU","countryName":"Russia","latitude":"55.96860000","longitude":"43.09120000","wikiDataId":"Q177839"},{"id":100578,"name":"Pavlovskiy Rayon","stateId":1857,"stateCode":"NIZ","stateName":"Nizhny Novgorod Oblast","countryId":182,"countryCode":"RU","countryName":"Russia","latitude":"56.00000000","longitude":"43.00000000","wikiDataId":"Q905450"},{"id":100609,"name":"Perevoz","stateId":1857,"stateCode":"NIZ","stateName":"Nizhny Novgorod Oblast","countryId":182,"countryCode":"RU","countryName":"Russia","latitude":"55.59613000","longitude":"44.54461000","wikiDataId":"Q178152"},{"id":100614,"name":"Pervomaysk","stateId":1857,"stateCode":"NIZ","stateName":"Nizhny Novgorod Oblast","countryId":182,"countryCode":"RU","countryName":"Russia","latitude":"54.86890000","longitude":"43.80272000","wikiDataId":"Q37959194"},{"id":100616,"name":"Pervomayskiy","stateId":1857,"stateCode":"NIZ","stateName":"Nizhny Novgorod Oblast","countryId":182,"countryCode":"RU","countryName":"Russia","latitude":"56.61474000","longitude":"43.35825000","wikiDataId":"Q37959182"},{"id":100630,"name":"Pervoye Maya","stateId":1857,"stateCode":"NIZ","stateName":"Nizhny Novgorod Oblast","countryId":182,"countryCode":"RU","countryName":"Russia","latitude":"56.16403000","longitude":"44.71955000","wikiDataId":"Q37959736"},{"id":100672,"name":"Pil’na","stateId":1857,"stateCode":"NIZ","stateName":"Nizhny Novgorod Oblast","countryId":182,"countryCode":"RU","countryName":"Russia","latitude":"55.55394000","longitude":"45.92194000","wikiDataId":"Q37959085"},{"id":100673,"name":"Pil’ninskiy Rayon","stateId":1857,"stateCode":"NIZ","stateName":"Nizhny Novgorod Oblast","countryId":182,"countryCode":"RU","countryName":"Russia","latitude":"55.58333000","longitude":"45.91667000","wikiDataId":"Q1654652"},{"id":100692,"name":"Pizhma","stateId":1857,"stateCode":"NIZ","stateName":"Nizhny Novgorod Oblast","countryId":182,"countryCode":"RU","countryName":"Russia","latitude":"57.86418000","longitude":"47.11714000","wikiDataId":"Q37959052"},{"id":100708,"name":"Pochinki","stateId":1857,"stateCode":"NIZ","stateName":"Nizhny Novgorod Oblast","countryId":182,"countryCode":"RU","countryName":"Russia","latitude":"54.69875000","longitude":"44.86678000","wikiDataId":"Q2106536"},{"id":100709,"name":"Pochinkovskiy Rayon","stateId":1857,"stateCode":"NIZ","stateName":"Nizhny Novgorod Oblast","countryId":182,"countryCode":"RU","countryName":"Russia","latitude":"54.66667000","longitude":"44.83333000","wikiDataId":"Q3909788"},{"id":100723,"name":"Podnov’ye","stateId":1857,"stateCode":"NIZ","stateName":"Nizhny Novgorod Oblast","countryId":182,"countryCode":"RU","countryName":"Russia","latitude":"56.30610000","longitude":"44.09244000","wikiDataId":"Q4367919"},{"id":100874,"name":"Prudy","stateId":1857,"stateCode":"NIZ","stateName":"Nizhny Novgorod Oblast","countryId":182,"countryCode":"RU","countryName":"Russia","latitude":"57.57380000","longitude":"46.27176000","wikiDataId":"Q37958776"},{"id":100891,"name":"Purekh","stateId":1857,"stateCode":"NIZ","stateName":"Nizhny Novgorod Oblast","countryId":182,"countryCode":"RU","countryName":"Russia","latitude":"56.64684000","longitude":"43.06772000","wikiDataId":"Q37958738"},{"id":100914,"name":"Pyra","stateId":1857,"stateCode":"NIZ","stateName":"Nizhny Novgorod Oblast","countryId":182,"countryCode":"RU","countryName":"Russia","latitude":"56.29527000","longitude":"43.35274000","wikiDataId":"Q7263204"},{"id":100921,"name":"Rabotki","stateId":1857,"stateCode":"NIZ","stateName":"Nizhny Novgorod Oblast","countryId":182,"countryCode":"RU","countryName":"Russia","latitude":"56.04147000","longitude":"44.60265000","wikiDataId":"Q37959549"},{"id":100964,"name":"Reshetikha","stateId":1857,"stateCode":"NIZ","stateName":"Nizhny Novgorod Oblast","countryId":182,"countryCode":"RU","countryName":"Russia","latitude":"56.21566000","longitude":"43.28802000","wikiDataId":"Q37958628"},{"id":101122,"name":"Sarov","stateId":1857,"stateCode":"NIZ","stateName":"Nizhny Novgorod Oblast","countryId":182,"countryCode":"RU","countryName":"Russia","latitude":"54.93583000","longitude":"43.32352000","wikiDataId":"Q193522"},{"id":101131,"name":"Satis","stateId":1857,"stateCode":"NIZ","stateName":"Nizhny Novgorod Oblast","countryId":182,"countryCode":"RU","countryName":"Russia","latitude":"54.92290000","longitude":"43.22977000","wikiDataId":"Q37958230"},{"id":101134,"name":"Savasleyka","stateId":1857,"stateCode":"NIZ","stateName":"Nizhny Novgorod Oblast","countryId":182,"countryCode":"RU","countryName":"Russia","latitude":"55.46060000","longitude":"42.32070000","wikiDataId":"Q37958221"},{"id":101145,"name":"Sechenovo","stateId":1857,"stateCode":"NIZ","stateName":"Nizhny Novgorod Oblast","countryId":182,"countryCode":"RU","countryName":"Russia","latitude":"55.22444000","longitude":"45.89056000","wikiDataId":"Q37958180"},{"id":101146,"name":"Sechenovskiy Rayon","stateId":1857,"stateCode":"NIZ","stateName":"Nizhny Novgorod Oblast","countryId":182,"countryCode":"RU","countryName":"Russia","latitude":"55.16667000","longitude":"45.91667000","wikiDataId":"Q1654623"},{"id":101169,"name":"Semënov","stateId":1857,"stateCode":"NIZ","stateName":"Nizhny Novgorod Oblast","countryId":182,"countryCode":"RU","countryName":"Russia","latitude":"56.78749000","longitude":"44.49297000","wikiDataId":"Q193936"},{"id":101179,"name":"Sergach","stateId":1857,"stateCode":"NIZ","stateName":"Nizhny Novgorod Oblast","countryId":182,"countryCode":"RU","countryName":"Russia","latitude":"55.53079000","longitude":"45.46611000","wikiDataId":"Q194030"},{"id":101180,"name":"Sergachskiy Rayon","stateId":1857,"stateCode":"NIZ","stateName":"Nizhny Novgorod Oblast","countryId":182,"countryCode":"RU","countryName":"Russia","latitude":"55.58333000","longitude":"45.50000000","wikiDataId":"Q1654853"},{"id":101242,"name":"Shakhun’ya","stateId":1857,"stateCode":"NIZ","stateName":"Nizhny Novgorod Oblast","countryId":182,"countryCode":"RU","countryName":"Russia","latitude":"57.67579000","longitude":"46.61136000","wikiDataId":"Q198210"},{"id":101259,"name":"Sharanga","stateId":1857,"stateCode":"NIZ","stateName":"Nizhny Novgorod Oblast","countryId":182,"countryCode":"RU","countryName":"Russia","latitude":"57.17749000","longitude":"46.53956000","wikiDataId":"Q4520403"},{"id":101260,"name":"Sharangskiy Rayon","stateId":1857,"stateCode":"NIZ","stateName":"Nizhny Novgorod Oblast","countryId":182,"countryCode":"RU","countryName":"Russia","latitude":"57.08333000","longitude":"46.41667000","wikiDataId":"Q1655429"},{"id":101268,"name":"Shatki","stateId":1857,"stateCode":"NIZ","stateName":"Nizhny Novgorod Oblast","countryId":182,"countryCode":"RU","countryName":"Russia","latitude":"55.18874000","longitude":"44.12486000","wikiDataId":"Q4520899"},{"id":101320,"name":"Shimorskoye","stateId":1857,"stateCode":"NIZ","stateName":"Nizhny Novgorod Oblast","countryId":182,"countryCode":"RU","countryName":"Russia","latitude":"55.32810000","longitude":"42.02560000","wikiDataId":"Q37957732"},{"id":101380,"name":"Sitniki","stateId":1857,"stateCode":"NIZ","stateName":"Nizhny Novgorod Oblast","countryId":182,"countryCode":"RU","countryName":"Russia","latitude":"56.45529000","longitude":"44.06658000","wikiDataId":"Q37957545"},{"id":101419,"name":"Smolino","stateId":1857,"stateCode":"NIZ","stateName":"Nizhny Novgorod Oblast","countryId":182,"countryCode":"RU","countryName":"Russia","latitude":"56.27526000","longitude":"43.09109000","wikiDataId":"Q37957477"},{"id":101443,"name":"Sokol’skoye","stateId":1857,"stateCode":"NIZ","stateName":"Nizhny Novgorod Oblast","countryId":182,"countryCode":"RU","countryName":"Russia","latitude":"57.14122000","longitude":"43.15895000","wikiDataId":"Q37957428"},{"id":101495,"name":"Sosnovskiy Rayon","stateId":1857,"stateCode":"NIZ","stateName":"Nizhny Novgorod Oblast","countryId":182,"countryCode":"RU","countryName":"Russia","latitude":"55.75000000","longitude":"43.25000000","wikiDataId":"Q3965141"},{"id":101497,"name":"Sosnovskoye","stateId":1857,"stateCode":"NIZ","stateName":"Nizhny Novgorod Oblast","countryId":182,"countryCode":"RU","countryName":"Russia","latitude":"55.80549000","longitude":"43.16791000","wikiDataId":"Q3965143"},{"id":101530,"name":"Spasskiy Rayon","stateId":1857,"stateCode":"NIZ","stateName":"Nizhny Novgorod Oblast","countryId":182,"countryCode":"RU","countryName":"Russia","latitude":"55.83333000","longitude":"45.75000000","wikiDataId":"Q3966067"},{"id":101533,"name":"Spasskoye","stateId":1857,"stateCode":"NIZ","stateName":"Nizhny Novgorod Oblast","countryId":182,"countryCode":"RU","countryName":"Russia","latitude":"55.86048000","longitude":"45.69695000","wikiDataId":"Q37957248"},{"id":101651,"name":"Sukhobezvodnoye","stateId":1857,"stateCode":"NIZ","stateName":"Nizhny Novgorod Oblast","countryId":182,"countryCode":"RU","countryName":"Russia","latitude":"57.04913000","longitude":"44.88909000","wikiDataId":"Q37956959"},{"id":101679,"name":"Surovatikha","stateId":1857,"stateCode":"NIZ","stateName":"Nizhny Novgorod Oblast","countryId":182,"countryCode":"RU","countryName":"Russia","latitude":"55.76516000","longitude":"43.89845000","wikiDataId":"Q37956866"},{"id":101720,"name":"Syava","stateId":1857,"stateCode":"NIZ","stateName":"Nizhny Novgorod Oblast","countryId":182,"countryCode":"RU","countryName":"Russia","latitude":"58.01457000","longitude":"46.32216000","wikiDataId":"Q37956729"},{"id":101773,"name":"Taremskoye","stateId":1857,"stateCode":"NIZ","stateName":"Nizhny Novgorod Oblast","countryId":182,"countryCode":"RU","countryName":"Russia","latitude":"55.92889000","longitude":"43.04433000","wikiDataId":"Q37963327"},{"id":101889,"name":"Tonkino","stateId":1857,"stateCode":"NIZ","stateName":"Nizhny Novgorod Oblast","countryId":182,"countryCode":"RU","countryName":"Russia","latitude":"57.37257000","longitude":"46.46294000","wikiDataId":"Q37956430"},{"id":101891,"name":"Tonshayevo","stateId":1857,"stateCode":"NIZ","stateName":"Nizhny Novgorod Oblast","countryId":182,"countryCode":"RU","countryName":"Russia","latitude":"57.73598000","longitude":"47.01265000","wikiDataId":"Q37956425"},{"id":101944,"name":"Tsentral’nyy","stateId":1857,"stateCode":"NIZ","stateName":"Nizhny Novgorod Oblast","countryId":182,"countryCode":"RU","countryName":"Russia","latitude":"56.29700000","longitude":"42.78869000","wikiDataId":"Q4503929"},{"id":101969,"name":"Tumbotino","stateId":1857,"stateCode":"NIZ","stateName":"Nizhny Novgorod Oblast","countryId":182,"countryCode":"RU","countryName":"Russia","latitude":"55.99926000","longitude":"43.02359000","wikiDataId":"Q4465286"},{"id":102072,"name":"Urazovka","stateId":1857,"stateCode":"NIZ","stateName":"Nizhny Novgorod Oblast","countryId":182,"countryCode":"RU","countryName":"Russia","latitude":"55.40126000","longitude":"45.61860000","wikiDataId":"Q37956051"},{"id":102076,"name":"Uren’","stateId":1857,"stateCode":"NIZ","stateName":"Nizhny Novgorod Oblast","countryId":182,"countryCode":"RU","countryName":"Russia","latitude":"57.45516000","longitude":"45.78522000","wikiDataId":"Q196835"},{"id":102168,"name":"Vacha","stateId":1857,"stateCode":"NIZ","stateName":"Nizhny Novgorod Oblast","countryId":182,"countryCode":"RU","countryName":"Russia","latitude":"55.80350000","longitude":"42.77090000","wikiDataId":"Q4105491"},{"id":102169,"name":"Vachskiy Rayon","stateId":1857,"stateCode":"NIZ","stateName":"Nizhny Novgorod Oblast","countryId":182,"countryCode":"RU","countryName":"Russia","latitude":"55.75000000","longitude":"42.75000000","wikiDataId":"Q1658305"},{"id":102170,"name":"Vad","stateId":1857,"stateCode":"NIZ","stateName":"Nizhny Novgorod Oblast","countryId":182,"countryCode":"RU","countryName":"Russia","latitude":"55.53009000","longitude":"44.21137000","wikiDataId":"Q37955880"},{"id":102178,"name":"Vakhtan","stateId":1857,"stateCode":"NIZ","stateName":"Nizhny Novgorod Oblast","countryId":182,"countryCode":"RU","countryName":"Russia","latitude":"57.96592000","longitude":"46.68886000","wikiDataId":"Q37955870"},{"id":102193,"name":"Varnavino","stateId":1857,"stateCode":"NIZ","stateName":"Nizhny Novgorod Oblast","countryId":182,"countryCode":"RU","countryName":"Russia","latitude":"57.40351000","longitude":"45.09164000","wikiDataId":"Q3739708"},{"id":102194,"name":"Varnavinskiy Rayon","stateId":1857,"stateCode":"NIZ","stateName":"Nizhny Novgorod Oblast","countryId":182,"countryCode":"RU","countryName":"Russia","latitude":"57.50000000","longitude":"44.91667000","wikiDataId":"Q1656102"},{"id":102197,"name":"Vasil’sursk","stateId":1857,"stateCode":"NIZ","stateName":"Nizhny Novgorod Oblast","countryId":182,"countryCode":"RU","countryName":"Russia","latitude":"56.13139000","longitude":"46.01600000","wikiDataId":"Q2264992"},{"id":102295,"name":"Vetluga","stateId":1857,"stateCode":"NIZ","stateName":"Nizhny Novgorod Oblast","countryId":182,"countryCode":"RU","countryName":"Russia","latitude":"57.85574000","longitude":"45.78102000","wikiDataId":"Q133071"},{"id":102297,"name":"Vetluzhskiy","stateId":1857,"stateCode":"NIZ","stateName":"Nizhny Novgorod Oblast","countryId":182,"countryCode":"RU","countryName":"Russia","latitude":"57.17355000","longitude":"45.12272000","wikiDataId":"Q37955370"},{"id":102298,"name":"Vetluzhskiy Rayon","stateId":1857,"stateCode":"NIZ","stateName":"Nizhny Novgorod Oblast","countryId":182,"countryCode":"RU","countryName":"Russia","latitude":"57.75000000","longitude":"45.58333000","wikiDataId":"Q1658660"},{"id":102307,"name":"Vilya","stateId":1857,"stateCode":"NIZ","stateName":"Nizhny Novgorod Oblast","countryId":182,"countryCode":"RU","countryName":"Russia","latitude":"55.24556000","longitude":"42.20889000","wikiDataId":"Q37955316"},{"id":102329,"name":"Vladimirskoye","stateId":1857,"stateCode":"NIZ","stateName":"Nizhny Novgorod Oblast","countryId":182,"countryCode":"RU","countryName":"Russia","latitude":"56.82002000","longitude":"45.11843000","wikiDataId":"Q37955251"},{"id":102351,"name":"Volodarsk","stateId":1857,"stateCode":"NIZ","stateName":"Nizhny Novgorod Oblast","countryId":182,"countryCode":"RU","countryName":"Russia","latitude":"56.23105000","longitude":"43.18767000","wikiDataId":"Q133310"},{"id":102384,"name":"Vorotynets","stateId":1857,"stateCode":"NIZ","stateName":"Nizhny Novgorod Oblast","countryId":182,"countryCode":"RU","countryName":"Russia","latitude":"56.06028000","longitude":"45.86330000","wikiDataId":"Q37955096"},{"id":102387,"name":"Vorsma","stateId":1857,"stateCode":"NIZ","stateName":"Nizhny Novgorod Oblast","countryId":182,"countryCode":"RU","countryName":"Russia","latitude":"55.99062000","longitude":"43.27249000","wikiDataId":"Q133816"},{"id":102389,"name":"Voskresenskiy Rayon","stateId":1857,"stateCode":"NIZ","stateName":"Nizhny Novgorod Oblast","countryId":182,"countryCode":"RU","countryName":"Russia","latitude":"56.75000000","longitude":"45.50000000","wikiDataId":"Q4016490"},{"id":102393,"name":"Voskresenskoye","stateId":1857,"stateCode":"NIZ","stateName":"Nizhny Novgorod Oblast","countryId":182,"countryCode":"RU","countryName":"Russia","latitude":"56.83806000","longitude":"45.43167000","wikiDataId":"Q3739717"},{"id":102410,"name":"Voznesenskoye","stateId":1857,"stateCode":"NIZ","stateName":"Nizhny Novgorod Oblast","countryId":182,"countryCode":"RU","countryName":"Russia","latitude":"54.89000000","longitude":"42.75694000","wikiDataId":"Q37968517"},{"id":102433,"name":"Vyksa","stateId":1857,"stateCode":"NIZ","stateName":"Nizhny Novgorod Oblast","countryId":182,"countryCode":"RU","countryName":"Russia","latitude":"55.31750000","longitude":"42.17444000","wikiDataId":"Q134163"},{"id":102455,"name":"Vyyezdnoye","stateId":1857,"stateCode":"NIZ","stateName":"Nizhny Novgorod Oblast","countryId":182,"countryCode":"RU","countryName":"Russia","latitude":"55.38154000","longitude":"43.78638000","wikiDataId":"Q3266276"},{"id":102586,"name":"Yuganets","stateId":1857,"stateCode":"NIZ","stateName":"Nizhny Novgorod Oblast","countryId":182,"countryCode":"RU","countryName":"Russia","latitude":"56.25080000","longitude":"43.23069000","wikiDataId":"Q33523592"},{"id":102680,"name":"Zavolzh’ye","stateId":1857,"stateCode":"NIZ","stateName":"Nizhny Novgorod Oblast","countryId":182,"countryCode":"RU","countryName":"Russia","latitude":"56.64051000","longitude":"43.39446000","wikiDataId":"Q136528"},{"id":102702,"name":"Zelyony Gorod","stateId":1857,"stateCode":"NIZ","stateName":"Nizhny Novgorod Oblast","countryId":182,"countryCode":"RU","countryName":"Russia","latitude":"56.17833000","longitude":"44.07440000","wikiDataId":"Q4119287"}]