[{"id":76759,"name":"Agulu","stateId":315,"stateCode":"AN","stateName":"Anambra","countryId":161,"countryCode":"NG","countryName":"Nigeria","latitude":"6.10045000","longitude":"7.06100000","wikiDataId":"Q3509527"},{"id":76781,"name":"Atani","stateId":315,"stateCode":"AN","stateName":"Anambra","countryId":161,"countryCode":"NG","countryName":"Nigeria","latitude":"6.01277000","longitude":"6.74768000","wikiDataId":"Q1061665"},{"id":76785,"name":"Awka","stateId":315,"stateCode":"AN","stateName":"Anambra","countryId":161,"countryCode":"NG","countryName":"Nigeria","latitude":"6.21269000","longitude":"7.07199000","wikiDataId":"Q791766"},{"id":76863,"name":"Enugu-Ukwu","stateId":315,"stateCode":"AN","stateName":"Anambra","countryId":161,"countryCode":"NG","countryName":"Nigeria","latitude":"6.17146000","longitude":"7.00525000","wikiDataId":"Q465022"},{"id":76920,"name":"Igbo-Ukwu","stateId":315,"stateCode":"AN","stateName":"Anambra","countryId":161,"countryCode":"NG","countryName":"Nigeria","latitude":"6.01798000","longitude":"7.02027000","wikiDataId":"Q1024641"},{"id":76924,"name":"Ihiala","stateId":315,"stateCode":"AN","stateName":"Anambra","countryId":161,"countryCode":"NG","countryName":"Nigeria","latitude":"5.85475000","longitude":"6.85944000","wikiDataId":"Q5991613"},{"id":77043,"name":"Nkpor","stateId":315,"stateCode":"AN","stateName":"Anambra","countryId":161,"countryCode":"NG","countryName":"Nigeria","latitude":"6.15038000","longitude":"6.83042000","wikiDataId":"Q1951627"},{"id":77044,"name":"Nnewi","stateId":315,"stateCode":"AN","stateName":"Anambra","countryId":161,"countryCode":"NG","countryName":"Nigeria","latitude":"6.01962000","longitude":"6.91729000","wikiDataId":"Q2750772"},{"id":77068,"name":"Onitsha","stateId":315,"stateCode":"AN","stateName":"Anambra","countryId":161,"countryCode":"NG","countryName":"Nigeria","latitude":"6.14978000","longitude":"6.78569000","wikiDataId":"Q852238"},{"id":77083,"name":"Ozubulu","stateId":315,"stateCode":"AN","stateName":"Anambra","countryId":161,"countryCode":"NG","countryName":"Nigeria","latitude":"5.95753000","longitude":"6.85305000","wikiDataId":"Q1023703"},{"id":77120,"name":"Uga","stateId":315,"stateCode":"AN","stateName":"Anambra","countryId":161,"countryCode":"NG","countryName":"Nigeria","latitude":"5.93576000","longitude":"7.07930000","wikiDataId":"Q7859479"},{"id":77128,"name":"Uruobo-Okija","stateId":315,"stateCode":"AN","stateName":"Anambra","countryId":161,"countryCode":"NG","countryName":"Nigeria","latitude":"5.90016000","longitude":"6.84312000","wikiDataId":"Q3510262"}]