[{"id":57589,"name":"Achalpur","stateId":4008,"stateCode":"MH","stateName":"Maharashtra","countryId":101,"countryCode":"IN","countryName":"India","latitude":"21.25665000","longitude":"77.51006000","wikiDataId":"Q490886"},{"id":147667,"name":"Adawad","stateId":4008,"stateCode":"MH","stateName":"Maharashtra","countryId":101,"countryCode":"IN","countryName":"India","latitude":"21.21666667","longitude":"75.45000000","wikiDataId":"Q4680894"},{"id":147668,"name":"Agar Panchaitan","stateId":4008,"stateCode":"MH","stateName":"Maharashtra","countryId":101,"countryCode":"IN","countryName":"India","latitude":"18.17369200","longitude":"72.98853300","wikiDataId":"Q4691267"},{"id":147669,"name":"Aheri","stateId":4008,"stateCode":"MH","stateName":"Maharashtra","countryId":101,"countryCode":"IN","countryName":"India","latitude":"19.41166667","longitude":"80.00388889","wikiDataId":"Q3606967"},{"id":57604,"name":"Ahmadpur","stateId":4008,"stateCode":"MH","stateName":"Maharashtra","countryId":101,"countryCode":"IN","countryName":"India","latitude":"18.70622000","longitude":"76.93731000","wikiDataId":"Q590521"},{"id":147670,"name":"Ahmednagar","stateId":4008,"stateCode":"MH","stateName":"Maharashtra","countryId":101,"countryCode":"IN","countryName":"India","latitude":"19.08333333","longitude":"74.73333333","wikiDataId":"Q223517"},{"id":57609,"name":"Airoli","stateId":4008,"stateCode":"MH","stateName":"Maharashtra","countryId":101,"countryCode":"IN","countryName":"India","latitude":"19.15096000","longitude":"72.99625000","wikiDataId":"Q4698841"},{"id":57617,"name":"Ajara","stateId":4008,"stateCode":"MH","stateName":"Maharashtra","countryId":101,"countryCode":"IN","countryName":"India","latitude":"16.11601000","longitude":"74.21097000","wikiDataId":"Q584021"},{"id":57618,"name":"Akalkot","stateId":4008,"stateCode":"MH","stateName":"Maharashtra","countryId":101,"countryCode":"IN","countryName":"India","latitude":"17.52532000","longitude":"76.20611000","wikiDataId":"Q239809"},{"id":147672,"name":"Akluj","stateId":4008,"stateCode":"MH","stateName":"Maharashtra","countryId":101,"countryCode":"IN","countryName":"India","latitude":"17.88333333","longitude":"75.01666667","wikiDataId":"Q4701451"},{"id":57627,"name":"Akola","stateId":4008,"stateCode":"MH","stateName":"Maharashtra","countryId":101,"countryCode":"IN","countryName":"India","latitude":"20.50000000","longitude":"77.16667000","wikiDataId":"Q213014"},{"id":147673,"name":"Akolner","stateId":4008,"stateCode":"MH","stateName":"Maharashtra","countryId":101,"countryCode":"IN","countryName":"India","latitude":"18.98333333","longitude":"74.66666667","wikiDataId":"Q4701525"},{"id":57628,"name":"Akot","stateId":4008,"stateCode":"MH","stateName":"Maharashtra","countryId":101,"countryCode":"IN","countryName":"India","latitude":"21.09630000","longitude":"77.05880000","wikiDataId":"Q589224"},{"id":147674,"name":"Akrani","stateId":4008,"stateCode":"MH","stateName":"Maharashtra","countryId":101,"countryCode":"IN","countryName":"India","latitude":"21.82423611","longitude":"74.21687222","wikiDataId":"Q2721836"},{"id":57633,"name":"Alandi","stateId":4008,"stateCode":"MH","stateName":"Maharashtra","countryId":101,"countryCode":"IN","countryName":"India","latitude":"18.67756000","longitude":"73.89868000","wikiDataId":"Q589653"},{"id":147675,"name":"Ale","stateId":4008,"stateCode":"MH","stateName":"Maharashtra","countryId":101,"countryCode":"IN","countryName":"India","latitude":"19.17000000","longitude":"74.12000000","wikiDataId":"Q4714044"},{"id":57652,"name":"Alibag","stateId":4008,"stateCode":"MH","stateName":"Maharashtra","countryId":101,"countryCode":"IN","countryName":"India","latitude":"18.64813000","longitude":"72.87579000","wikiDataId":"Q385394"},{"id":147676,"name":"Alkuti","stateId":4008,"stateCode":"MH","stateName":"Maharashtra","countryId":101,"countryCode":"IN","countryName":"India","latitude":"19.05000000","longitude":"74.23000000","wikiDataId":"Q4727727"},{"id":57642,"name":"Allapalli","stateId":4008,"stateCode":"MH","stateName":"Maharashtra","countryId":101,"countryCode":"IN","countryName":"India","latitude":"19.43172000","longitude":"80.06377000","wikiDataId":"Q589789"},{"id":57657,"name":"Amalner","stateId":4008,"stateCode":"MH","stateName":"Maharashtra","countryId":101,"countryCode":"IN","countryName":"India","latitude":"21.03983000","longitude":"75.05887000","wikiDataId":"Q589095"},{"id":57660,"name":"Amarnath","stateId":4008,"stateCode":"MH","stateName":"Maharashtra","countryId":101,"countryCode":"IN","countryName":"India","latitude":"19.20000000","longitude":"73.16667000","wikiDataId":"Q584008"},{"id":57665,"name":"Ambad","stateId":4008,"stateCode":"MH","stateName":"Maharashtra","countryId":101,"countryCode":"IN","countryName":"India","latitude":"19.61301000","longitude":"75.78906000","wikiDataId":"Q583887"},{"id":57674,"name":"Ambajogai","stateId":4008,"stateCode":"MH","stateName":"Maharashtra","countryId":101,"countryCode":"IN","countryName":"India","latitude":"18.73312000","longitude":"76.38616000","wikiDataId":"Q584032"},{"id":147678,"name":"Ambegaon","stateId":4008,"stateCode":"MH","stateName":"Maharashtra","countryId":101,"countryCode":"IN","countryName":"India","latitude":"19.11666667","longitude":"73.73333333","wikiDataId":"Q4741194"},{"id":147677,"name":"Ambernath","stateId":4008,"stateCode":"MH","stateName":"Maharashtra","countryId":101,"countryCode":"IN","countryName":"India","latitude":"19.20900000","longitude":"73.18600000","wikiDataId":"Q584008"},{"id":147679,"name":"Amgaon","stateId":4008,"stateCode":"MH","stateName":"Maharashtra","countryId":101,"countryCode":"IN","countryName":"India","latitude":"20.65000000","longitude":"79.95000000","wikiDataId":"Q4745985"},{"id":57689,"name":"Amravati","stateId":4008,"stateCode":"MH","stateName":"Maharashtra","countryId":101,"countryCode":"IN","countryName":"India","latitude":"20.93333000","longitude":"77.75000000","wikiDataId":"Q269899"},{"id":147680,"name":"Andheri","stateId":4008,"stateCode":"MH","stateName":"Maharashtra","countryId":101,"countryCode":"IN","countryName":"India","latitude":"19.11916667","longitude":"72.84694444","wikiDataId":"Q12413015"},{"id":147681,"name":"Andura","stateId":4008,"stateCode":"MH","stateName":"Maharashtra","countryId":101,"countryCode":"IN","countryName":"India","latitude":"20.88333333","longitude":"76.86666667","wikiDataId":"Q4760315"},{"id":57707,"name":"Anjangaon","stateId":4008,"stateCode":"MH","stateName":"Maharashtra","countryId":101,"countryCode":"IN","countryName":"India","latitude":"21.16516000","longitude":"77.30910000","wikiDataId":"Q583982"},{"id":147682,"name":"Anjarle","stateId":4008,"stateCode":"MH","stateName":"Maharashtra","countryId":101,"countryCode":"IN","countryName":"India","latitude":"17.85000000","longitude":"73.09000000","wikiDataId":"Q4765785"},{"id":57716,"name":"Anshing","stateId":4008,"stateCode":"MH","stateName":"Maharashtra","countryId":101,"countryCode":"IN","countryName":"India","latitude":"20.04090000","longitude":"77.31501000","wikiDataId":"Q26791820"},{"id":147683,"name":"Arag","stateId":4008,"stateCode":"MH","stateName":"Maharashtra","countryId":101,"countryCode":"IN","countryName":"India","latitude":"16.78000000","longitude":"74.80000000","wikiDataId":"Q4783707"},{"id":134461,"name":"Arangaon","stateId":4008,"stateCode":"MH","stateName":"Maharashtra","countryId":101,"countryCode":"IN","countryName":"India","latitude":"19.02681000","longitude":"74.71487000","wikiDataId":"Q367624"},{"id":147684,"name":"Ardhapur","stateId":4008,"stateCode":"MH","stateName":"Maharashtra","countryId":101,"countryCode":"IN","countryName":"India","latitude":"19.28333333","longitude":"77.38333333","wikiDataId":"Q4788035"},{"id":147685,"name":"Argaon","stateId":4008,"stateCode":"MH","stateName":"Maharashtra","countryId":101,"countryCode":"IN","countryName":"India","latitude":"16.77899900","longitude":"73.64553000","wikiDataId":"Q4682444"},{"id":57741,"name":"Artist Village","stateId":4008,"stateCode":"MH","stateName":"Maharashtra","countryId":101,"countryCode":"IN","countryName":"India","latitude":"19.03227000","longitude":"73.04276000","wikiDataId":"Q26794779"},{"id":134463,"name":"Arvi","stateId":4008,"stateCode":"MH","stateName":"Maharashtra","countryId":101,"countryCode":"IN","countryName":"India","latitude":"20.99585000","longitude":"78.22914000","wikiDataId":"Q1935271"},{"id":57751,"name":"Ashta","stateId":4008,"stateCode":"MH","stateName":"Maharashtra","countryId":101,"countryCode":"IN","countryName":"India","latitude":"16.94943000","longitude":"74.40936000","wikiDataId":"Q588688"},{"id":57753,"name":"Ashti","stateId":4008,"stateCode":"MH","stateName":"Maharashtra","countryId":101,"countryCode":"IN","countryName":"India","latitude":"19.37671000","longitude":"76.22520000","wikiDataId":"Q582291"},{"id":147686,"name":"Asoda","stateId":4008,"stateCode":"MH","stateName":"Maharashtra","countryId":101,"countryCode":"IN","countryName":"India","latitude":"21.03333333","longitude":"75.60000000","wikiDataId":"Q4807547"},{"id":147687,"name":"Assaye","stateId":4008,"stateCode":"MH","stateName":"Maharashtra","countryId":101,"countryCode":"IN","countryName":"India","latitude":"20.24512778","longitude":"75.88739722","wikiDataId":"Q739902"},{"id":147688,"name":"Astagaon","stateId":4008,"stateCode":"MH","stateName":"Maharashtra","countryId":101,"countryCode":"IN","countryName":"India","latitude":"19.66666667","longitude":"74.50000000","wikiDataId":"Q4810511"},{"id":147689,"name":"Aundh Satara","stateId":4008,"stateCode":"MH","stateName":"Maharashtra","countryId":101,"countryCode":"IN","countryName":"India","latitude":"17.54583333","longitude":"74.37500000","wikiDataId":"Q15194005"},{"id":57765,"name":"Aurangabad","stateId":4008,"stateCode":"MH","stateName":"Maharashtra","countryId":101,"countryCode":"IN","countryName":"India","latitude":"19.88467000","longitude":"75.33986000","wikiDataId":"Q200713"},{"id":57770,"name":"Ausa","stateId":4008,"stateCode":"MH","stateName":"Maharashtra","countryId":101,"countryCode":"IN","countryName":"India","latitude":"18.24728000","longitude":"76.49930000","wikiDataId":"Q591243"},{"id":57792,"name":"Badlapur","stateId":4008,"stateCode":"MH","stateName":"Maharashtra","countryId":101,"countryCode":"IN","countryName":"India","latitude":"19.15516000","longitude":"73.26553000","wikiDataId":"Q588612"},{"id":147690,"name":"Badnapur","stateId":4008,"stateCode":"MH","stateName":"Maharashtra","countryId":101,"countryCode":"IN","countryName":"India","latitude":"19.86666667","longitude":"75.73333333","wikiDataId":"Q2878729"},{"id":147691,"name":"Badnera","stateId":4008,"stateCode":"MH","stateName":"Maharashtra","countryId":101,"countryCode":"IN","countryName":"India","latitude":"20.85463056","longitude":"77.72931111","wikiDataId":"Q4841063"},{"id":147692,"name":"Bagewadi","stateId":4008,"stateCode":"MH","stateName":"Maharashtra","countryId":101,"countryCode":"IN","countryName":"India","latitude":"16.29000000","longitude":"74.60000000","wikiDataId":"Q4841558"},{"id":58121,"name":"Balapur","stateId":4008,"stateCode":"MH","stateName":"Maharashtra","countryId":101,"countryCode":"IN","countryName":"India","latitude":"20.66612000","longitude":"76.77386000","wikiDataId":"Q2315612"},{"id":147693,"name":"Balapur Akola district","stateId":4008,"stateCode":"MH","stateName":"Maharashtra","countryId":101,"countryCode":"IN","countryName":"India","latitude":"20.66612000","longitude":"76.77386000","wikiDataId":"Q2315612"},{"id":57829,"name":"Ballalpur","stateId":4008,"stateCode":"MH","stateName":"Maharashtra","countryId":101,"countryCode":"IN","countryName":"India","latitude":"19.84696000","longitude":"79.34578000","wikiDataId":"Q584644"},{"id":147694,"name":"Ballard Estate","stateId":4008,"stateCode":"MH","stateName":"Maharashtra","countryId":101,"countryCode":"IN","countryName":"India","latitude":"18.95000000","longitude":"72.84000000","wikiDataId":"Q4851507"},{"id":147695,"name":"Ballarpur","stateId":4008,"stateCode":"MH","stateName":"Maharashtra","countryId":101,"countryCode":"IN","countryName":"India","latitude":"19.83333333","longitude":"79.35000000","wikiDataId":"Q633427"},{"id":147696,"name":"Banda Maharashtra","stateId":4008,"stateCode":"MH","stateName":"Maharashtra","countryId":101,"countryCode":"IN","countryName":"India","latitude":"15.81273611","longitude":"73.86132778","wikiDataId":"Q4854281"},{"id":147697,"name":"Bandra","stateId":4008,"stateCode":"MH","stateName":"Maharashtra","countryId":101,"countryCode":"IN","countryName":"India","latitude":"19.05444444","longitude":"72.84055556","wikiDataId":"Q257622"},{"id":147698,"name":"Baner","stateId":4008,"stateCode":"MH","stateName":"Maharashtra","countryId":101,"countryCode":"IN","countryName":"India","latitude":"18.56000000","longitude":"73.79027778","wikiDataId":"Q4801087"},{"id":147699,"name":"Bankot","stateId":4008,"stateCode":"MH","stateName":"Maharashtra","countryId":101,"countryCode":"IN","countryName":"India","latitude":"17.98333333","longitude":"73.05000000","wikiDataId":"Q4856435"},{"id":58146,"name":"Baramati","stateId":4008,"stateCode":"MH","stateName":"Maharashtra","countryId":101,"countryCode":"IN","countryName":"India","latitude":"18.15174000","longitude":"74.57767000","wikiDataId":"Q712015"},{"id":58144,"name":"Barsi","stateId":4008,"stateCode":"MH","stateName":"Maharashtra","countryId":101,"countryCode":"IN","countryName":"India","latitude":"18.23454000","longitude":"75.69275000","wikiDataId":"Q42016"},{"id":57897,"name":"Basmat","stateId":4008,"stateCode":"MH","stateName":"Maharashtra","countryId":101,"countryCode":"IN","countryName":"India","latitude":"19.32872000","longitude":"77.15746000","wikiDataId":"Q648370"},{"id":147701,"name":"Bavdhan","stateId":4008,"stateCode":"MH","stateName":"Maharashtra","countryId":101,"countryCode":"IN","countryName":"India","latitude":"18.53527778","longitude":"73.78277778","wikiDataId":"Q15197602"},{"id":147702,"name":"Bawanbir","stateId":4008,"stateCode":"MH","stateName":"Maharashtra","countryId":101,"countryCode":"IN","countryName":"India","latitude":"21.08333333","longitude":"76.71666667","wikiDataId":"Q4873756"},{"id":57912,"name":"Beed","stateId":4008,"stateCode":"MH","stateName":"Maharashtra","countryId":101,"countryCode":"IN","countryName":"India","latitude":"18.98921000","longitude":"75.75634000","wikiDataId":"Q814033"},{"id":58026,"name":"Beed","stateId":4008,"stateCode":"MH","stateName":"Maharashtra","countryId":101,"countryCode":"IN","countryName":"India","latitude":"18.83333000","longitude":"75.75000000","wikiDataId":"Q814037"},{"id":147703,"name":"Bhadgaon Maharashtra","stateId":4008,"stateCode":"MH","stateName":"Maharashtra","countryId":101,"countryCode":"IN","countryName":"India","latitude":"20.16666667","longitude":"75.23333333","wikiDataId":"Q2766664"},{"id":57961,"name":"Bhandara","stateId":4008,"stateCode":"MH","stateName":"Maharashtra","countryId":101,"countryCode":"IN","countryName":"India","latitude":"21.18333000","longitude":"80.00000000","wikiDataId":"Q33424761"},{"id":147704,"name":"Bhandardara","stateId":4008,"stateCode":"MH","stateName":"Maharashtra","countryId":101,"countryCode":"IN","countryName":"India","latitude":"19.52916667","longitude":"73.75138889","wikiDataId":"Q281031"},{"id":147705,"name":"Bhandup","stateId":4008,"stateCode":"MH","stateName":"Maharashtra","countryId":101,"countryCode":"IN","countryName":"India","latitude":"19.14000000","longitude":"72.93000000","wikiDataId":"Q4900993"},{"id":57978,"name":"Bhayandar","stateId":4008,"stateCode":"MH","stateName":"Maharashtra","countryId":101,"countryCode":"IN","countryName":"India","latitude":"19.30157000","longitude":"72.85107000","wikiDataId":"Q4901615"},{"id":57979,"name":"Bhigvan","stateId":4008,"stateCode":"MH","stateName":"Maharashtra","countryId":101,"countryCode":"IN","countryName":"India","latitude":"18.30070000","longitude":"74.76701000","wikiDataId":"Q26791344"},{"id":57987,"name":"Bhiwandi","stateId":4008,"stateCode":"MH","stateName":"Maharashtra","countryId":101,"countryCode":"IN","countryName":"India","latitude":"19.30023000","longitude":"73.05881000","wikiDataId":"Q31856876"},{"id":147706,"name":"Bhiwapur","stateId":4008,"stateCode":"MH","stateName":"Maharashtra","countryId":101,"countryCode":"IN","countryName":"India","latitude":"20.83555556","longitude":"79.50111111","wikiDataId":"Q4901861"},{"id":147707,"name":"Bhokar","stateId":4008,"stateCode":"MH","stateName":"Maharashtra","countryId":101,"countryCode":"IN","countryName":"India","latitude":"19.21780300","longitude":"77.66939200","wikiDataId":"Q4901919"},{"id":147708,"name":"Bhokardan","stateId":4008,"stateCode":"MH","stateName":"Maharashtra","countryId":101,"countryCode":"IN","countryName":"India","latitude":"20.27000000","longitude":"75.77000000","wikiDataId":"Q796505"},{"id":147709,"name":"Bhoom","stateId":4008,"stateCode":"MH","stateName":"Maharashtra","countryId":101,"countryCode":"IN","countryName":"India","latitude":"18.45972222","longitude":"75.66083333","wikiDataId":"Q796520"},{"id":58024,"name":"Bhoom","stateId":4008,"stateCode":"MH","stateName":"Maharashtra","countryId":101,"countryCode":"IN","countryName":"India","latitude":"18.45908000","longitude":"75.65877000","wikiDataId":"Q796520"},{"id":57997,"name":"Bhor","stateId":4008,"stateCode":"MH","stateName":"Maharashtra","countryId":101,"countryCode":"IN","countryName":"India","latitude":"18.14861000","longitude":"73.84336000","wikiDataId":"Q797462"},{"id":58001,"name":"Bhudgaon","stateId":4008,"stateCode":"MH","stateName":"Maharashtra","countryId":101,"countryCode":"IN","countryName":"India","latitude":"16.90742000","longitude":"74.59954000","wikiDataId":"Q26791355"},{"id":147710,"name":"Bhugaon","stateId":4008,"stateCode":"MH","stateName":"Maharashtra","countryId":101,"countryCode":"IN","countryName":"India","latitude":"18.50128400","longitude":"73.75016100","wikiDataId":"Q15198984"},{"id":58005,"name":"Bhusaval","stateId":4008,"stateCode":"MH","stateName":"Maharashtra","countryId":101,"countryCode":"IN","countryName":"India","latitude":"21.04365000","longitude":"75.78506000","wikiDataId":"Q796650"},{"id":147712,"name":"Bijur","stateId":4008,"stateCode":"MH","stateName":"Maharashtra","countryId":101,"countryCode":"IN","countryName":"India","latitude":"13.84388889","longitude":"74.63972222","wikiDataId":"Q4907289"},{"id":147713,"name":"Bilashi","stateId":4008,"stateCode":"MH","stateName":"Maharashtra","countryId":101,"countryCode":"IN","countryName":"India","latitude":"16.98333000","longitude":"74.03333000","wikiDataId":"Q4907558"},{"id":58047,"name":"Biloli","stateId":4008,"stateCode":"MH","stateName":"Maharashtra","countryId":101,"countryCode":"IN","countryName":"India","latitude":"18.77385000","longitude":"77.72463000","wikiDataId":"Q861330"},{"id":58074,"name":"Boisar","stateId":4008,"stateCode":"MH","stateName":"Maharashtra","countryId":101,"countryCode":"IN","countryName":"India","latitude":"19.80362000","longitude":"72.75598000","wikiDataId":"Q858592"},{"id":147714,"name":"Borgaon Manju","stateId":4008,"stateCode":"MH","stateName":"Maharashtra","countryId":101,"countryCode":"IN","countryName":"India","latitude":"20.71944444","longitude":"77.15277778","wikiDataId":"Q4945014"},{"id":147715,"name":"Borivali","stateId":4008,"stateCode":"MH","stateName":"Maharashtra","countryId":101,"countryCode":"IN","countryName":"India","latitude":"19.23000000","longitude":"72.86000000","wikiDataId":"Q4945504"},{"id":147716,"name":"Brahmapuri","stateId":4008,"stateCode":"MH","stateName":"Maharashtra","countryId":101,"countryCode":"IN","countryName":"India","latitude":"20.60840000","longitude":"79.85590000","wikiDataId":"Q2546796"},{"id":147717,"name":"Breach Candy","stateId":4008,"stateCode":"MH","stateName":"Maharashtra","countryId":101,"countryCode":"IN","countryName":"India","latitude":"18.96700000","longitude":"72.80500000","wikiDataId":"Q4959100"},{"id":58094,"name":"Buldana","stateId":4008,"stateCode":"MH","stateName":"Maharashtra","countryId":101,"countryCode":"IN","countryName":"India","latitude":"20.58333000","longitude":"76.41667000","wikiDataId":"Q1752328"},{"id":147719,"name":"Byculla","stateId":4008,"stateCode":"MH","stateName":"Maharashtra","countryId":101,"countryCode":"IN","countryName":"India","latitude":"18.98000000","longitude":"72.83500000","wikiDataId":"Q5003979"},{"id":131589,"name":"Chakan","stateId":4008,"stateCode":"MH","stateName":"Maharashtra","countryId":101,"countryCode":"IN","countryName":"India","latitude":"18.76059000","longitude":"73.86351000","wikiDataId":"Q1020740"},{"id":147720,"name":"Chakur","stateId":4008,"stateCode":"MH","stateName":"Maharashtra","countryId":101,"countryCode":"IN","countryName":"India","latitude":"18.51305556","longitude":"76.87527778","wikiDataId":"Q5068446"},{"id":131592,"name":"Chalisgaon","stateId":4008,"stateCode":"MH","stateName":"Maharashtra","countryId":101,"countryCode":"IN","countryName":"India","latitude":"20.45781000","longitude":"75.01596000","wikiDataId":"Q858598"},{"id":131596,"name":"Chanda","stateId":4008,"stateCode":"MH","stateName":"Maharashtra","countryId":101,"countryCode":"IN","countryName":"India","latitude":"19.95076000","longitude":"79.29523000","wikiDataId":"Q861194"},{"id":147721,"name":"Chandgad","stateId":4008,"stateCode":"MH","stateName":"Maharashtra","countryId":101,"countryCode":"IN","countryName":"India","latitude":"15.00000000","longitude":"74.00000000","wikiDataId":"Q5071026"},{"id":131599,"name":"Chandor","stateId":4008,"stateCode":"MH","stateName":"Maharashtra","countryId":101,"countryCode":"IN","countryName":"India","latitude":"20.33060000","longitude":"74.24467000","wikiDataId":"Q720244"},{"id":58192,"name":"Chandrapur","stateId":4008,"stateCode":"MH","stateName":"Maharashtra","countryId":101,"countryCode":"IN","countryName":"India","latitude":"20.11793000","longitude":"79.44377000","wikiDataId":"Q861194"},{"id":131601,"name":"Chandur","stateId":4008,"stateCode":"MH","stateName":"Maharashtra","countryId":101,"countryCode":"IN","countryName":"India","latitude":"19.73444000","longitude":"79.17167000","wikiDataId":"Q3666120"},{"id":131603,"name":"Chandur Bazar","stateId":4008,"stateCode":"MH","stateName":"Maharashtra","countryId":101,"countryCode":"IN","countryName":"India","latitude":"21.23853000","longitude":"77.74713000","wikiDataId":"Q3666120"},{"id":147722,"name":"Chausala","stateId":4008,"stateCode":"MH","stateName":"Maharashtra","countryId":101,"countryCode":"IN","countryName":"India","latitude":"18.70869200","longitude":"75.69159500","wikiDataId":"Q5088367"},{"id":147723,"name":"Chembur","stateId":4008,"stateCode":"MH","stateName":"Maharashtra","countryId":101,"countryCode":"IN","countryName":"India","latitude":"19.05871111","longitude":"72.89969444","wikiDataId":"Q251170"},{"id":131544,"name":"Chicholi","stateId":4008,"stateCode":"MH","stateName":"Maharashtra","countryId":101,"countryCode":"IN","countryName":"India","latitude":"21.46926000","longitude":"79.70151000","wikiDataId":"Q1104151"},{"id":147724,"name":"Chichondi Patil","stateId":4008,"stateCode":"MH","stateName":"Maharashtra","countryId":101,"countryCode":"IN","countryName":"India","latitude":"19.00000000","longitude":"74.91666667","wikiDataId":"Q5096066"},{"id":131549,"name":"Chikhli (Buldhana)","stateId":4008,"stateCode":"MH","stateName":"Maharashtra","countryId":101,"countryCode":"IN","countryName":"India","latitude":"20.35046000","longitude":"76.25774000","wikiDataId":"Q3674596"},{"id":147725,"name":"Chikhli (Jalna)","stateId":4008,"stateCode":"MH","stateName":"Maharashtra","countryId":101,"countryCode":"IN","countryName":"India","latitude":"20.02193000","longitude":"75.78544000","wikiDataId":"Q87192562"},{"id":147726,"name":"Chimur","stateId":4008,"stateCode":"MH","stateName":"Maharashtra","countryId":101,"countryCode":"IN","countryName":"India","latitude":"20.49694444","longitude":"79.37666667","wikiDataId":"Q5099456"},{"id":131558,"name":"Chinchani","stateId":4008,"stateCode":"MH","stateName":"Maharashtra","countryId":101,"countryCode":"IN","countryName":"India","latitude":"19.87458000","longitude":"72.68510000","wikiDataId":"Q1104169"},{"id":147727,"name":"Chinchpokli","stateId":4008,"stateCode":"MH","stateName":"Maharashtra","countryId":101,"countryCode":"IN","countryName":"India","latitude":"18.98333333","longitude":"72.83333333","wikiDataId":"Q5100316"},{"id":131567,"name":"Chiplun","stateId":4008,"stateCode":"MH","stateName":"Maharashtra","countryId":101,"countryCode":"IN","countryName":"India","latitude":"17.53339000","longitude":"73.50935000","wikiDataId":"Q1117869"},{"id":131580,"name":"Chopda","stateId":4008,"stateCode":"MH","stateName":"Maharashtra","countryId":101,"countryCode":"IN","countryName":"India","latitude":"21.24578000","longitude":"75.29946000","wikiDataId":"Q1192614"},{"id":147728,"name":"Colaba","stateId":4008,"stateCode":"MH","stateName":"Maharashtra","countryId":101,"countryCode":"IN","countryName":"India","latitude":"18.91000000","longitude":"72.81000000","wikiDataId":"Q3632559"},{"id":131805,"name":"Dabhol","stateId":4008,"stateCode":"MH","stateName":"Maharashtra","countryId":101,"countryCode":"IN","countryName":"India","latitude":"17.58971000","longitude":"73.18001000","wikiDataId":"Q5207479"},{"id":147729,"name":"Daddi","stateId":4008,"stateCode":"MH","stateName":"Maharashtra","countryId":101,"countryCode":"IN","countryName":"India","latitude":"16.06666667","longitude":"74.43333333","wikiDataId":"Q5207937"},{"id":131807,"name":"Dahanu","stateId":4008,"stateCode":"MH","stateName":"Maharashtra","countryId":101,"countryCode":"IN","countryName":"India","latitude":"19.96778000","longitude":"72.71263000","wikiDataId":"Q1190226"},{"id":147730,"name":"Dahivel","stateId":4008,"stateCode":"MH","stateName":"Maharashtra","countryId":101,"countryCode":"IN","countryName":"India","latitude":"21.06666667","longitude":"74.16666667","wikiDataId":"Q5208849"},{"id":147731,"name":"Dapoli","stateId":4008,"stateCode":"MH","stateName":"Maharashtra","countryId":101,"countryCode":"IN","countryName":"India","latitude":"17.75888889","longitude":"73.18555556","wikiDataId":"Q5221789"},{"id":131810,"name":"Darwha","stateId":4008,"stateCode":"MH","stateName":"Maharashtra","countryId":101,"countryCode":"IN","countryName":"India","latitude":"20.31017000","longitude":"77.77257000","wikiDataId":"Q1190716"},{"id":131659,"name":"Daryapur","stateId":4008,"stateCode":"MH","stateName":"Maharashtra","countryId":101,"countryCode":"IN","countryName":"India","latitude":"20.92489000","longitude":"77.32644000","wikiDataId":"Q1190791"},{"id":131663,"name":"Dattapur","stateId":4008,"stateCode":"MH","stateName":"Maharashtra","countryId":101,"countryCode":"IN","countryName":"India","latitude":"20.78075000","longitude":"78.14070000","wikiDataId":"Q2206266"},{"id":131666,"name":"Daulatabad","stateId":4008,"stateCode":"MH","stateName":"Maharashtra","countryId":101,"countryCode":"IN","countryName":"India","latitude":"19.93611000","longitude":"75.22148000","wikiDataId":"Q2249594"},{"id":131667,"name":"Daund","stateId":4008,"stateCode":"MH","stateName":"Maharashtra","countryId":101,"countryCode":"IN","countryName":"India","latitude":"18.46515000","longitude":"74.58375000","wikiDataId":"Q3703003"},{"id":147732,"name":"Deccan Gymkhana","stateId":4008,"stateCode":"MH","stateName":"Maharashtra","countryId":101,"countryCode":"IN","countryName":"India","latitude":"18.51840000","longitude":"73.84060000","wikiDataId":"Q4991859"},{"id":147733,"name":"Deglur","stateId":4008,"stateCode":"MH","stateName":"Maharashtra","countryId":101,"countryCode":"IN","countryName":"India","latitude":"18.54777778","longitude":"77.57722222","wikiDataId":"Q1192446"},{"id":131678,"name":"Dehu","stateId":4008,"stateCode":"MH","stateName":"Maharashtra","countryId":101,"countryCode":"IN","countryName":"India","latitude":"18.71851000","longitude":"73.76635000","wikiDataId":"Q1192430"},{"id":131688,"name":"Deolali","stateId":4008,"stateCode":"MH","stateName":"Maharashtra","countryId":101,"countryCode":"IN","countryName":"India","latitude":"19.94404000","longitude":"73.83441000","wikiDataId":"Q958334"},{"id":147734,"name":"Deolapar","stateId":4008,"stateCode":"MH","stateName":"Maharashtra","countryId":101,"countryCode":"IN","countryName":"India","latitude":"21.58611111","longitude":"79.36944444","wikiDataId":"Q5259979"},{"id":131686,"name":"Deoli","stateId":4008,"stateCode":"MH","stateName":"Maharashtra","countryId":101,"countryCode":"IN","countryName":"India","latitude":"20.64920000","longitude":"78.48023000","wikiDataId":"Q2429122"},{"id":147735,"name":"Deoni","stateId":4008,"stateCode":"MH","stateName":"Maharashtra","countryId":101,"countryCode":"IN","countryName":"India","latitude":"18.26388889","longitude":"77.08222222","wikiDataId":"Q5260026"},{"id":131709,"name":"Deulgaon Raja","stateId":4008,"stateCode":"MH","stateName":"Maharashtra","countryId":101,"countryCode":"IN","countryName":"India","latitude":"20.01757000","longitude":"76.03755000","wikiDataId":"Q1189972"},{"id":147736,"name":"Devrukh","stateId":4008,"stateCode":"MH","stateName":"Maharashtra","countryId":101,"countryCode":"IN","countryName":"India","latitude":"17.06500000","longitude":"73.61583333","wikiDataId":"Q5267962"},{"id":131722,"name":"Dharangaon","stateId":4008,"stateCode":"MH","stateName":"Maharashtra","countryId":101,"countryCode":"IN","countryName":"India","latitude":"21.01187000","longitude":"75.27407000","wikiDataId":"Q1264596"},{"id":147737,"name":"Dharavi","stateId":4008,"stateCode":"MH","stateName":"Maharashtra","countryId":101,"countryCode":"IN","countryName":"India","latitude":"19.05000000","longitude":"72.86667000","wikiDataId":"Q649632"},{"id":131728,"name":"Dharmabad","stateId":4008,"stateCode":"MH","stateName":"Maharashtra","countryId":101,"countryCode":"IN","countryName":"India","latitude":"18.89116000","longitude":"77.84940000","wikiDataId":"Q1266630"},{"id":131758,"name":"Dharur","stateId":4008,"stateCode":"MH","stateName":"Maharashtra","countryId":101,"countryCode":"IN","countryName":"India","latitude":"18.82017000","longitude":"76.10937000","wikiDataId":"Q2546835"},{"id":147738,"name":"Dhawalpuri","stateId":4008,"stateCode":"MH","stateName":"Maharashtra","countryId":101,"countryCode":"IN","countryName":"India","latitude":"19.16666667","longitude":"74.51666667","wikiDataId":"Q5269466"},{"id":131746,"name":"Dhule","stateId":4008,"stateCode":"MH","stateName":"Maharashtra","countryId":101,"countryCode":"IN","countryName":"India","latitude":"21.06852000","longitude":"74.58837000","wikiDataId":"Q31856850"},{"id":131759,"name":"Dhulia","stateId":4008,"stateCode":"MH","stateName":"Maharashtra","countryId":101,"countryCode":"IN","countryName":"India","latitude":"20.90130000","longitude":"74.77737000","wikiDataId":"Q773603"},{"id":147739,"name":"Dighori","stateId":4008,"stateCode":"MH","stateName":"Maharashtra","countryId":101,"countryCode":"IN","countryName":"India","latitude":"20.88620000","longitude":"79.93420000","wikiDataId":"Q15298095"},{"id":131815,"name":"Diglur","stateId":4008,"stateCode":"MH","stateName":"Maharashtra","countryId":101,"countryCode":"IN","countryName":"India","latitude":"18.54829000","longitude":"77.57695000","wikiDataId":"Q1192446"},{"id":131768,"name":"Digras","stateId":4008,"stateCode":"MH","stateName":"Maharashtra","countryId":101,"countryCode":"IN","countryName":"India","latitude":"20.10350000","longitude":"77.71846000","wikiDataId":"Q1259725"},{"id":147740,"name":"Dindori Maharashtra","stateId":4008,"stateCode":"MH","stateName":"Maharashtra","countryId":101,"countryCode":"IN","countryName":"India","latitude":"20.20000000","longitude":"73.83305556","wikiDataId":"Q5278010"},{"id":147741,"name":"Diveagar","stateId":4008,"stateCode":"MH","stateName":"Maharashtra","countryId":101,"countryCode":"IN","countryName":"India","latitude":"18.17333333","longitude":"72.99166667","wikiDataId":"Q5283881"},{"id":131785,"name":"Dombivli","stateId":4008,"stateCode":"MH","stateName":"Maharashtra","countryId":101,"countryCode":"IN","countryName":"India","latitude":"19.21667000","longitude":"73.08333000","wikiDataId":"Q3034709"},{"id":131786,"name":"Dondaicha","stateId":4008,"stateCode":"MH","stateName":"Maharashtra","countryId":101,"countryCode":"IN","countryName":"India","latitude":"21.32360000","longitude":"74.56804000","wikiDataId":"Q26789856"},{"id":147742,"name":"Dongri","stateId":4008,"stateCode":"MH","stateName":"Maharashtra","countryId":101,"countryCode":"IN","countryName":"India","latitude":"19.28333333","longitude":"72.78333333","wikiDataId":"Q5296011"},{"id":131792,"name":"Dudhani","stateId":4008,"stateCode":"MH","stateName":"Maharashtra","countryId":101,"countryCode":"IN","countryName":"India","latitude":"17.35792000","longitude":"76.36688000","wikiDataId":"Q1387098"},{"id":131802,"name":"Durgapur","stateId":4008,"stateCode":"MH","stateName":"Maharashtra","countryId":101,"countryCode":"IN","countryName":"India","latitude":"20.00540000","longitude":"79.30273000","wikiDataId":"Q3716506"},{"id":147743,"name":"Durgapur Chandrapur","stateId":4008,"stateCode":"MH","stateName":"Maharashtra","countryId":101,"countryCode":"IN","countryName":"India","latitude":"20.00000000","longitude":"79.30000000","wikiDataId":"Q3716506"},{"id":131838,"name":"Erandol","stateId":4008,"stateCode":"MH","stateName":"Maharashtra","countryId":101,"countryCode":"IN","countryName":"India","latitude":"20.92206000","longitude":"75.32641000","wikiDataId":"Q1523435"},{"id":131850,"name":"Faizpur","stateId":4008,"stateCode":"MH","stateName":"Maharashtra","countryId":101,"countryCode":"IN","countryName":"India","latitude":"21.16766000","longitude":"75.86006000","wikiDataId":"Q1523144"},{"id":147744,"name":"Fort","stateId":4008,"stateCode":"MH","stateName":"Maharashtra","countryId":101,"countryCode":"IN","countryName":"India","latitude":"18.93500000","longitude":"72.83590000","wikiDataId":"Q5470698"},{"id":131886,"name":"Gadchiroli","stateId":4008,"stateCode":"MH","stateName":"Maharashtra","countryId":101,"countryCode":"IN","countryName":"India","latitude":"19.80000000","longitude":"80.20000000","wikiDataId":"Q1452991"},{"id":131889,"name":"Gadhinglaj","stateId":4008,"stateCode":"MH","stateName":"Maharashtra","countryId":101,"countryCode":"IN","countryName":"India","latitude":"16.22291000","longitude":"74.35010000","wikiDataId":"Q1523294"},{"id":131907,"name":"Gangakher","stateId":4008,"stateCode":"MH","stateName":"Maharashtra","countryId":101,"countryCode":"IN","countryName":"India","latitude":"18.96962000","longitude":"76.74946000","wikiDataId":"Q186141"},{"id":131910,"name":"Gangapur","stateId":4008,"stateCode":"MH","stateName":"Maharashtra","countryId":101,"countryCode":"IN","countryName":"India","latitude":"19.69718000","longitude":"75.01045000","wikiDataId":"Q2546805"},{"id":147745,"name":"Ganpatipule","stateId":4008,"stateCode":"MH","stateName":"Maharashtra","countryId":101,"countryCode":"IN","countryName":"India","latitude":"17.14480000","longitude":"73.26660000","wikiDataId":"Q5521478"},{"id":131934,"name":"Gevrai","stateId":4008,"stateCode":"MH","stateName":"Maharashtra","countryId":101,"countryCode":"IN","countryName":"India","latitude":"19.26372000","longitude":"75.75007000","wikiDataId":"Q1654133"},{"id":147746,"name":"Ghargaon","stateId":4008,"stateCode":"MH","stateName":"Maharashtra","countryId":101,"countryCode":"IN","countryName":"India","latitude":"18.74868400","longitude":"74.63673400","wikiDataId":"Q15221606"},{"id":131951,"name":"Ghatanji","stateId":4008,"stateCode":"MH","stateName":"Maharashtra","countryId":101,"countryCode":"IN","countryName":"India","latitude":"20.14183000","longitude":"78.31333000","wikiDataId":"Q1707151"},{"id":147747,"name":"Ghatkopar","stateId":4008,"stateCode":"MH","stateName":"Maharashtra","countryId":101,"countryCode":"IN","countryName":"India","latitude":"19.08000000","longitude":"72.91000000","wikiDataId":"Q3309774"},{"id":131947,"name":"Ghoti Budrukh","stateId":4008,"stateCode":"MH","stateName":"Maharashtra","countryId":101,"countryCode":"IN","countryName":"India","latitude":"19.71641000","longitude":"73.62821000","wikiDataId":"Q26789453"},{"id":131948,"name":"Ghugus","stateId":4008,"stateCode":"MH","stateName":"Maharashtra","countryId":101,"countryCode":"IN","countryName":"India","latitude":"19.93810000","longitude":"79.11192000","wikiDataId":"Q1706933"},{"id":147748,"name":"Girgaon","stateId":4008,"stateCode":"MH","stateName":"Maharashtra","countryId":101,"countryCode":"IN","countryName":"India","latitude":"18.95300000","longitude":"72.81300000","wikiDataId":"Q1931371"},{"id":147749,"name":"Gondia","stateId":4008,"stateCode":"MH","stateName":"Maharashtra","countryId":101,"countryCode":"IN","countryName":"India","latitude":"21.45000000","longitude":"80.20000000","wikiDataId":"Q1707857"},{"id":147750,"name":"Gorai","stateId":4008,"stateCode":"MH","stateName":"Maharashtra","countryId":101,"countryCode":"IN","countryName":"India","latitude":"19.25005700","longitude":"72.78202100","wikiDataId":"Q4932603"},{"id":131994,"name":"Goregaon","stateId":4008,"stateCode":"MH","stateName":"Maharashtra","countryId":101,"countryCode":"IN","countryName":"India","latitude":"18.15483000","longitude":"73.29147000","wikiDataId":"Q3773513"},{"id":132014,"name":"Guhagar","stateId":4008,"stateCode":"MH","stateName":"Maharashtra","countryId":101,"countryCode":"IN","countryName":"India","latitude":"17.48415000","longitude":"73.19289000","wikiDataId":"Q1708334"},{"id":147751,"name":"Hadapsar Pune","stateId":4008,"stateCode":"MH","stateName":"Maharashtra","countryId":101,"countryCode":"IN","countryName":"India","latitude":"18.49666667","longitude":"73.94166667","wikiDataId":"Q5637596"},{"id":132054,"name":"Hadgaon","stateId":4008,"stateCode":"MH","stateName":"Maharashtra","countryId":101,"countryCode":"IN","countryName":"India","latitude":"19.49552000","longitude":"77.65863000","wikiDataId":"Q1708363"},{"id":147752,"name":"Halkarni","stateId":4008,"stateCode":"MH","stateName":"Maharashtra","countryId":101,"countryCode":"IN","countryName":"India","latitude":"16.16666667","longitude":"74.46666667","wikiDataId":"Q5642513"},{"id":147753,"name":"Harangul","stateId":4008,"stateCode":"MH","stateName":"Maharashtra","countryId":101,"countryCode":"IN","countryName":"India","latitude":"18.90000000","longitude":"76.66666667","wikiDataId":"Q5654144"},{"id":132078,"name":"Harnai","stateId":4008,"stateCode":"MH","stateName":"Maharashtra","countryId":101,"countryCode":"IN","countryName":"India","latitude":"17.81340000","longitude":"73.09668000","wikiDataId":"Q1706366"},{"id":147754,"name":"Helwak","stateId":4008,"stateCode":"MH","stateName":"Maharashtra","countryId":101,"countryCode":"IN","countryName":"India","latitude":"17.38500000","longitude":"73.73500000","wikiDataId":"Q15223544"},{"id":132100,"name":"Hinganghat","stateId":4008,"stateCode":"MH","stateName":"Maharashtra","countryId":101,"countryCode":"IN","countryName":"India","latitude":"20.54875000","longitude":"78.83978000","wikiDataId":"Q762823"},{"id":132101,"name":"Hingoli","stateId":4008,"stateCode":"MH","stateName":"Maharashtra","countryId":101,"countryCode":"IN","countryName":"India","latitude":"19.70000000","longitude":"77.15000000","wikiDataId":"Q1708167"},{"id":147755,"name":"Hirapur","stateId":4008,"stateCode":"MH","stateName":"Maharashtra","countryId":101,"countryCode":"IN","countryName":"India","latitude":"21.53000000","longitude":"79.77000000","wikiDataId":"Q1707583"},{"id":132149,"name":"Hirapur Hamesha","stateId":4008,"stateCode":"MH","stateName":"Maharashtra","countryId":101,"countryCode":"IN","countryName":"India","latitude":"21.55546000","longitude":"79.78581000","wikiDataId":"Q1707583"},{"id":147756,"name":"Hotgi","stateId":4008,"stateCode":"MH","stateName":"Maharashtra","countryId":101,"countryCode":"IN","countryName":"India","latitude":"17.58333333","longitude":"75.98333333","wikiDataId":"Q13122399"},{"id":132150,"name":"Ichalkaranji","stateId":4008,"stateCode":"MH","stateName":"Maharashtra","countryId":101,"countryCode":"IN","countryName":"India","latitude":"16.69117000","longitude":"74.46054000","wikiDataId":"Q583818"},{"id":132155,"name":"Igatpuri","stateId":4008,"stateCode":"MH","stateName":"Maharashtra","countryId":101,"countryCode":"IN","countryName":"India","latitude":"19.69522000","longitude":"73.56260000","wikiDataId":"Q1756158"},{"id":132168,"name":"Indapur","stateId":4008,"stateCode":"MH","stateName":"Maharashtra","countryId":101,"countryCode":"IN","countryName":"India","latitude":"18.30000000","longitude":"73.25000000","wikiDataId":"Q1753960"},{"id":132205,"name":"Jaisingpur","stateId":4008,"stateCode":"MH","stateName":"Maharashtra","countryId":101,"countryCode":"IN","countryName":"India","latitude":"16.77639000","longitude":"74.55361000","wikiDataId":"Q547588"},{"id":147757,"name":"Jaitapur","stateId":4008,"stateCode":"MH","stateName":"Maharashtra","countryId":101,"countryCode":"IN","countryName":"India","latitude":"16.59000000","longitude":"73.35000000","wikiDataId":"Q3160598"},{"id":147758,"name":"Jakhangaon","stateId":4008,"stateCode":"MH","stateName":"Maharashtra","countryId":101,"countryCode":"IN","countryName":"India","latitude":"17.64639000","longitude":"74.32111000","wikiDataId":"Q6125136"},{"id":132214,"name":"Jalgaon","stateId":4008,"stateCode":"MH","stateName":"Maharashtra","countryId":101,"countryCode":"IN","countryName":"India","latitude":"21.00292000","longitude":"75.56602000","wikiDataId":"Q30951"},{"id":132215,"name":"Jalgaon Jamod","stateId":4008,"stateCode":"MH","stateName":"Maharashtra","countryId":101,"countryCode":"IN","countryName":"India","latitude":"21.05194000","longitude":"76.53464000","wikiDataId":"Q2016803"},{"id":147759,"name":"Jalkot","stateId":4008,"stateCode":"MH","stateName":"Maharashtra","countryId":101,"countryCode":"IN","countryName":"India","latitude":"18.62916667","longitude":"77.18111111","wikiDataId":"Q6126876"},{"id":132216,"name":"Jalna","stateId":4008,"stateCode":"MH","stateName":"Maharashtra","countryId":101,"countryCode":"IN","countryName":"India","latitude":"19.80000000","longitude":"75.90000000","wikiDataId":"Q30771"},{"id":147760,"name":"Jamkhed","stateId":4008,"stateCode":"MH","stateName":"Maharashtra","countryId":101,"countryCode":"IN","countryName":"India","latitude":"18.72000000","longitude":"75.32000000","wikiDataId":"Q510832"},{"id":147761,"name":"Jamod","stateId":4008,"stateCode":"MH","stateName":"Maharashtra","countryId":101,"countryCode":"IN","countryName":"India","latitude":"21.10000000","longitude":"76.60000000","wikiDataId":"Q6148130"},{"id":147762,"name":"Janephal","stateId":4008,"stateCode":"MH","stateName":"Maharashtra","countryId":101,"countryCode":"IN","countryName":"India","latitude":"20.29361111","longitude":"76.57583333","wikiDataId":"Q15229313"},{"id":147763,"name":"Jaoli","stateId":4008,"stateCode":"MH","stateName":"Maharashtra","countryId":101,"countryCode":"IN","countryName":"India","latitude":"17.90000000","longitude":"76.40000000","wikiDataId":"Q6156428"},{"id":147764,"name":"Jat Sangli","stateId":4008,"stateCode":"MH","stateName":"Maharashtra","countryId":101,"countryCode":"IN","countryName":"India","latitude":"17.05000000","longitude":"75.21666667","wikiDataId":"Q6164443"},{"id":147765,"name":"Jategaon","stateId":4008,"stateCode":"MH","stateName":"Maharashtra","countryId":101,"countryCode":"IN","countryName":"India","latitude":"19.91666667","longitude":"73.65000000","wikiDataId":"Q6164539"},{"id":132254,"name":"Jawhar","stateId":4008,"stateCode":"MH","stateName":"Maharashtra","countryId":101,"countryCode":"IN","countryName":"India","latitude":"19.91213000","longitude":"73.22679000","wikiDataId":"Q2317504"},{"id":147766,"name":"Jaysingpur","stateId":4008,"stateCode":"MH","stateName":"Maharashtra","countryId":101,"countryCode":"IN","countryName":"India","latitude":"16.78350556","longitude":"74.56644167","wikiDataId":"Q547588"},{"id":132260,"name":"Jejuri","stateId":4008,"stateCode":"MH","stateName":"Maharashtra","countryId":101,"countryCode":"IN","countryName":"India","latitude":"18.27658000","longitude":"74.16008000","wikiDataId":"Q1755879"},{"id":132282,"name":"Jintur","stateId":4008,"stateCode":"MH","stateName":"Maharashtra","countryId":101,"countryCode":"IN","countryName":"India","latitude":"19.61186000","longitude":"76.68740000","wikiDataId":"Q2444446"},{"id":147767,"name":"Jogeshwari","stateId":4008,"stateCode":"MH","stateName":"Maharashtra","countryId":101,"countryCode":"IN","countryName":"India","latitude":"19.12000000","longitude":"72.85000000","wikiDataId":"Q5456464"},{"id":147768,"name":"Juhu","stateId":4008,"stateCode":"MH","stateName":"Maharashtra","countryId":101,"countryCode":"IN","countryName":"India","latitude":"19.10000000","longitude":"72.83000000","wikiDataId":"Q674362"},{"id":132301,"name":"Junnar","stateId":4008,"stateCode":"MH","stateName":"Maharashtra","countryId":101,"countryCode":"IN","countryName":"India","latitude":"19.20815000","longitude":"73.87520000","wikiDataId":"Q2445461"},{"id":147769,"name":"Kachurwahi","stateId":4008,"stateCode":"MH","stateName":"Maharashtra","countryId":101,"countryCode":"IN","countryName":"India","latitude":"21.33330000","longitude":"79.38330000","wikiDataId":"Q6344728"},{"id":147770,"name":"Kadegaon","stateId":4008,"stateCode":"MH","stateName":"Maharashtra","countryId":101,"countryCode":"IN","countryName":"India","latitude":"17.30000000","longitude":"74.35000000","wikiDataId":"Q13640586"},{"id":147771,"name":"Kadus","stateId":4008,"stateCode":"MH","stateName":"Maharashtra","countryId":101,"countryCode":"IN","countryName":"India","latitude":"18.88333333","longitude":"73.81666667","wikiDataId":"Q6345782"},{"id":132677,"name":"Kagal","stateId":4008,"stateCode":"MH","stateName":"Maharashtra","countryId":101,"countryCode":"IN","countryName":"India","latitude":"16.57702000","longitude":"74.31544000","wikiDataId":"Q2442675"},{"id":147772,"name":"Kaij","stateId":4008,"stateCode":"MH","stateName":"Maharashtra","countryId":101,"countryCode":"IN","countryName":"India","latitude":"18.70000000","longitude":"76.08333333","wikiDataId":"Q6347714"},{"id":132345,"name":"Kalamb","stateId":4008,"stateCode":"MH","stateName":"Maharashtra","countryId":101,"countryCode":"IN","countryName":"India","latitude":"19.04437000","longitude":"73.95554000","wikiDataId":"Q3812558"},{"id":147773,"name":"Kalamb Osmanabad","stateId":4008,"stateCode":"MH","stateName":"Maharashtra","countryId":101,"countryCode":"IN","countryName":"India","latitude":"18.57416667","longitude":"76.02166667","wikiDataId":"Q3812558"},{"id":147774,"name":"Kalamboli","stateId":4008,"stateCode":"MH","stateName":"Maharashtra","countryId":101,"countryCode":"IN","countryName":"India","latitude":"19.03333000","longitude":"73.10000000","wikiDataId":"Q5457414"},{"id":132346,"name":"Kalamnuri","stateId":4008,"stateCode":"MH","stateName":"Maharashtra","countryId":101,"countryCode":"IN","countryName":"India","latitude":"19.67386000","longitude":"77.31149000","wikiDataId":"Q2442616"},{"id":132348,"name":"Kalas","stateId":4008,"stateCode":"MH","stateName":"Maharashtra","countryId":101,"countryCode":"IN","countryName":"India","latitude":"18.17241000","longitude":"74.79045000","wikiDataId":"Q2625405"},{"id":147775,"name":"Kali(DK)","stateId":4008,"stateCode":"MH","stateName":"Maharashtra","countryId":101,"countryCode":"IN","countryName":"India","latitude":"19.93877800","longitude":"77.73285700","wikiDataId":"Q6352372"},{"id":132355,"name":"Kalmeshwar","stateId":4008,"stateCode":"MH","stateName":"Maharashtra","countryId":101,"countryCode":"IN","countryName":"India","latitude":"21.23219000","longitude":"78.91988000","wikiDataId":"Q26788279"},{"id":132684,"name":"Kalundri","stateId":4008,"stateCode":"MH","stateName":"Maharashtra","countryId":101,"countryCode":"IN","countryName":"India","latitude":"18.98020000","longitude":"73.12708000","wikiDataId":"Q2281643"},{"id":132359,"name":"Kalyan","stateId":4008,"stateCode":"MH","stateName":"Maharashtra","countryId":101,"countryCode":"IN","countryName":"India","latitude":"19.24370000","longitude":"73.13554000","wikiDataId":"Q366754"},{"id":147776,"name":"Kalyani Nagar","stateId":4008,"stateCode":"MH","stateName":"Maharashtra","countryId":101,"countryCode":"IN","countryName":"India","latitude":"18.54810000","longitude":"73.90330000","wikiDataId":"Q6354979"},{"id":147777,"name":"Kamargaon","stateId":4008,"stateCode":"MH","stateName":"Maharashtra","countryId":101,"countryCode":"IN","countryName":"India","latitude":"20.61666667","longitude":"77.50000000","wikiDataId":"Q6356028"},{"id":147778,"name":"Kamatgi","stateId":4008,"stateCode":"MH","stateName":"Maharashtra","countryId":101,"countryCode":"IN","countryName":"India","latitude":"16.11900000","longitude":"75.84820000","wikiDataId":"Q6356167"},{"id":147779,"name":"Kamptee","stateId":4008,"stateCode":"MH","stateName":"Maharashtra","countryId":101,"countryCode":"IN","countryName":"India","latitude":"21.23330000","longitude":"79.20000000","wikiDataId":"Q2283184"},{"id":132700,"name":"Kandri","stateId":4008,"stateCode":"MH","stateName":"Maharashtra","countryId":101,"countryCode":"IN","countryName":"India","latitude":"21.42030000","longitude":"79.27663000","wikiDataId":"Q520995"},{"id":132375,"name":"Kankauli","stateId":4008,"stateCode":"MH","stateName":"Maharashtra","countryId":101,"countryCode":"IN","countryName":"India","latitude":"16.26609000","longitude":"73.71217000","wikiDataId":"Q2549200"},{"id":147780,"name":"Kankavli","stateId":4008,"stateCode":"MH","stateName":"Maharashtra","countryId":101,"countryCode":"IN","countryName":"India","latitude":"16.28551111","longitude":"73.68446111","wikiDataId":"Q2549200"},{"id":132377,"name":"Kannad","stateId":4008,"stateCode":"MH","stateName":"Maharashtra","countryId":101,"countryCode":"IN","countryName":"India","latitude":"20.25684000","longitude":"75.13786000","wikiDataId":"Q2340084"},{"id":132412,"name":"Karad","stateId":4008,"stateCode":"MH","stateName":"Maharashtra","countryId":101,"countryCode":"IN","countryName":"India","latitude":"17.28937000","longitude":"74.18183000","wikiDataId":"Q2445542"},{"id":147781,"name":"Karajagi","stateId":4008,"stateCode":"MH","stateName":"Maharashtra","countryId":101,"countryCode":"IN","countryName":"India","latitude":"17.11666667","longitude":"75.58333333","wikiDataId":"Q6368045"},{"id":132717,"name":"Karanja","stateId":4008,"stateCode":"MH","stateName":"Maharashtra","countryId":101,"countryCode":"IN","countryName":"India","latitude":"20.48273000","longitude":"77.48857000","wikiDataId":"Q2317517"},{"id":147782,"name":"Karanja Lad","stateId":4008,"stateCode":"MH","stateName":"Maharashtra","countryId":101,"countryCode":"IN","countryName":"India","latitude":"20.48330000","longitude":"77.48330000","wikiDataId":"Q2317517"},{"id":132403,"name":"Karjat","stateId":4008,"stateCode":"MH","stateName":"Maharashtra","countryId":101,"countryCode":"IN","countryName":"India","latitude":"18.91070000","longitude":"73.32354000","wikiDataId":"Q2283155"},{"id":147783,"name":"Karkamb","stateId":4008,"stateCode":"MH","stateName":"Maharashtra","countryId":101,"countryCode":"IN","countryName":"India","latitude":"17.86530000","longitude":"75.29640000","wikiDataId":"Q16893153"},{"id":132404,"name":"Karmala","stateId":4008,"stateCode":"MH","stateName":"Maharashtra","countryId":101,"countryCode":"IN","countryName":"India","latitude":"18.40770000","longitude":"75.19386000","wikiDataId":"Q2283149"},{"id":147784,"name":"Kasara","stateId":4008,"stateCode":"MH","stateName":"Maharashtra","countryId":101,"countryCode":"IN","countryName":"India","latitude":"19.63330000","longitude":"73.48330000","wikiDataId":"Q2390873"},{"id":147785,"name":"Kasoda","stateId":4008,"stateCode":"MH","stateName":"Maharashtra","countryId":101,"countryCode":"IN","countryName":"India","latitude":"20.81666667","longitude":"75.30000000","wikiDataId":"Q6374615"},{"id":132724,"name":"Kati","stateId":4008,"stateCode":"MH","stateName":"Maharashtra","countryId":101,"countryCode":"IN","countryName":"India","latitude":"17.96137000","longitude":"75.88895000","wikiDataId":"Q2019118"},{"id":132725,"name":"Katol","stateId":4008,"stateCode":"MH","stateName":"Maharashtra","countryId":101,"countryCode":"IN","countryName":"India","latitude":"21.27388000","longitude":"78.58580000","wikiDataId":"Q2445558"},{"id":147786,"name":"Katral","stateId":4008,"stateCode":"MH","stateName":"Maharashtra","countryId":101,"countryCode":"IN","countryName":"India","latitude":"17.16666667","longitude":"75.63333333","wikiDataId":"Q6377849"},{"id":132450,"name":"Khadki","stateId":4008,"stateCode":"MH","stateName":"Maharashtra","countryId":101,"countryCode":"IN","countryName":"India","latitude":"18.56350000","longitude":"73.85205000","wikiDataId":"Q2234392"},{"id":147787,"name":"Khalapur","stateId":4008,"stateCode":"MH","stateName":"Maharashtra","countryId":101,"countryCode":"IN","countryName":"India","latitude":"18.81666667","longitude":"73.26666667","wikiDataId":"Q4494967"},{"id":147788,"name":"Khallar","stateId":4008,"stateCode":"MH","stateName":"Maharashtra","countryId":101,"countryCode":"IN","countryName":"India","latitude":"21.04028690","longitude":"77.46562960","wikiDataId":"Q6399815"},{"id":132513,"name":"Khamgaon","stateId":4008,"stateCode":"MH","stateName":"Maharashtra","countryId":101,"countryCode":"IN","countryName":"India","latitude":"20.70738000","longitude":"76.56827000","wikiDataId":"Q2138775"},{"id":147789,"name":"Khanapur","stateId":4008,"stateCode":"MH","stateName":"Maharashtra","countryId":101,"countryCode":"IN","countryName":"India","latitude":"17.26111111","longitude":"74.70166667","wikiDataId":"Q6400170"},{"id":147790,"name":"Khandala","stateId":4008,"stateCode":"MH","stateName":"Maharashtra","countryId":101,"countryCode":"IN","countryName":"India","latitude":"18.05918056","longitude":"74.01262778","wikiDataId":"Q3595887"},{"id":147791,"name":"Khangaon","stateId":4008,"stateCode":"MH","stateName":"Maharashtra","countryId":101,"countryCode":"IN","countryName":"India","latitude":"20.50000000","longitude":"78.61666667","wikiDataId":"Q6400302"},{"id":132517,"name":"Khapa","stateId":4008,"stateCode":"MH","stateName":"Maharashtra","countryId":101,"countryCode":"IN","countryName":"India","latitude":"21.42243000","longitude":"78.98168000","wikiDataId":"Q2135471"},{"id":132471,"name":"Kharakvasla","stateId":4008,"stateCode":"MH","stateName":"Maharashtra","countryId":101,"countryCode":"IN","countryName":"India","latitude":"18.43997000","longitude":"73.77545000","wikiDataId":"Q26787499"},{"id":147792,"name":"Kharda","stateId":4008,"stateCode":"MH","stateName":"Maharashtra","countryId":101,"countryCode":"IN","countryName":"India","latitude":"18.63753000","longitude":"75.47513000","wikiDataId":"Q6400611"},{"id":147793,"name":"Kharghar","stateId":4008,"stateCode":"MH","stateName":"Maharashtra","countryId":101,"countryCode":"IN","countryName":"India","latitude":"19.03614722","longitude":"73.06172222","wikiDataId":"Q2722343"},{"id":147794,"name":"Kharsundi","stateId":4008,"stateCode":"MH","stateName":"Maharashtra","countryId":101,"countryCode":"IN","countryName":"India","latitude":"17.34158500","longitude":"74.77599600","wikiDataId":"Q15236521"},{"id":132487,"name":"Khed","stateId":4008,"stateCode":"MH","stateName":"Maharashtra","countryId":101,"countryCode":"IN","countryName":"India","latitude":"17.71888000","longitude":"73.39693000","wikiDataId":"Q2119988"},{"id":132495,"name":"Khetia","stateId":4008,"stateCode":"MH","stateName":"Maharashtra","countryId":101,"countryCode":"IN","countryName":"India","latitude":"21.67124000","longitude":"74.58535000","wikiDataId":"Q2231812"},{"id":147796,"name":"Khoni","stateId":4008,"stateCode":"MH","stateName":"Maharashtra","countryId":101,"countryCode":"IN","countryName":"India","latitude":"19.31130000","longitude":"73.05440000","wikiDataId":"Q2248426"},{"id":132500,"name":"Khopoli","stateId":4008,"stateCode":"MH","stateName":"Maharashtra","countryId":101,"countryCode":"IN","countryName":"India","latitude":"18.78562000","longitude":"73.34589000","wikiDataId":"Q12422734"},{"id":132505,"name":"Khuldabad","stateId":4008,"stateCode":"MH","stateName":"Maharashtra","countryId":101,"countryCode":"IN","countryName":"India","latitude":"20.00671000","longitude":"75.19245000","wikiDataId":"Q1025625"},{"id":132524,"name":"Kinwat","stateId":4008,"stateCode":"MH","stateName":"Maharashtra","countryId":101,"countryCode":"IN","countryName":"India","latitude":"19.62557000","longitude":"78.19870000","wikiDataId":"Q2237173"},{"id":132543,"name":"Kodoli","stateId":4008,"stateCode":"MH","stateName":"Maharashtra","countryId":101,"countryCode":"IN","countryName":"India","latitude":"16.87639000","longitude":"74.19090000","wikiDataId":"Q2237032"},{"id":132556,"name":"Kolhapur","stateId":4008,"stateCode":"MH","stateName":"Maharashtra","countryId":101,"countryCode":"IN","countryName":"India","latitude":"16.69013000","longitude":"74.22981000","wikiDataId":"Q209698"},{"id":132566,"name":"Kondalwadi","stateId":4008,"stateCode":"MH","stateName":"Maharashtra","countryId":101,"countryCode":"IN","countryName":"India","latitude":"18.80727000","longitude":"77.77031000","wikiDataId":"Q2234676"},{"id":147797,"name":"Kondhali","stateId":4008,"stateCode":"MH","stateName":"Maharashtra","countryId":101,"countryCode":"IN","countryName":"India","latitude":"21.15000000","longitude":"78.61666667","wikiDataId":"Q6428989"},{"id":147798,"name":"Kopar Khairane","stateId":4008,"stateCode":"MH","stateName":"Maharashtra","countryId":101,"countryCode":"IN","countryName":"India","latitude":"19.10305556","longitude":"73.01055556","wikiDataId":"Q4934244"},{"id":132572,"name":"Kopargaon","stateId":4008,"stateCode":"MH","stateName":"Maharashtra","countryId":101,"countryCode":"IN","countryName":"India","latitude":"19.88239000","longitude":"74.47605000","wikiDataId":"Q2241490"},{"id":147799,"name":"Kopela","stateId":4008,"stateCode":"MH","stateName":"Maharashtra","countryId":101,"countryCode":"IN","countryName":"India","latitude":"18.83000000","longitude":"80.23000000","wikiDataId":"Q6431067"},{"id":132586,"name":"Koradi","stateId":4008,"stateCode":"MH","stateName":"Maharashtra","countryId":101,"countryCode":"IN","countryName":"India","latitude":"21.24758000","longitude":"79.10575000","wikiDataId":"Q6432751"},{"id":132582,"name":"Koregaon","stateId":4008,"stateCode":"MH","stateName":"Maharashtra","countryId":101,"countryCode":"IN","countryName":"India","latitude":"18.64573000","longitude":"74.05909000","wikiDataId":"Q2729341"},{"id":132618,"name":"Koynanagar","stateId":4008,"stateCode":"MH","stateName":"Maharashtra","countryId":101,"countryCode":"IN","countryName":"India","latitude":"17.40000000","longitude":"73.76667000","wikiDataId":"Q6435154"},{"id":132629,"name":"Kudal","stateId":4008,"stateCode":"MH","stateName":"Maharashtra","countryId":101,"countryCode":"IN","countryName":"India","latitude":"16.01148000","longitude":"73.68867000","wikiDataId":"Q2239036"},{"id":147800,"name":"Kuhi","stateId":4008,"stateCode":"MH","stateName":"Maharashtra","countryId":101,"countryCode":"IN","countryName":"India","latitude":"21.01082222","longitude":"79.35242222","wikiDataId":"Q6442100"},{"id":132656,"name":"Kurandvad","stateId":4008,"stateCode":"MH","stateName":"Maharashtra","countryId":101,"countryCode":"IN","countryName":"India","latitude":"16.68317000","longitude":"74.58892000","wikiDataId":"Q1949085"},{"id":147801,"name":"Kurankhed","stateId":4008,"stateCode":"MH","stateName":"Maharashtra","countryId":101,"countryCode":"IN","countryName":"India","latitude":"20.70194444","longitude":"77.24972222","wikiDataId":"Q6445605"},{"id":132657,"name":"Kurduvadi","stateId":4008,"stateCode":"MH","stateName":"Maharashtra","countryId":101,"countryCode":"IN","countryName":"India","latitude":"18.09339000","longitude":"75.41567000","wikiDataId":"Q2238903"},{"id":147802,"name":"Kusumba","stateId":4008,"stateCode":"MH","stateName":"Maharashtra","countryId":101,"countryCode":"IN","countryName":"India","latitude":"20.91666667","longitude":"74.65000000","wikiDataId":"Q6448221"},{"id":147803,"name":"Lakhandur","stateId":4008,"stateCode":"MH","stateName":"Maharashtra","countryId":101,"countryCode":"IN","countryName":"India","latitude":"20.75000000","longitude":"79.88333333","wikiDataId":"Q6479500"},{"id":132799,"name":"Lanja","stateId":4008,"stateCode":"MH","stateName":"Maharashtra","countryId":101,"countryCode":"IN","countryName":"India","latitude":"16.86086000","longitude":"73.54993000","wikiDataId":"Q2237794"},{"id":132800,"name":"Lasalgaon","stateId":4008,"stateCode":"MH","stateName":"Maharashtra","countryId":101,"countryCode":"IN","countryName":"India","latitude":"20.14270000","longitude":"74.23946000","wikiDataId":"Q2235584"},{"id":132759,"name":"Latur","stateId":4008,"stateCode":"MH","stateName":"Maharashtra","countryId":101,"countryCode":"IN","countryName":"India","latitude":"18.40000000","longitude":"76.80000000","wikiDataId":"Q61394"},{"id":147804,"name":"Lavasa","stateId":4008,"stateCode":"MH","stateName":"Maharashtra","countryId":101,"countryCode":"IN","countryName":"India","latitude":"18.40528056","longitude":"73.50626944","wikiDataId":"Q989925"},{"id":132770,"name":"Lohogaon","stateId":4008,"stateCode":"MH","stateName":"Maharashtra","countryId":101,"countryCode":"IN","countryName":"India","latitude":"18.59921000","longitude":"73.92701000","wikiDataId":"Q26786371"},{"id":132776,"name":"Lonar","stateId":4008,"stateCode":"MH","stateName":"Maharashtra","countryId":101,"countryCode":"IN","countryName":"India","latitude":"19.98533000","longitude":"76.52046000","wikiDataId":"Q61436"},{"id":132773,"name":"Lonavla","stateId":4008,"stateCode":"MH","stateName":"Maharashtra","countryId":101,"countryCode":"IN","countryName":"India","latitude":"18.75275000","longitude":"73.40575000","wikiDataId":"Q1929511"},{"id":132844,"name":"Mahabaleshwar","stateId":4008,"stateCode":"MH","stateName":"Maharashtra","countryId":101,"countryCode":"IN","countryName":"India","latitude":"17.56000000","longitude":"73.40000000","wikiDataId":"Q463273"},{"id":132846,"name":"Mahad","stateId":4008,"stateCode":"MH","stateName":"Maharashtra","countryId":101,"countryCode":"IN","countryName":"India","latitude":"18.08333000","longitude":"73.41667000","wikiDataId":"Q2238564"},{"id":147805,"name":"Mahape","stateId":4008,"stateCode":"MH","stateName":"Maharashtra","countryId":101,"countryCode":"IN","countryName":"India","latitude":"19.11776000","longitude":"73.02693800","wikiDataId":"Q15243710"},{"id":147806,"name":"Mahim","stateId":4008,"stateCode":"MH","stateName":"Maharashtra","countryId":101,"countryCode":"IN","countryName":"India","latitude":"19.03500000","longitude":"72.84000000","wikiDataId":"Q674501"},{"id":132856,"name":"Maindargi","stateId":4008,"stateCode":"MH","stateName":"Maharashtra","countryId":101,"countryCode":"IN","countryName":"India","latitude":"17.45739000","longitude":"76.29320000","wikiDataId":"Q2546729"},{"id":133062,"name":"Majalgaon","stateId":4008,"stateCode":"MH","stateName":"Maharashtra","countryId":101,"countryCode":"IN","countryName":"India","latitude":"19.15988000","longitude":"76.20832000","wikiDataId":"Q2546703"},{"id":133063,"name":"Makhjan","stateId":4008,"stateCode":"MH","stateName":"Maharashtra","countryId":101,"countryCode":"IN","countryName":"India","latitude":"17.26980000","longitude":"73.50031000","wikiDataId":"Q2546703"},{"id":147807,"name":"Malabar Hill","stateId":4008,"stateCode":"MH","stateName":"Maharashtra","countryId":101,"countryCode":"IN","countryName":"India","latitude":"18.95000000","longitude":"72.79500000","wikiDataId":"Q6373912"},{"id":147808,"name":"Malad","stateId":4008,"stateCode":"MH","stateName":"Maharashtra","countryId":101,"countryCode":"IN","countryName":"India","latitude":"19.18611111","longitude":"72.84861111","wikiDataId":"Q6740929"},{"id":133065,"name":"Malegaon","stateId":4008,"stateCode":"MH","stateName":"Maharashtra","countryId":101,"countryCode":"IN","countryName":"India","latitude":"20.54966000","longitude":"74.53462000","wikiDataId":"Q580965"},{"id":132872,"name":"Malkapur","stateId":4008,"stateCode":"MH","stateName":"Maharashtra","countryId":101,"countryCode":"IN","countryName":"India","latitude":"17.26214000","longitude":"74.17574000","wikiDataId":"Q2631025"},{"id":133070,"name":"Malvan","stateId":4008,"stateCode":"MH","stateName":"Maharashtra","countryId":101,"countryCode":"IN","countryName":"India","latitude":"16.05981000","longitude":"73.46290000","wikiDataId":"Q2450888"},{"id":132886,"name":"Manchar","stateId":4008,"stateCode":"MH","stateName":"Maharashtra","countryId":101,"countryCode":"IN","countryName":"India","latitude":"19.00436000","longitude":"73.94346000","wikiDataId":"Q1320215"},{"id":147809,"name":"Mandangad","stateId":4008,"stateCode":"MH","stateName":"Maharashtra","countryId":101,"countryCode":"IN","countryName":"India","latitude":"17.98333333","longitude":"73.25000000","wikiDataId":"Q15244520"},{"id":147810,"name":"Mandhal","stateId":4008,"stateCode":"MH","stateName":"Maharashtra","countryId":101,"countryCode":"IN","countryName":"India","latitude":"20.95000000","longitude":"79.46666667","wikiDataId":"Q6748015"},{"id":147811,"name":"Mandwa","stateId":4008,"stateCode":"MH","stateName":"Maharashtra","countryId":101,"countryCode":"IN","countryName":"India","latitude":"18.80300000","longitude":"72.88200000","wikiDataId":"Q6748267"},{"id":147812,"name":"Mangaon","stateId":4008,"stateCode":"MH","stateName":"Maharashtra","countryId":101,"countryCode":"IN","countryName":"India","latitude":"18.23333333","longitude":"73.28333333","wikiDataId":"Q6748809"},{"id":132909,"name":"Mangrul Pir","stateId":4008,"stateCode":"MH","stateName":"Maharashtra","countryId":101,"countryCode":"IN","countryName":"India","latitude":"20.31379000","longitude":"77.34178000","wikiDataId":"Q2552130"},{"id":147813,"name":"Manjlegaon","stateId":4008,"stateCode":"MH","stateName":"Maharashtra","countryId":101,"countryCode":"IN","countryName":"India","latitude":"19.15000000","longitude":"76.23000000","wikiDataId":"Q2546703"},{"id":147814,"name":"Mankeshwar","stateId":4008,"stateCode":"MH","stateName":"Maharashtra","countryId":101,"countryCode":"IN","countryName":"India","latitude":"18.35416667","longitude":"75.63916667","wikiDataId":"Q6750510"},{"id":147815,"name":"Mankhurd","stateId":4008,"stateCode":"MH","stateName":"Maharashtra","countryId":101,"countryCode":"IN","countryName":"India","latitude":"19.05000000","longitude":"72.93000000","wikiDataId":"Q4856120"},{"id":132918,"name":"Manmad","stateId":4008,"stateCode":"MH","stateName":"Maharashtra","countryId":101,"countryCode":"IN","countryName":"India","latitude":"20.25334000","longitude":"74.43755000","wikiDataId":"Q2317441"},{"id":132924,"name":"Manor","stateId":4008,"stateCode":"MH","stateName":"Maharashtra","countryId":101,"countryCode":"IN","countryName":"India","latitude":"19.72440000","longitude":"72.90966000","wikiDataId":"Q3844824"},{"id":132926,"name":"Mansar","stateId":4008,"stateCode":"MH","stateName":"Maharashtra","countryId":101,"countryCode":"IN","countryName":"India","latitude":"21.39602000","longitude":"79.26350000","wikiDataId":"Q1320187"},{"id":133084,"name":"Manwat","stateId":4008,"stateCode":"MH","stateName":"Maharashtra","countryId":101,"countryCode":"IN","countryName":"India","latitude":"19.30133000","longitude":"76.49735000","wikiDataId":"Q2546880"},{"id":147817,"name":"Maregaon","stateId":4008,"stateCode":"MH","stateName":"Maharashtra","countryId":101,"countryCode":"IN","countryName":"India","latitude":"20.10000000","longitude":"78.81666667","wikiDataId":"Q15246932"},{"id":147818,"name":"Mastiholi","stateId":4008,"stateCode":"MH","stateName":"Maharashtra","countryId":101,"countryCode":"IN","countryName":"India","latitude":"16.08333333","longitude":"74.55000000","wikiDataId":"Q6785553"},{"id":147819,"name":"Masur India","stateId":4008,"stateCode":"MH","stateName":"Maharashtra","countryId":101,"countryCode":"IN","countryName":"India","latitude":"17.40000000","longitude":"74.15000000","wikiDataId":"Q6785717"},{"id":133090,"name":"Matheran","stateId":4008,"stateCode":"MH","stateName":"Maharashtra","countryId":101,"countryCode":"IN","countryName":"India","latitude":"18.98281000","longitude":"73.26520000","wikiDataId":"Q463526"},{"id":147820,"name":"Matunga","stateId":4008,"stateCode":"MH","stateName":"Maharashtra","countryId":101,"countryCode":"IN","countryName":"India","latitude":"19.01798056","longitude":"72.84476389","wikiDataId":"Q5226775"},{"id":147821,"name":"Mazagaon","stateId":4008,"stateCode":"MH","stateName":"Maharashtra","countryId":101,"countryCode":"IN","countryName":"India","latitude":"18.97000000","longitude":"72.85000000","wikiDataId":"Q5121900"},{"id":132961,"name":"Mehekar","stateId":4008,"stateCode":"MH","stateName":"Maharashtra","countryId":101,"countryCode":"IN","countryName":"India","latitude":"20.15050000","longitude":"76.56841000","wikiDataId":"Q2673732"},{"id":147822,"name":"Mehergaon","stateId":4008,"stateCode":"MH","stateName":"Maharashtra","countryId":101,"countryCode":"IN","countryName":"India","latitude":"20.96666667","longitude":"74.63333333","wikiDataId":"Q6809474"},{"id":147823,"name":"Mehkar","stateId":4008,"stateCode":"MH","stateName":"Maharashtra","countryId":101,"countryCode":"IN","countryName":"India","latitude":"20.15000000","longitude":"76.57500000","wikiDataId":"Q2673732"},{"id":132971,"name":"Mhasla","stateId":4008,"stateCode":"MH","stateName":"Maharashtra","countryId":101,"countryCode":"IN","countryName":"India","latitude":"18.13340000","longitude":"73.11162000","wikiDataId":"Q2546690"},{"id":132972,"name":"Mhasvad","stateId":4008,"stateCode":"MH","stateName":"Maharashtra","countryId":101,"countryCode":"IN","countryName":"India","latitude":"17.63359000","longitude":"74.78773000","wikiDataId":"Q26782291"},{"id":147824,"name":"Miraj","stateId":4008,"stateCode":"MH","stateName":"Maharashtra","countryId":101,"countryCode":"IN","countryName":"India","latitude":"16.83000000","longitude":"74.63000000","wikiDataId":"Q522760"},{"id":147825,"name":"Mohadi","stateId":4008,"stateCode":"MH","stateName":"Maharashtra","countryId":101,"countryCode":"IN","countryName":"India","latitude":"21.30833333","longitude":"79.67500000","wikiDataId":"Q6890830"},{"id":147826,"name":"Mohol","stateId":4008,"stateCode":"MH","stateName":"Maharashtra","countryId":101,"countryCode":"IN","countryName":"India","latitude":"17.81670000","longitude":"75.66670000","wikiDataId":"Q6894280"},{"id":132985,"name":"Mohpa","stateId":4008,"stateCode":"MH","stateName":"Maharashtra","countryId":101,"countryCode":"IN","countryName":"India","latitude":"21.31012000","longitude":"78.82969000","wikiDataId":"Q751161"},{"id":147827,"name":"Mokhada taluka","stateId":4008,"stateCode":"MH","stateName":"Maharashtra","countryId":101,"countryCode":"IN","countryName":"India","latitude":"19.93333333","longitude":"73.33333333","wikiDataId":"Q6895283"},{"id":147828,"name":"Mora Maharashtra","stateId":4008,"stateCode":"MH","stateName":"Maharashtra","countryId":101,"countryCode":"IN","countryName":"India","latitude":"18.88900000","longitude":"72.93400000","wikiDataId":"Q6908888"},{"id":132992,"name":"Moram","stateId":4008,"stateCode":"MH","stateName":"Maharashtra","countryId":101,"countryCode":"IN","countryName":"India","latitude":"17.78812000","longitude":"76.47077000","wikiDataId":"Q26782317"},{"id":132999,"name":"Morsi","stateId":4008,"stateCode":"MH","stateName":"Maharashtra","countryId":101,"countryCode":"IN","countryName":"India","latitude":"21.34030000","longitude":"78.01258000","wikiDataId":"Q26782328"},{"id":133006,"name":"Mowad","stateId":4008,"stateCode":"MH","stateName":"Maharashtra","countryId":101,"countryCode":"IN","countryName":"India","latitude":"21.46475000","longitude":"78.45103000","wikiDataId":"Q1774606"},{"id":133012,"name":"Mudkhed","stateId":4008,"stateCode":"MH","stateName":"Maharashtra","countryId":101,"countryCode":"IN","countryName":"India","latitude":"19.15657000","longitude":"77.50304000","wikiDataId":"Q2546606"},{"id":133018,"name":"Mukher","stateId":4008,"stateCode":"MH","stateName":"Maharashtra","countryId":101,"countryCode":"IN","countryName":"India","latitude":"18.70636000","longitude":"77.36795000","wikiDataId":"Q26782341"},{"id":133099,"name":"Mul","stateId":4008,"stateCode":"MH","stateName":"Maharashtra","countryId":101,"countryCode":"IN","countryName":"India","latitude":"20.06987000","longitude":"79.67826000","wikiDataId":"Q3824950"},{"id":147829,"name":"Mulher","stateId":4008,"stateCode":"MH","stateName":"Maharashtra","countryId":101,"countryCode":"IN","countryName":"India","latitude":"20.78138889","longitude":"74.06388889","wikiDataId":"Q6933986"},{"id":147830,"name":"Mulund","stateId":4008,"stateCode":"MH","stateName":"Maharashtra","countryId":101,"countryCode":"IN","countryName":"India","latitude":"19.17168056","longitude":"72.95600000","wikiDataId":"Q6935217"},{"id":133024,"name":"Mumbai","stateId":4008,"stateCode":"MH","stateName":"Maharashtra","countryId":101,"countryCode":"IN","countryName":"India","latitude":"19.07283000","longitude":"72.88261000","wikiDataId":"Q1156"},{"id":133025,"name":"Mumbai Suburban","stateId":4008,"stateCode":"MH","stateName":"Maharashtra","countryId":101,"countryCode":"IN","countryName":"India","latitude":"19.12636000","longitude":"72.84897000","wikiDataId":"Q2341660"},{"id":133035,"name":"Murbad","stateId":4008,"stateCode":"MH","stateName":"Maharashtra","countryId":101,"countryCode":"IN","countryName":"India","latitude":"19.25395000","longitude":"73.38993000","wikiDataId":"Q2546816"},{"id":133036,"name":"Murgud","stateId":4008,"stateCode":"MH","stateName":"Maharashtra","countryId":101,"countryCode":"IN","countryName":"India","latitude":"16.39604000","longitude":"74.19142000","wikiDataId":"Q2445568"},{"id":133039,"name":"Murtajapur","stateId":4008,"stateCode":"MH","stateName":"Maharashtra","countryId":101,"countryCode":"IN","countryName":"India","latitude":"20.73299000","longitude":"77.36694000","wikiDataId":"Q2445448"},{"id":133040,"name":"Murud (Raigad)","stateId":4008,"stateCode":"MH","stateName":"Maharashtra","countryId":101,"countryCode":"IN","countryName":"India","latitude":"18.32817000","longitude":"72.96210000","wikiDataId":"Q1924853"},{"id":147831,"name":"Murud (Ratnagiri)","stateId":4008,"stateCode":"MH","stateName":"Maharashtra","countryId":101,"countryCode":"IN","countryName":"India","latitude":"17.77494444","longitude":"73.11815000","wikiDataId":"Q6939780"},{"id":147832,"name":"Murum","stateId":4008,"stateCode":"MH","stateName":"Maharashtra","countryId":101,"countryCode":"IN","countryName":"India","latitude":"17.78777778","longitude":"76.47000000","wikiDataId":"Q2546781"},{"id":147833,"name":"Nadgaon","stateId":4008,"stateCode":"MH","stateName":"Maharashtra","countryId":101,"countryCode":"IN","countryName":"India","latitude":"20.90101389","longitude":"76.01396389","wikiDataId":"Q6957648"},{"id":147834,"name":"Nagapur","stateId":4008,"stateCode":"MH","stateName":"Maharashtra","countryId":101,"countryCode":"IN","countryName":"India","latitude":"18.87000000","longitude":"76.43000000","wikiDataId":"Q2546917"},{"id":133260,"name":"Nagothana","stateId":4008,"stateCode":"MH","stateName":"Maharashtra","countryId":101,"countryCode":"IN","countryName":"India","latitude":"18.54225000","longitude":"73.13493000","wikiDataId":"Q592673"},{"id":133116,"name":"Nagpur","stateId":4008,"stateCode":"MH","stateName":"Maharashtra","countryId":101,"countryCode":"IN","countryName":"India","latitude":"21.14631000","longitude":"79.08491000","wikiDataId":"Q1513"},{"id":133117,"name":"Nagpur Division","stateId":4008,"stateCode":"MH","stateName":"Maharashtra","countryId":101,"countryCode":"IN","countryName":"India","latitude":"21.14911000","longitude":"79.10748000","wikiDataId":"Q305259"},{"id":147835,"name":"Nala Sopara","stateId":4008,"stateCode":"MH","stateName":"Maharashtra","countryId":101,"countryCode":"IN","countryName":"India","latitude":"19.41540000","longitude":"72.86130000","wikiDataId":"Q12435629"},{"id":133131,"name":"Naldurg","stateId":4008,"stateCode":"MH","stateName":"Maharashtra","countryId":101,"countryCode":"IN","countryName":"India","latitude":"17.81667000","longitude":"76.28182000","wikiDataId":"Q2572967"},{"id":147836,"name":"Nalegaon","stateId":4008,"stateCode":"MH","stateName":"Maharashtra","countryId":101,"countryCode":"IN","countryName":"India","latitude":"18.41666667","longitude":"76.81666667","wikiDataId":"Q6960863"},{"id":147837,"name":"Nampur","stateId":4008,"stateCode":"MH","stateName":"Maharashtra","countryId":101,"countryCode":"IN","countryName":"India","latitude":"20.72861111","longitude":"74.31083333","wikiDataId":"Q6962047"},{"id":133141,"name":"Nanded","stateId":4008,"stateCode":"MH","stateName":"Maharashtra","countryId":101,"countryCode":"IN","countryName":"India","latitude":"18.91667000","longitude":"77.50000000","wikiDataId":"Q855122"},{"id":133267,"name":"Nandgaon","stateId":4008,"stateCode":"MH","stateName":"Maharashtra","countryId":101,"countryCode":"IN","countryName":"India","latitude":"20.30680000","longitude":"74.65501000","wikiDataId":"Q1931382"},{"id":147838,"name":"Nandnee","stateId":4008,"stateCode":"MH","stateName":"Maharashtra","countryId":101,"countryCode":"IN","countryName":"India","latitude":"17.45500000","longitude":"75.84555556","wikiDataId":"Q6963358"},{"id":147839,"name":"Nandura","stateId":4008,"stateCode":"MH","stateName":"Maharashtra","countryId":101,"countryCode":"IN","countryName":"India","latitude":"20.83333333","longitude":"76.45972222","wikiDataId":"Q546955"},{"id":133268,"name":"Nandura Buzurg","stateId":4008,"stateCode":"MH","stateName":"Maharashtra","countryId":101,"countryCode":"IN","countryName":"India","latitude":"20.83417000","longitude":"76.45924000","wikiDataId":"Q546955"},{"id":133145,"name":"Nandurbar","stateId":4008,"stateCode":"MH","stateName":"Maharashtra","countryId":101,"countryCode":"IN","countryName":"India","latitude":"21.37000000","longitude":"74.20000000","wikiDataId":"Q2087583"},{"id":147840,"name":"Narayangaon","stateId":4008,"stateCode":"MH","stateName":"Maharashtra","countryId":101,"countryCode":"IN","countryName":"India","latitude":"19.07000000","longitude":"73.97000000","wikiDataId":"Q6965557"},{"id":147841,"name":"Nardana","stateId":4008,"stateCode":"MH","stateName":"Maharashtra","countryId":101,"countryCode":"IN","countryName":"India","latitude":"21.20000000","longitude":"74.81666667","wikiDataId":"Q6965708"},{"id":147842,"name":"Nariman Point","stateId":4008,"stateCode":"MH","stateName":"Maharashtra","countryId":101,"countryCode":"IN","countryName":"India","latitude":"18.92000000","longitude":"72.83000000","wikiDataId":"Q3632268"},{"id":147843,"name":"Narkhed","stateId":4008,"stateCode":"MH","stateName":"Maharashtra","countryId":101,"countryCode":"IN","countryName":"India","latitude":"21.47000000","longitude":"78.53000000","wikiDataId":"Q938857"},{"id":133177,"name":"Nashik","stateId":4008,"stateCode":"MH","stateName":"Maharashtra","countryId":101,"countryCode":"IN","countryName":"India","latitude":"19.99727000","longitude":"73.79096000","wikiDataId":"Q200235"},{"id":133178,"name":"Nashik Division","stateId":4008,"stateCode":"MH","stateName":"Maharashtra","countryId":101,"countryCode":"IN","countryName":"India","latitude":"19.98295000","longitude":"73.78942000","wikiDataId":"Q526400"},{"id":147844,"name":"Navapur","stateId":4008,"stateCode":"MH","stateName":"Maharashtra","countryId":101,"countryCode":"IN","countryName":"India","latitude":"21.17000000","longitude":"73.78000000","wikiDataId":"Q2722255"},{"id":133186,"name":"Navi Mumbai","stateId":4008,"stateCode":"MH","stateName":"Maharashtra","countryId":101,"countryCode":"IN","countryName":"India","latitude":"19.03681000","longitude":"73.01582000","wikiDataId":"Q61445"},{"id":133208,"name":"Neral","stateId":4008,"stateCode":"MH","stateName":"Maharashtra","countryId":101,"countryCode":"IN","countryName":"India","latitude":"19.02475000","longitude":"73.31688000","wikiDataId":"Q2247572"},{"id":147845,"name":"Nerur","stateId":4008,"stateCode":"MH","stateName":"Maharashtra","countryId":101,"countryCode":"IN","countryName":"India","latitude":"15.98333333","longitude":"73.65000000","wikiDataId":"Q6996771"},{"id":147846,"name":"Nevasa","stateId":4008,"stateCode":"MH","stateName":"Maharashtra","countryId":101,"countryCode":"IN","countryName":"India","latitude":"19.53333333","longitude":"74.93333333","wikiDataId":"Q7003750"},{"id":147847,"name":"Nighoj","stateId":4008,"stateCode":"MH","stateName":"Maharashtra","countryId":101,"countryCode":"IN","countryName":"India","latitude":"18.95972222","longitude":"74.27694444","wikiDataId":"Q15262323"},{"id":133217,"name":"Nilanga","stateId":4008,"stateCode":"MH","stateName":"Maharashtra","countryId":101,"countryCode":"IN","countryName":"India","latitude":"18.11675000","longitude":"76.75279000","wikiDataId":"Q2546766"},{"id":133220,"name":"Nipani","stateId":4008,"stateCode":"MH","stateName":"Maharashtra","countryId":101,"countryCode":"IN","countryName":"India","latitude":"16.39900000","longitude":"74.38285000","wikiDataId":"Q2283213"},{"id":147848,"name":"Niphad","stateId":4008,"stateCode":"MH","stateName":"Maharashtra","countryId":101,"countryCode":"IN","countryName":"India","latitude":"20.08330000","longitude":"73.80000000","wikiDataId":"Q2763226"},{"id":147849,"name":"Nira Narsingpur","stateId":4008,"stateCode":"MH","stateName":"Maharashtra","countryId":101,"countryCode":"IN","countryName":"India","latitude":"17.98350000","longitude":"75.12396000","wikiDataId":"Q7039851"},{"id":133305,"name":"Osmanabad","stateId":4008,"stateCode":"MH","stateName":"Maharashtra","countryId":101,"countryCode":"IN","countryName":"India","latitude":"18.25000000","longitude":"76.16667000","wikiDataId":"Q2462135"},{"id":133307,"name":"Ozar","stateId":4008,"stateCode":"MH","stateName":"Maharashtra","countryId":101,"countryCode":"IN","countryName":"India","latitude":"20.09473000","longitude":"73.92816000","wikiDataId":"Q2719433"},{"id":147850,"name":"Pabal","stateId":4008,"stateCode":"MH","stateName":"Maharashtra","countryId":101,"countryCode":"IN","countryName":"India","latitude":"18.83083333","longitude":"74.05277778","wikiDataId":"Q7121516"},{"id":133520,"name":"Pachora","stateId":4008,"stateCode":"MH","stateName":"Maharashtra","countryId":101,"countryCode":"IN","countryName":"India","latitude":"20.66727000","longitude":"75.35305000","wikiDataId":"Q2719146"},{"id":147851,"name":"Pahur Maharashtra","stateId":4008,"stateCode":"MH","stateName":"Maharashtra","countryId":101,"countryCode":"IN","countryName":"India","latitude":"20.70000000","longitude":"75.68333333","wikiDataId":"Q7124601"},{"id":133319,"name":"Paithan","stateId":4008,"stateCode":"MH","stateName":"Maharashtra","countryId":101,"countryCode":"IN","countryName":"India","latitude":"19.47506000","longitude":"75.38558000","wikiDataId":"Q2445534"},{"id":133527,"name":"Palghar","stateId":4008,"stateCode":"MH","stateName":"Maharashtra","countryId":101,"countryCode":"IN","countryName":"India","latitude":"19.69693000","longitude":"72.76543000","wikiDataId":"Q2724596"},{"id":147852,"name":"Pali Raigad","stateId":4008,"stateCode":"MH","stateName":"Maharashtra","countryId":101,"countryCode":"IN","countryName":"India","latitude":"18.54138400","longitude":"73.21996500","wikiDataId":"Q3891768"},{"id":147853,"name":"Palso","stateId":4008,"stateCode":"MH","stateName":"Maharashtra","countryId":101,"countryCode":"IN","countryName":"India","latitude":"20.76666667","longitude":"77.23333333","wikiDataId":"Q7128747"},{"id":133537,"name":"Panchgani","stateId":4008,"stateCode":"MH","stateName":"Maharashtra","countryId":101,"countryCode":"IN","countryName":"India","latitude":"17.92449000","longitude":"73.80080000","wikiDataId":"Q463437"},{"id":133347,"name":"Pandharpur","stateId":4008,"stateCode":"MH","stateName":"Maharashtra","countryId":101,"countryCode":"IN","countryName":"India","latitude":"17.67924000","longitude":"75.33098000","wikiDataId":"Q1779418"},{"id":147854,"name":"Pandhurli","stateId":4008,"stateCode":"MH","stateName":"Maharashtra","countryId":101,"countryCode":"IN","countryName":"India","latitude":"19.82905200","longitude":"73.85474500","wikiDataId":"Q15265284"},{"id":133349,"name":"Panhala","stateId":4008,"stateCode":"MH","stateName":"Maharashtra","countryId":101,"countryCode":"IN","countryName":"India","latitude":"16.81210000","longitude":"74.11007000","wikiDataId":"Q2719424"},{"id":133353,"name":"Panvel","stateId":4008,"stateCode":"MH","stateName":"Maharashtra","countryId":101,"countryCode":"IN","countryName":"India","latitude":"18.98878000","longitude":"73.11013000","wikiDataId":"Q297511"},{"id":133358,"name":"Parbhani","stateId":4008,"stateCode":"MH","stateName":"Maharashtra","countryId":101,"countryCode":"IN","countryName":"India","latitude":"19.50000000","longitude":"76.75000000","wikiDataId":"Q1920284"},{"id":147855,"name":"Parel","stateId":4008,"stateCode":"MH","stateName":"Maharashtra","countryId":101,"countryCode":"IN","countryName":"India","latitude":"18.99000000","longitude":"72.84000000","wikiDataId":"Q4856263"},{"id":133360,"name":"Parli Vaijnath","stateId":4008,"stateCode":"MH","stateName":"Maharashtra","countryId":101,"countryCode":"IN","countryName":"India","latitude":"18.85057000","longitude":"76.53163000","wikiDataId":"Q1797389"},{"id":147856,"name":"Parner","stateId":4008,"stateCode":"MH","stateName":"Maharashtra","countryId":101,"countryCode":"IN","countryName":"India","latitude":"19.00300000","longitude":"74.43800000","wikiDataId":"Q7139330"},{"id":133364,"name":"Parola","stateId":4008,"stateCode":"MH","stateName":"Maharashtra","countryId":101,"countryCode":"IN","countryName":"India","latitude":"20.88098000","longitude":"75.11937000","wikiDataId":"Q3786783"},{"id":147857,"name":"Parseoni","stateId":4008,"stateCode":"MH","stateName":"Maharashtra","countryId":101,"countryCode":"IN","countryName":"India","latitude":"21.38333333","longitude":"79.15000000","wikiDataId":"Q7139955"},{"id":133367,"name":"Partur","stateId":4008,"stateCode":"MH","stateName":"Maharashtra","countryId":101,"countryCode":"IN","countryName":"India","latitude":"19.59925000","longitude":"76.21541000","wikiDataId":"Q2719414"},{"id":133554,"name":"Patan","stateId":4008,"stateCode":"MH","stateName":"Maharashtra","countryId":101,"countryCode":"IN","countryName":"India","latitude":"17.37513000","longitude":"73.90143000","wikiDataId":"Q3788531"},{"id":133556,"name":"Pathardi","stateId":4008,"stateCode":"MH","stateName":"Maharashtra","countryId":101,"countryCode":"IN","countryName":"India","latitude":"19.17279000","longitude":"75.17425000","wikiDataId":"Q368499"},{"id":133558,"name":"Pathri","stateId":4008,"stateCode":"MH","stateName":"Maharashtra","countryId":101,"countryCode":"IN","countryName":"India","latitude":"19.25880000","longitude":"76.43412000","wikiDataId":"Q2719439"},{"id":133559,"name":"Patur","stateId":4008,"stateCode":"MH","stateName":"Maharashtra","countryId":101,"countryCode":"IN","countryName":"India","latitude":"20.46093000","longitude":"76.93725000","wikiDataId":"Q2544958"},{"id":147858,"name":"Paturda","stateId":4008,"stateCode":"MH","stateName":"Maharashtra","countryId":101,"countryCode":"IN","countryName":"India","latitude":"20.95000000","longitude":"76.71666667","wikiDataId":"Q7148764"},{"id":147859,"name":"Paud","stateId":4008,"stateCode":"MH","stateName":"Maharashtra","countryId":101,"countryCode":"IN","countryName":"India","latitude":"18.52416667","longitude":"73.61583333","wikiDataId":"Q4801215"},{"id":147860,"name":"Pauni","stateId":4008,"stateCode":"MH","stateName":"Maharashtra","countryId":101,"countryCode":"IN","countryName":"India","latitude":"20.78000000","longitude":"79.63000000","wikiDataId":"Q2719440"},{"id":133397,"name":"Pawni","stateId":4008,"stateCode":"MH","stateName":"Maharashtra","countryId":101,"countryCode":"IN","countryName":"India","latitude":"20.79229000","longitude":"79.63644000","wikiDataId":"Q2719440"},{"id":147861,"name":"Pedgaon","stateId":4008,"stateCode":"MH","stateName":"Maharashtra","countryId":101,"countryCode":"IN","countryName":"India","latitude":"18.51166667","longitude":"74.70750000","wikiDataId":"Q7159163"},{"id":147862,"name":"Peint","stateId":4008,"stateCode":"MH","stateName":"Maharashtra","countryId":101,"countryCode":"IN","countryName":"India","latitude":"20.25844722","longitude":"73.50305278","wikiDataId":"Q7160927"},{"id":133404,"name":"Pen","stateId":4008,"stateCode":"MH","stateName":"Maharashtra","countryId":101,"countryCode":"IN","countryName":"India","latitude":"18.73734000","longitude":"73.09603000","wikiDataId":"Q1382194"},{"id":133434,"name":"Phaltan","stateId":4008,"stateCode":"MH","stateName":"Maharashtra","countryId":101,"countryCode":"IN","countryName":"India","latitude":"17.99113000","longitude":"74.43177000","wikiDataId":"Q2341367"},{"id":147863,"name":"Phulambri","stateId":4008,"stateCode":"MH","stateName":"Maharashtra","countryId":101,"countryCode":"IN","countryName":"India","latitude":"20.10000000","longitude":"75.41666667","wikiDataId":"Q7188306"},{"id":147864,"name":"Piliv","stateId":4008,"stateCode":"MH","stateName":"Maharashtra","countryId":101,"countryCode":"IN","countryName":"India","latitude":"17.67884200","longitude":"74.96641200","wikiDataId":"Q7194065"},{"id":147865,"name":"Pimpalgaon Baswant","stateId":4008,"stateCode":"MH","stateName":"Maharashtra","countryId":101,"countryCode":"IN","countryName":"India","latitude":"20.16666667","longitude":"73.98333333","wikiDataId":"Q7194685"},{"id":147866,"name":"Pimpalgaon Raja","stateId":4008,"stateCode":"MH","stateName":"Maharashtra","countryId":101,"countryCode":"IN","countryName":"India","latitude":"20.71666667","longitude":"76.43333333","wikiDataId":"Q7194687"},{"id":133449,"name":"Pimpri","stateId":4008,"stateCode":"MH","stateName":"Maharashtra","countryId":101,"countryCode":"IN","countryName":"India","latitude":"18.62292000","longitude":"73.80696000","wikiDataId":"Q11941642"},{"id":147867,"name":"Pimpri-Chinchwad","stateId":4008,"stateCode":"MH","stateName":"Maharashtra","countryId":101,"countryCode":"IN","countryName":"India","latitude":"18.62777778","longitude":"73.81305556","wikiDataId":"Q119219"},{"id":133564,"name":"Pipri","stateId":4008,"stateCode":"MH","stateName":"Maharashtra","countryId":101,"countryCode":"IN","countryName":"India","latitude":"19.79371000","longitude":"75.53519000","wikiDataId":"Q2980705"},{"id":133484,"name":"Powai","stateId":4008,"stateCode":"MH","stateName":"Maharashtra","countryId":101,"countryCode":"IN","countryName":"India","latitude":"19.11640000","longitude":"72.90471000","wikiDataId":"Q13118508"},{"id":147868,"name":"Prabhadevi","stateId":4008,"stateCode":"MH","stateName":"Maharashtra","countryId":101,"countryCode":"IN","countryName":"India","latitude":"19.01690500","longitude":"72.82864900","wikiDataId":"Q5456385"},{"id":147869,"name":"Prakasha","stateId":4008,"stateCode":"MH","stateName":"Maharashtra","countryId":101,"countryCode":"IN","countryName":"India","latitude":"21.51666667","longitude":"74.31666667","wikiDataId":"Q7238200"},{"id":133496,"name":"Pulgaon","stateId":4008,"stateCode":"MH","stateName":"Maharashtra","countryId":101,"countryCode":"IN","countryName":"India","latitude":"20.72204000","longitude":"78.32056000","wikiDataId":"Q2719107"},{"id":133504,"name":"Pune","stateId":4008,"stateCode":"MH","stateName":"Maharashtra","countryId":101,"countryCode":"IN","countryName":"India","latitude":"18.51957000","longitude":"73.85535000","wikiDataId":"Q1538"},{"id":133505,"name":"Pune Division","stateId":4008,"stateCode":"MH","stateName":"Maharashtra","countryId":101,"countryCode":"IN","countryName":"India","latitude":"18.74673000","longitude":"73.75465000","wikiDataId":"Q1854679"},{"id":147870,"name":"Puntamba","stateId":4008,"stateCode":"MH","stateName":"Maharashtra","countryId":101,"countryCode":"IN","countryName":"India","latitude":"19.75000000","longitude":"74.63333333","wikiDataId":"Q7260576"},{"id":147871,"name":"Pural","stateId":4008,"stateCode":"MH","stateName":"Maharashtra","countryId":101,"countryCode":"IN","countryName":"India","latitude":"16.45000000","longitude":"73.36666667","wikiDataId":"Q7260809"},{"id":133571,"name":"Purna","stateId":4008,"stateCode":"MH","stateName":"Maharashtra","countryId":101,"countryCode":"IN","countryName":"India","latitude":"19.18170000","longitude":"77.02566000","wikiDataId":"Q2545550"},{"id":133515,"name":"Pusad","stateId":4008,"stateCode":"MH","stateName":"Maharashtra","countryId":101,"countryCode":"IN","countryName":"India","latitude":"19.91274000","longitude":"77.57838000","wikiDataId":"Q2724580"},{"id":147872,"name":"Radhanagari","stateId":4008,"stateCode":"MH","stateName":"Maharashtra","countryId":101,"countryCode":"IN","countryName":"India","latitude":"16.41388889","longitude":"73.99777778","wikiDataId":"Q7280215"},{"id":147873,"name":"Rahata","stateId":4008,"stateCode":"MH","stateName":"Maharashtra","countryId":101,"countryCode":"IN","countryName":"India","latitude":"19.71666667","longitude":"74.48333333","wikiDataId":"Q7283322"},{"id":133583,"name":"Rahimatpur","stateId":4008,"stateCode":"MH","stateName":"Maharashtra","countryId":101,"countryCode":"IN","countryName":"India","latitude":"17.59210000","longitude":"74.19966000","wikiDataId":"Q2573077"},{"id":133663,"name":"Rahuri","stateId":4008,"stateCode":"MH","stateName":"Maharashtra","countryId":101,"countryCode":"IN","countryName":"India","latitude":"19.39069000","longitude":"74.64979000","wikiDataId":"Q2544979"},{"id":133588,"name":"Raigarh","stateId":4008,"stateCode":"MH","stateName":"Maharashtra","countryId":101,"countryCode":"IN","countryName":"India","latitude":"18.57000000","longitude":"73.13000000","wikiDataId":"Q2286310"},{"id":147874,"name":"Raireshwar","stateId":4008,"stateCode":"MH","stateName":"Maharashtra","countryId":101,"countryCode":"IN","countryName":"India","latitude":"18.05000000","longitude":"73.73333333","wikiDataId":"Q7285054"},{"id":133687,"name":"Rajapur","stateId":4008,"stateCode":"MH","stateName":"Maharashtra","countryId":101,"countryCode":"IN","countryName":"India","latitude":"16.65679000","longitude":"73.51701000","wikiDataId":"Q2718772"},{"id":133677,"name":"Rajgurunagar","stateId":4008,"stateCode":"MH","stateName":"Maharashtra","countryId":101,"countryCode":"IN","countryName":"India","latitude":"18.86667000","longitude":"73.90000000","wikiDataId":"Q2719101"},{"id":133685,"name":"Rajur","stateId":4008,"stateCode":"MH","stateName":"Maharashtra","countryId":101,"countryCode":"IN","countryName":"India","latitude":"20.11087000","longitude":"78.89311000","wikiDataId":"Q2719488"},{"id":133689,"name":"Rajura","stateId":4008,"stateCode":"MH","stateName":"Maharashtra","countryId":101,"countryCode":"IN","countryName":"India","latitude":"19.77947000","longitude":"79.36459000","wikiDataId":"Q2570708"},{"id":147875,"name":"Ralegaon","stateId":4008,"stateCode":"MH","stateName":"Maharashtra","countryId":101,"countryCode":"IN","countryName":"India","latitude":"20.25000000","longitude":"79.81000000","wikiDataId":"Q7286873"},{"id":147876,"name":"Ramewadi","stateId":4008,"stateCode":"MH","stateName":"Maharashtra","countryId":101,"countryCode":"IN","countryName":"India","latitude":"16.03333333","longitude":"74.35000000","wikiDataId":"Q7289479"},{"id":133710,"name":"Ramtek","stateId":4008,"stateCode":"MH","stateName":"Maharashtra","countryId":101,"countryCode":"IN","countryName":"India","latitude":"21.39562000","longitude":"79.32725000","wikiDataId":"Q2545077"},{"id":133619,"name":"Ratnagiri","stateId":4008,"stateCode":"MH","stateName":"Maharashtra","countryId":101,"countryCode":"IN","countryName":"India","latitude":"17.00000000","longitude":"73.50000000","wikiDataId":"Q1922257"},{"id":133724,"name":"Raver","stateId":4008,"stateCode":"MH","stateName":"Maharashtra","countryId":101,"countryCode":"IN","countryName":"India","latitude":"21.24757000","longitude":"76.03509000","wikiDataId":"Q2362462"},{"id":147877,"name":"Renapur","stateId":4008,"stateCode":"MH","stateName":"Maharashtra","countryId":101,"countryCode":"IN","countryName":"India","latitude":"18.51666667","longitude":"76.60000000","wikiDataId":"Q7312547"},{"id":147878,"name":"Renavi","stateId":4008,"stateCode":"MH","stateName":"Maharashtra","countryId":101,"countryCode":"IN","countryName":"India","latitude":"17.26972222","longitude":"74.61055556","wikiDataId":"Q7312752"},{"id":133631,"name":"Revadanda","stateId":4008,"stateCode":"MH","stateName":"Maharashtra","countryId":101,"countryCode":"IN","countryName":"India","latitude":"18.55363000","longitude":"72.92559000","wikiDataId":"Q7317762"},{"id":147879,"name":"Revdanda","stateId":4008,"stateCode":"MH","stateName":"Maharashtra","countryId":101,"countryCode":"IN","countryName":"India","latitude":"18.55000000","longitude":"72.93333333","wikiDataId":"Q7317762"},{"id":133639,"name":"Risod","stateId":4008,"stateCode":"MH","stateName":"Maharashtra","countryId":101,"countryCode":"IN","countryName":"India","latitude":"19.97671000","longitude":"76.78799000","wikiDataId":"Q2545016"},{"id":133644,"name":"Roha","stateId":4008,"stateCode":"MH","stateName":"Maharashtra","countryId":101,"countryCode":"IN","countryName":"India","latitude":"18.43687000","longitude":"73.11964000","wikiDataId":"Q15272986"},{"id":147880,"name":"Sailu","stateId":4008,"stateCode":"MH","stateName":"Maharashtra","countryId":101,"countryCode":"IN","countryName":"India","latitude":"19.47000000","longitude":"76.47000000","wikiDataId":"Q2718737"},{"id":147881,"name":"Sakol","stateId":4008,"stateCode":"MH","stateName":"Maharashtra","countryId":101,"countryCode":"IN","countryName":"India","latitude":"18.28250000","longitude":"76.88444444","wikiDataId":"Q15274503"},{"id":147882,"name":"Sakoli","stateId":4008,"stateCode":"MH","stateName":"Maharashtra","countryId":101,"countryCode":"IN","countryName":"India","latitude":"21.08000000","longitude":"79.98000000","wikiDataId":"Q7403046"},{"id":147883,"name":"Sakri","stateId":4008,"stateCode":"MH","stateName":"Maharashtra","countryId":101,"countryCode":"IN","countryName":"India","latitude":"20.99027778","longitude":"74.31444444","wikiDataId":"Q13121881"},{"id":147884,"name":"Samudrapur","stateId":4008,"stateCode":"MH","stateName":"Maharashtra","countryId":101,"countryCode":"IN","countryName":"India","latitude":"20.65000000","longitude":"78.96666667","wikiDataId":"Q2774601"},{"id":147885,"name":"Sangameshwar","stateId":4008,"stateCode":"MH","stateName":"Maharashtra","countryId":101,"countryCode":"IN","countryName":"India","latitude":"17.18694444","longitude":"73.55305556","wikiDataId":"Q7417805"},{"id":133780,"name":"Sangamner","stateId":4008,"stateCode":"MH","stateName":"Maharashtra","countryId":101,"countryCode":"IN","countryName":"India","latitude":"19.56784000","longitude":"74.21154000","wikiDataId":"Q2466083"},{"id":133782,"name":"Sangli","stateId":4008,"stateCode":"MH","stateName":"Maharashtra","countryId":101,"countryCode":"IN","countryName":"India","latitude":"17.11202000","longitude":"74.76990000","wikiDataId":"Q429215"},{"id":134074,"name":"Sangola","stateId":4008,"stateCode":"MH","stateName":"Maharashtra","countryId":101,"countryCode":"IN","countryName":"India","latitude":"17.43948000","longitude":"75.19379000","wikiDataId":"Q429215"},{"id":147887,"name":"Sangrampur Maharashtra","stateId":4008,"stateCode":"MH","stateName":"Maharashtra","countryId":101,"countryCode":"IN","countryName":"India","latitude":"21.03000000","longitude":"76.68000000","wikiDataId":"Q7418104"},{"id":147888,"name":"Saoli","stateId":4008,"stateCode":"MH","stateName":"Maharashtra","countryId":101,"countryCode":"IN","countryName":"India","latitude":"20.08133056","longitude":"79.78286111","wikiDataId":"Q7420857"},{"id":133797,"name":"Saoner","stateId":4008,"stateCode":"MH","stateName":"Maharashtra","countryId":101,"countryCode":"IN","countryName":"India","latitude":"21.38510000","longitude":"78.92155000","wikiDataId":"Q2544743"},