[{"id":8493,"name":"Gafargaon","stateId":766,"stateCode":"34","stateName":"Mymensingh District","countryId":19,"countryCode":"BD","countryName":"Bangladesh","latitude":"24.43200000","longitude":"90.55850000","wikiDataId":"Q21746031"},{"id":8502,"name":"Jamalpur","stateId":766,"stateCode":"34","stateName":"Mymensingh District","countryId":19,"countryCode":"BD","countryName":"Bangladesh","latitude":"25.00000000","longitude":"89.83333000","wikiDataId":"Q2039306"},{"id":8539,"name":"Mukt훮g훮cha","stateId":766,"stateCode":"34","stateName":"Mymensingh District","countryId":19,"countryCode":"BD","countryName":"Bangladesh","latitude":"24.76484000","longitude":"90.25698000","wikiDataId":"Q21746043"},{"id":8541,"name":"Mymensingh","stateId":766,"stateCode":"34","stateName":"Mymensingh District","countryId":19,"countryCode":"BD","countryName":"Bangladesh","latitude":"24.75000000","longitude":"90.40000000","wikiDataId":"Q1429976"},{"id":8551,"name":"Netrakona","stateId":766,"stateCode":"34","stateName":"Mymensingh District","countryId":19,"countryCode":"BD","countryName":"Bangladesh","latitude":"24.86667000","longitude":"90.86667000","wikiDataId":"Q2344966"},{"id":8586,"name":"Sarish훮b훮ri","stateId":766,"stateCode":"34","stateName":"Mymensingh District","countryId":19,"countryCode":"BD","countryName":"Bangladesh","latitude":"24.75127000","longitude":"89.83126000","wikiDataId":"Q21745886"},{"id":8590,"name":"Sherpur","stateId":766,"stateCode":"34","stateName":"Mymensingh District","countryId":19,"countryCode":"BD","countryName":"Bangladesh","latitude":"25.08333000","longitude":"90.08333000","wikiDataId":"Q2039314"}]