[{"id":156,"name":"Bashkia Devoll","stateId":630,"stateCode":"06","stateName":"Korçë County","countryId":3,"countryCode":"AL","countryName":"Albania","latitude":"40.60078000","longitude":"20.93814000","wikiDataId":"Q3301181"},{"id":166,"name":"Bashkia Kolonjë","stateId":630,"stateCode":"06","stateName":"Korçë County","countryId":3,"countryCode":"AL","countryName":"Albania","latitude":"40.31420000","longitude":"20.61482000","wikiDataId":"Q16350064"},{"id":173,"name":"Bashkia Maliq","stateId":630,"stateCode":"06","stateName":"Korçë County","countryId":3,"countryCode":"AL","countryName":"Albania","latitude":"40.75508000","longitude":"20.60748000","wikiDataId":"Q16350064"},{"id":182,"name":"Bashkia Pustec","stateId":630,"stateCode":"06","stateName":"Korçë County","countryId":3,"countryCode":"AL","countryName":"Albania","latitude":"40.83591000","longitude":"20.89405000","wikiDataId":"Q16350064"},{"id":192,"name":"Bilisht","stateId":630,"stateCode":"06","stateName":"Korçë County","countryId":3,"countryCode":"AL","countryName":"Albania","latitude":"40.62750000","longitude":"20.99000000","wikiDataId":"Q817140"},{"id":199,"name":"Ersekë","stateId":630,"stateCode":"06","stateName":"Korçë County","countryId":3,"countryCode":"AL","countryName":"Albania","latitude":"40.33778000","longitude":"20.67889000","wikiDataId":"Q18793"},{"id":212,"name":"Korçë","stateId":630,"stateCode":"06","stateName":"Korçë County","countryId":3,"countryCode":"AL","countryName":"Albania","latitude":"40.61861000","longitude":"20.78083000","wikiDataId":"Q116341"},{"id":223,"name":"Leskovik","stateId":630,"stateCode":"06","stateName":"Korçë County","countryId":3,"countryCode":"AL","countryName":"Albania","latitude":"40.15139000","longitude":"20.59722000","wikiDataId":"Q18768"},{"id":226,"name":"Libonik","stateId":630,"stateCode":"06","stateName":"Korçë County","countryId":3,"countryCode":"AL","countryName":"Albania","latitude":"40.70444000","longitude":"20.70861000","wikiDataId":"Q628181"},{"id":228,"name":"Maliq","stateId":630,"stateCode":"06","stateName":"Korçë County","countryId":3,"countryCode":"AL","countryName":"Albania","latitude":"40.70583000","longitude":"20.69972000","wikiDataId":"Q772248"},{"id":230,"name":"Mborje","stateId":630,"stateCode":"06","stateName":"Korçë County","countryId":3,"countryCode":"AL","countryName":"Albania","latitude":"40.60333000","longitude":"20.80306000","wikiDataId":"Q16347657"},{"id":237,"name":"Pogradec","stateId":630,"stateCode":"06","stateName":"Korçë County","countryId":3,"countryCode":"AL","countryName":"Albania","latitude":"40.90250000","longitude":"20.65250000","wikiDataId":"Q73639"},{"id":245,"name":"Rrethi i Devollit","stateId":630,"stateCode":"06","stateName":"Korçë County","countryId":3,"countryCode":"AL","countryName":"Albania","latitude":"40.58333000","longitude":"20.91667000","wikiDataId":"Q192126"},{"id":249,"name":"Rrethi i Kolonjës","stateId":630,"stateCode":"06","stateName":"Korçë County","countryId":3,"countryCode":"AL","countryName":"Albania","latitude":"40.25000000","longitude":"20.66667000","wikiDataId":"Q194178"},{"id":275,"name":"Velçan","stateId":630,"stateCode":"06","stateName":"Korçë County","countryId":3,"countryCode":"AL","countryName":"Albania","latitude":"40.95472000","longitude":"20.46222000","wikiDataId":"Q285899"},{"id":278,"name":"Voskopojë","stateId":630,"stateCode":"06","stateName":"Korçë County","countryId":3,"countryCode":"AL","countryName":"Albania","latitude":"40.63306000","longitude":"20.58889000","wikiDataId":"Q757298"}]