[{"id":19133,"name":"Akom II","stateId":2659,"stateCode":"SU","stateName":"South","countryId":38,"countryCode":"CM","countryName":"Cameroon","latitude":"2.78333000","longitude":"10.56667000","wikiDataId":"Q322917"},{"id":19136,"name":"Ambam","stateId":2659,"stateCode":"SU","stateName":"South","countryId":38,"countryCode":"CM","countryName":"Cameroon","latitude":"2.38333000","longitude":"11.28333000","wikiDataId":"Q2841553"},{"id":19269,"name":"Ébolowa","stateId":2659,"stateCode":"SU","stateName":"South","countryId":38,"countryCode":"CM","countryName":"Cameroon","latitude":"2.90000000","longitude":"11.15000000","wikiDataId":"Q910616"},{"id":19191,"name":"Kribi","stateId":2659,"stateCode":"SU","stateName":"South","countryId":38,"countryCode":"CM","countryName":"Cameroon","latitude":"2.93725000","longitude":"9.90765000","wikiDataId":"Q997121"},{"id":19197,"name":"Lolodorf","stateId":2659,"stateCode":"SU","stateName":"South","countryId":38,"countryCode":"CM","countryName":"Cameroon","latitude":"3.23333000","longitude":"10.73333000","wikiDataId":"Q819314"},{"id":19229,"name":"Mvangué","stateId":2659,"stateCode":"SU","stateName":"South","countryId":38,"countryCode":"CM","countryName":"Cameroon","latitude":"2.96667000","longitude":"11.51667000","wikiDataId":"Q23667291"},{"id":19230,"name":"Mvila","stateId":2659,"stateCode":"SU","stateName":"South","countryId":38,"countryCode":"CM","countryName":"Cameroon","latitude":"2.79796000","longitude":"11.39434000","wikiDataId":"Q23667291"},{"id":19255,"name":"Sangmélima","stateId":2659,"stateCode":"SU","stateName":"South","countryId":38,"countryCode":"CM","countryName":"Cameroon","latitude":"2.93333000","longitude":"11.98333000","wikiDataId":"Q2708780"}]