[{"id":89691,"name":"Água Longa","stateId":2243,"stateCode":"13","stateName":"Porto","countryId":177,"countryCode":"PT","countryName":"Portugal","latitude":"41.24972000","longitude":"-8.49285000","wikiDataId":"Q33512640"},{"id":89694,"name":"Águas Santas","stateId":2243,"stateCode":"13","stateName":"Porto","countryId":177,"countryCode":"PT","countryName":"Portugal","latitude":"41.21017000","longitude":"-8.57599000","wikiDataId":"Q249827"},{"id":88911,"name":"Aguçadoura","stateId":2243,"stateCode":"13","stateName":"Porto","countryId":177,"countryCode":"PT","countryName":"Portugal","latitude":"41.43116000","longitude":"-8.77844000","wikiDataId":"Q49344006"},{"id":88931,"name":"Alfena","stateId":2243,"stateCode":"13","stateName":"Porto","countryId":177,"countryCode":"PT","countryName":"Portugal","latitude":"41.23671000","longitude":"-8.52454000","wikiDataId":"Q1971893"},{"id":88951,"name":"Alpendurada","stateId":2243,"stateCode":"13","stateName":"Porto","countryId":177,"countryCode":"PT","countryName":"Portugal","latitude":"41.08944000","longitude":"-8.24643000","wikiDataId":"Q936943"},{"id":88961,"name":"Amarante","stateId":2243,"stateCode":"13","stateName":"Porto","countryId":177,"countryCode":"PT","countryName":"Portugal","latitude":"41.27271000","longitude":"-8.08245000","wikiDataId":"Q31880915"},{"id":88966,"name":"Amorim","stateId":2243,"stateCode":"13","stateName":"Porto","countryId":177,"countryCode":"PT","countryName":"Portugal","latitude":"41.40503000","longitude":"-8.75046000","wikiDataId":"Q474039"},{"id":88971,"name":"Anta","stateId":2243,"stateCode":"13","stateName":"Porto","countryId":177,"countryCode":"PT","countryName":"Portugal","latitude":"41.26634000","longitude":"-8.62844000","wikiDataId":"Q31884098"},{"id":88982,"name":"Arcozelo","stateId":2243,"stateCode":"13","stateName":"Porto","countryId":177,"countryCode":"PT","countryName":"Portugal","latitude":"41.06187000","longitude":"-8.63192000","wikiDataId":"Q31887272"},{"id":88985,"name":"Argivai","stateId":2243,"stateCode":"13","stateName":"Porto","countryId":177,"countryCode":"PT","countryName":"Portugal","latitude":"41.37744000","longitude":"-8.72987000","wikiDataId":"Q31887734"},{"id":89696,"name":"Árvore","stateId":2243,"stateCode":"13","stateName":"Porto","countryId":177,"countryCode":"PT","countryName":"Portugal","latitude":"41.33922000","longitude":"-8.71806000","wikiDataId":"Q33529444"},{"id":89005,"name":"Aver-o-Mar","stateId":2243,"stateCode":"13","stateName":"Porto","countryId":177,"countryCode":"PT","countryName":"Portugal","latitude":"41.40607000","longitude":"-8.77958000","wikiDataId":"Q31893706"},{"id":89006,"name":"Aves","stateId":2243,"stateCode":"13","stateName":"Porto","countryId":177,"countryCode":"PT","countryName":"Portugal","latitude":"41.37034000","longitude":"-8.41010000","wikiDataId":"Q31893729"},{"id":89007,"name":"Avintes","stateId":2243,"stateCode":"13","stateName":"Porto","countryId":177,"countryCode":"PT","countryName":"Portugal","latitude":"41.10711000","longitude":"-8.55131000","wikiDataId":"Q31893832"},{"id":89011,"name":"Azenha","stateId":2243,"stateCode":"13","stateName":"Porto","countryId":177,"countryCode":"PT","countryName":"Portugal","latitude":"41.07651000","longitude":"-8.62468000","wikiDataId":"Q31894654"},{"id":89013,"name":"Baguim do Monte","stateId":2243,"stateCode":"13","stateName":"Porto","countryId":177,"countryCode":"PT","countryName":"Portugal","latitude":"41.19203000","longitude":"-8.54118000","wikiDataId":"Q31897433"},{"id":89014,"name":"Baião","stateId":2243,"stateCode":"13","stateName":"Porto","countryId":177,"countryCode":"PT","countryName":"Portugal","latitude":"41.16384000","longitude":"-8.03581000","wikiDataId":"Q804064"},{"id":89015,"name":"Balazar","stateId":2243,"stateCode":"13","stateName":"Porto","countryId":177,"countryCode":"PT","countryName":"Portugal","latitude":"41.40435000","longitude":"-8.62386000","wikiDataId":"Q804064"},{"id":89016,"name":"Baltar","stateId":2243,"stateCode":"13","stateName":"Porto","countryId":177,"countryCode":"PT","countryName":"Portugal","latitude":"41.19272000","longitude":"-8.38768000","wikiDataId":"Q31909395"},{"id":89022,"name":"Barrosas","stateId":2243,"stateCode":"13","stateName":"Porto","countryId":177,"countryCode":"PT","countryName":"Portugal","latitude":"41.35534000","longitude":"-8.29943000","wikiDataId":"Q31911628"},{"id":89026,"name":"Beiriz de Baixo","stateId":2243,"stateCode":"13","stateName":"Porto","countryId":177,"countryCode":"PT","countryName":"Portugal","latitude":"41.39727000","longitude":"-8.72385000","wikiDataId":"Q31913149"},{"id":89045,"name":"Bougado","stateId":2243,"stateCode":"13","stateName":"Porto","countryId":177,"countryCode":"PT","countryName":"Portugal","latitude":"41.33979000","longitude":"-8.55180000","wikiDataId":"Q31925314"},{"id":89077,"name":"Campo","stateId":2243,"stateCode":"13","stateName":"Porto","countryId":177,"countryCode":"PT","countryName":"Portugal","latitude":"41.18516000","longitude":"-8.46493000","wikiDataId":"Q34789552"},{"id":89082,"name":"Canelas","stateId":2243,"stateCode":"13","stateName":"Porto","countryId":177,"countryCode":"PT","countryName":"Portugal","latitude":"41.08333000","longitude":"-8.60000000","wikiDataId":"Q34789702"},{"id":89085,"name":"Canidelo","stateId":2243,"stateCode":"13","stateName":"Porto","countryId":177,"countryCode":"PT","countryName":"Portugal","latitude":"41.12314000","longitude":"-8.64654000","wikiDataId":"Q34789734"},{"id":89099,"name":"Carvalhosa","stateId":2243,"stateCode":"13","stateName":"Porto","countryId":177,"countryCode":"PT","countryName":"Portugal","latitude":"41.30057000","longitude":"-8.36080000","wikiDataId":"Q34790160"},{"id":89108,"name":"Castelões de Cepeda","stateId":2243,"stateCode":"13","stateName":"Porto","countryId":177,"countryCode":"PT","countryName":"Portugal","latitude":"41.20265000","longitude":"-8.33516000","wikiDataId":"Q1049053"},{"id":89145,"name":"Ermesinde","stateId":2243,"stateCode":"13","stateName":"Porto","countryId":177,"countryCode":"PT","countryName":"Portugal","latitude":"41.21653000","longitude":"-8.55318000","wikiDataId":"Q1020811"},{"id":89154,"name":"Estela","stateId":2243,"stateCode":"13","stateName":"Porto","countryId":177,"countryCode":"PT","countryName":"Portugal","latitude":"41.44944000","longitude":"-8.75166000","wikiDataId":"Q381337"},{"id":89202,"name":"Fânzeres","stateId":2243,"stateCode":"13","stateName":"Porto","countryId":177,"countryCode":"PT","countryName":"Portugal","latitude":"41.16754000","longitude":"-8.52981000","wikiDataId":"Q1478690"},{"id":89171,"name":"Felgueiras","stateId":2243,"stateCode":"13","stateName":"Porto","countryId":177,"countryCode":"PT","countryName":"Portugal","latitude":"41.34774000","longitude":"-8.20808000","wikiDataId":"Q936904"},{"id":89175,"name":"Ferreira","stateId":2243,"stateCode":"13","stateName":"Porto","countryId":177,"countryCode":"PT","countryName":"Portugal","latitude":"41.26718000","longitude":"-8.34434000","wikiDataId":"Q49350135"},{"id":89183,"name":"Figueiró","stateId":2243,"stateCode":"13","stateName":"Porto","countryId":177,"countryCode":"PT","countryName":"Portugal","latitude":"41.29922000","longitude":"-8.16779000","wikiDataId":"Q49350156"},{"id":89189,"name":"Foz do Douro","stateId":2243,"stateCode":"13","stateName":"Porto","countryId":177,"countryCode":"PT","countryName":"Portugal","latitude":"41.15119000","longitude":"-8.67125000","wikiDataId":"Q1397371"},{"id":89190,"name":"Foz do Sousa","stateId":2243,"stateCode":"13","stateName":"Porto","countryId":177,"countryCode":"PT","countryName":"Portugal","latitude":"41.09668000","longitude":"-8.50184000","wikiDataId":"Q49350450"},{"id":89192,"name":"Frazão","stateId":2243,"stateCode":"13","stateName":"Porto","countryId":177,"countryCode":"PT","countryName":"Portugal","latitude":"41.25866000","longitude":"-8.40014000","wikiDataId":"Q1452112"},{"id":89193,"name":"Freamunde","stateId":2243,"stateCode":"13","stateName":"Porto","countryId":177,"countryCode":"PT","countryName":"Portugal","latitude":"41.28835000","longitude":"-8.33533000","wikiDataId":"Q1020833"},{"id":89206,"name":"Gandra","stateId":2243,"stateCode":"13","stateName":"Porto","countryId":177,"countryCode":"PT","countryName":"Portugal","latitude":"41.20116000","longitude":"-8.43376000","wikiDataId":"Q1020848"},{"id":89209,"name":"Gemunde","stateId":2243,"stateCode":"13","stateName":"Porto","countryId":177,"countryCode":"PT","countryName":"Portugal","latitude":"41.26766000","longitude":"-8.64515000","wikiDataId":"Q49351116"},{"id":89213,"name":"Gondomar","stateId":2243,"stateCode":"13","stateName":"Porto","countryId":177,"countryCode":"PT","countryName":"Portugal","latitude":"41.12015000","longitude":"-8.49595000","wikiDataId":"Q983483"},{"id":89214,"name":"Grijó","stateId":2243,"stateCode":"13","stateName":"Porto","countryId":177,"countryCode":"PT","countryName":"Portugal","latitude":"41.02836000","longitude":"-8.58017000","wikiDataId":"Q1546770"},{"id":89218,"name":"Guifões","stateId":2243,"stateCode":"13","stateName":"Porto","countryId":177,"countryCode":"PT","countryName":"Portugal","latitude":"41.19748000","longitude":"-8.66899000","wikiDataId":"Q49352679"},{"id":89221,"name":"Gulpilhares","stateId":2243,"stateCode":"13","stateName":"Porto","countryId":177,"countryCode":"PT","countryName":"Portugal","latitude":"41.08292000","longitude":"-8.62679000","wikiDataId":"Q1265336"},{"id":89226,"name":"Jovim","stateId":2243,"stateCode":"13","stateName":"Porto","countryId":177,"countryCode":"PT","countryName":"Portugal","latitude":"41.11102000","longitude":"-8.51903000","wikiDataId":"Q49355583"},{"id":89239,"name":"Lavra","stateId":2243,"stateCode":"13","stateName":"Porto","countryId":177,"countryCode":"PT","countryName":"Portugal","latitude":"41.25935000","longitude":"-8.71849000","wikiDataId":"Q35712828"},{"id":89242,"name":"Leça da Palmeira","stateId":2243,"stateCode":"13","stateName":"Porto","countryId":177,"countryCode":"PT","countryName":"Portugal","latitude":"41.19100000","longitude":"-8.70027000","wikiDataId":"Q35716314"},{"id":89243,"name":"Leça do Bailio","stateId":2243,"stateCode":"13","stateName":"Porto","countryId":177,"countryCode":"PT","countryName":"Portugal","latitude":"41.21201000","longitude":"-8.63422000","wikiDataId":"Q35716323"},{"id":89247,"name":"Lordelo","stateId":2243,"stateCode":"13","stateName":"Porto","countryId":177,"countryCode":"PT","countryName":"Portugal","latitude":"41.23451000","longitude":"-8.40297000","wikiDataId":"Q35719316"},{"id":89255,"name":"Lousada","stateId":2243,"stateCode":"13","stateName":"Porto","countryId":177,"countryCode":"PT","countryName":"Portugal","latitude":"41.28355000","longitude":"-8.27437000","wikiDataId":"Q986741"},{"id":89258,"name":"Lustosa","stateId":2243,"stateCode":"13","stateName":"Porto","countryId":177,"countryCode":"PT","countryName":"Portugal","latitude":"41.34081000","longitude":"-8.31715000","wikiDataId":"Q35721286"},{"id":89266,"name":"Madalena","stateId":2243,"stateCode":"13","stateName":"Porto","countryId":177,"countryCode":"PT","countryName":"Portugal","latitude":"41.21616000","longitude":"-8.33451000","wikiDataId":"Q35722279"},{"id":89270,"name":"Maia","stateId":2243,"stateCode":"13","stateName":"Porto","countryId":177,"countryCode":"PT","countryName":"Portugal","latitude":"41.24254000","longitude":"-8.60257000","wikiDataId":"Q990403"},{"id":89274,"name":"Marco de Canaveses","stateId":2243,"stateCode":"13","stateName":"Porto","countryId":177,"countryCode":"PT","countryName":"Portugal","latitude":"41.15545000","longitude":"-8.16954000","wikiDataId":"Q188050"},{"id":89275,"name":"Marco de Canavezes","stateId":2243,"stateCode":"13","stateName":"Porto","countryId":177,"countryCode":"PT","countryName":"Portugal","latitude":"41.18389000","longitude":"-8.14864000","wikiDataId":"Q188050"},{"id":89276,"name":"Margaride","stateId":2243,"stateCode":"13","stateName":"Porto","countryId":177,"countryCode":"PT","countryName":"Portugal","latitude":"41.36478000","longitude":"-8.19999000","wikiDataId":"Q35724678"},{"id":89284,"name":"Matosinhos","stateId":2243,"stateCode":"13","stateName":"Porto","countryId":177,"countryCode":"PT","countryName":"Portugal","latitude":"41.18207000","longitude":"-8.68908000","wikiDataId":"Q3349324"},{"id":89289,"name":"Meinedo","stateId":2243,"stateCode":"13","stateName":"Porto","countryId":177,"countryCode":"PT","countryName":"Portugal","latitude":"41.24827000","longitude":"-8.25807000","wikiDataId":"Q35727654"},{"id":89291,"name":"Melres","stateId":2243,"stateCode":"13","stateName":"Porto","countryId":177,"countryCode":"PT","countryName":"Portugal","latitude":"41.06989000","longitude":"-8.40091000","wikiDataId":"Q1432562"},{"id":89297,"name":"Milheirós","stateId":2243,"stateCode":"13","stateName":"Porto","countryId":177,"countryCode":"PT","countryName":"Portugal","latitude":"41.21478000","longitude":"-8.58837000","wikiDataId":"Q35729856"},{"id":89301,"name":"Mindelo","stateId":2243,"stateCode":"13","stateName":"Porto","countryId":177,"countryCode":"PT","countryName":"Portugal","latitude":"41.31527000","longitude":"-8.72124000","wikiDataId":"Q1717071"},{"id":89329,"name":"Moreira","stateId":2243,"stateCode":"13","stateName":"Porto","countryId":177,"countryCode":"PT","countryName":"Portugal","latitude":"41.05600000","longitude":"-8.38939000","wikiDataId":"Q35733707"},{"id":89344,"name":"Negrelos","stateId":2243,"stateCode":"13","stateName":"Porto","countryId":177,"countryCode":"PT","countryName":"Portugal","latitude":"41.34946000","longitude":"-8.40145000","wikiDataId":"Q1600659"},{"id":89348,"name":"Nogueira","stateId":2243,"stateCode":"13","stateName":"Porto","countryId":177,"countryCode":"PT","countryName":"Portugal","latitude":"41.24246000","longitude":"-8.58685000","wikiDataId":"Q49358045"},{"id":89360,"name":"Olival","stateId":2243,"stateCode":"13","stateName":"Porto","countryId":177,"countryCode":"PT","countryName":"Portugal","latitude":"41.05024000","longitude":"-8.54416000","wikiDataId":"Q49358931"},{"id":89367,"name":"Oliveira do Douro","stateId":2243,"stateCode":"13","stateName":"Porto","countryId":177,"countryCode":"PT","countryName":"Portugal","latitude":"41.12466000","longitude":"-8.58463000","wikiDataId":"Q49358938"},{"id":89388,"name":"Paços de Ferreira","stateId":2243,"stateCode":"13","stateName":"Porto","countryId":177,"countryCode":"PT","countryName":"Portugal","latitude":"41.28964000","longitude":"-8.37584000","wikiDataId":"Q946398"},{"id":89383,"name":"Paredes","stateId":2243,"stateCode":"13","stateName":"Porto","countryId":177,"countryCode":"PT","countryName":"Portugal","latitude":"41.20501000","longitude":"-8.37506000","wikiDataId":"Q631788"},{"id":89389,"name":"Pedroso","stateId":2243,"stateCode":"13","stateName":"Porto","countryId":177,"countryCode":"PT","countryName":"Portugal","latitude":"41.41103000","longitude":"-8.74897000","wikiDataId":"Q49360292"},{"id":89390,"name":"Pedrouços","stateId":2243,"stateCode":"13","stateName":"Porto","countryId":177,"countryCode":"PT","countryName":"Portugal","latitude":"41.18880000","longitude":"-8.58624000","wikiDataId":"Q49360293"},{"id":89394,"name":"Penafiel","stateId":2243,"stateCode":"13","stateName":"Porto","countryId":177,"countryCode":"PT","countryName":"Portugal","latitude":"41.20931000","longitude":"-8.26996000","wikiDataId":"Q984656"},{"id":89401,"name":"Perafita","stateId":2243,"stateCode":"13","stateName":"Porto","countryId":177,"countryCode":"PT","countryName":"Portugal","latitude":"41.18252000","longitude":"-8.25450000","wikiDataId":"Q40234338"},{"id":89404,"name":"Perozinho","stateId":2243,"stateCode":"13","stateName":"Porto","countryId":177,"countryCode":"PT","countryName":"Portugal","latitude":"41.06513000","longitude":"-8.58531000","wikiDataId":"Q2071644"},{"id":89425,"name":"Porto","stateId":2243,"stateCode":"13","stateName":"Porto","countryId":177,"countryCode":"PT","countryName":"Portugal","latitude":"41.14961000","longitude":"-8.61099000","wikiDataId":"Q33707919"},{"id":89445,"name":"Póvoa de Varzim","stateId":2243,"stateCode":"13","stateName":"Porto","countryId":177,"countryCode":"PT","countryName":"Portugal","latitude":"41.38344000","longitude":"-8.76364000","wikiDataId":"Q200459"},{"id":89455,"name":"Rebordões","stateId":2243,"stateCode":"13","stateName":"Porto","countryId":177,"countryCode":"PT","countryName":"Portugal","latitude":"41.35509000","longitude":"-8.42355000","wikiDataId":"Q1696865"},{"id":89454,"name":"Rebordosa","stateId":2243,"stateCode":"13","stateName":"Porto","countryId":177,"countryCode":"PT","countryName":"Portugal","latitude":"41.22405000","longitude":"-8.40669000","wikiDataId":"Q1023518"},{"id":89456,"name":"Recarei","stateId":2243,"stateCode":"13","stateName":"Porto","countryId":177,"countryCode":"PT","countryName":"Portugal","latitude":"41.15356000","longitude":"-8.41178000","wikiDataId":"Q2135181"},{"id":89472,"name":"Rio Mau","stateId":2243,"stateCode":"13","stateName":"Porto","countryId":177,"countryCode":"PT","countryName":"Portugal","latitude":"41.40422000","longitude":"-8.67994000","wikiDataId":"Q941958"},{"id":89474,"name":"Rio Tinto","stateId":2243,"stateCode":"13","stateName":"Porto","countryId":177,"countryCode":"PT","countryName":"Portugal","latitude":"41.17872000","longitude":"-8.55953000","wikiDataId":"Q1020836"},{"id":89491,"name":"Sandim","stateId":2243,"stateCode":"13","stateName":"Porto","countryId":177,"countryCode":"PT","countryName":"Portugal","latitude":"41.03508000","longitude":"-8.50700000","wikiDataId":"Q49366944"},{"id":89503,"name":"Santa Cruz do Bispo","stateId":2243,"stateCode":"13","stateName":"Porto","countryId":177,"countryCode":"PT","countryName":"Portugal","latitude":"41.21462000","longitude":"-8.67406000","wikiDataId":"Q49366999"},{"id":89518,"name":"Santo Izidoro","stateId":2243,"stateCode":"13","stateName":"Porto","countryId":177,"countryCode":"PT","countryName":"Portugal","latitude":"41.21083000","longitude":"-8.14224000","wikiDataId":"Q49367033"},{"id":89519,"name":"Santo Tirso","stateId":2243,"stateCode":"13","stateName":"Porto","countryId":177,"countryCode":"PT","countryName":"Portugal","latitude":"41.33014000","longitude":"-8.43827000","wikiDataId":"Q917330"},{"id":89562,"name":"São Félix da Marinha","stateId":2243,"stateCode":"13","stateName":"Porto","countryId":177,"countryCode":"PT","countryName":"Portugal","latitude":"41.03555000","longitude":"-8.62259000","wikiDataId":"Q1786429"},{"id":89573,"name":"São Mamede de Infesta","stateId":2243,"stateCode":"13","stateName":"Porto","countryId":177,"countryCode":"PT","countryName":"Portugal","latitude":"41.19183000","longitude":"-8.61105000","wikiDataId":"Q200414"},{"id":89579,"name":"São Miguel do Couto","stateId":2243,"stateCode":"13","stateName":"Porto","countryId":177,"countryCode":"PT","countryName":"Portugal","latitude":"41.33167000","longitude":"-8.46185000","wikiDataId":"Q1938279"},{"id":89581,"name":"São Pedro da Cova","stateId":2243,"stateCode":"13","stateName":"Porto","countryId":177,"countryCode":"PT","countryName":"Portugal","latitude":"41.14331000","longitude":"-8.50033000","wikiDataId":"Q33503188"},{"id":89584,"name":"São Romão do Coronado","stateId":2243,"stateCode":"13","stateName":"Porto","countryId":177,"countryCode":"PT","countryName":"Portugal","latitude":"41.28544000","longitude":"-8.56320000","wikiDataId":"Q2116898"},{"id":89527,"name":"Senhora da Hora","stateId":2243,"stateCode":"13","stateName":"Porto","countryId":177,"countryCode":"PT","countryName":"Portugal","latitude":"41.18641000","longitude":"-8.65172000","wikiDataId":"Q2117134"},{"id":89530,"name":"Sermonde","stateId":2243,"stateCode":"13","stateName":"Porto","countryId":177,"countryCode":"PT","countryName":"Portugal","latitude":"41.04712000","longitude":"-8.58449000","wikiDataId":"Q2671865"},{"id":89532,"name":"Seroa","stateId":2243,"stateCode":"13","stateName":"Porto","countryId":177,"countryCode":"PT","countryName":"Portugal","latitude":"41.26511000","longitude":"-8.42892000","wikiDataId":"Q49367404"},{"id":89538,"name":"Serzedo","stateId":2243,"stateCode":"13","stateName":"Porto","countryId":177,"countryCode":"PT","countryName":"Portugal","latitude":"41.05105000","longitude":"-8.61605000","wikiDataId":"Q49367433"},{"id":89547,"name":"Sobrado","stateId":2243,"stateCode":"13","stateName":"Porto","countryId":177,"countryCode":"PT","countryName":"Portugal","latitude":"41.21041000","longitude":"-8.45488000","wikiDataId":"Q49367967"},{"id":89600,"name":"Telões","stateId":2243,"stateCode":"13","stateName":"Porto","countryId":177,"countryCode":"PT","countryName":"Portugal","latitude":"41.31054000","longitude":"-8.11101000","wikiDataId":"Q33505889"},{"id":89613,"name":"Trofa","stateId":2243,"stateCode":"13","stateName":"Porto","countryId":177,"countryCode":"PT","countryName":"Portugal","latitude":"41.30646000","longitude":"-8.57640000","wikiDataId":"Q987964"},{"id":89620,"name":"Vairão","stateId":2243,"stateCode":"13","stateName":"Porto","countryId":177,"countryCode":"PT","countryName":"Portugal","latitude":"41.33290000","longitude":"-8.66657000","wikiDataId":"Q404220"},{"id":89621,"name":"Valadares","stateId":2243,"stateCode":"13","stateName":"Porto","countryId":177,"countryCode":"PT","countryName":"Portugal","latitude":"41.14737000","longitude":"-7.98120000","wikiDataId":"Q33511090"},{"id":89623,"name":"Valbom","stateId":2243,"stateCode":"13","stateName":"Porto","countryId":177,"countryCode":"PT","countryName":"Portugal","latitude":"41.12921000","longitude":"-8.56199000","wikiDataId":"Q33511098"},{"id":89631,"name":"Valongo","stateId":2243,"stateCode":"13","stateName":"Porto","countryId":177,"countryCode":"PT","countryName":"Portugal","latitude":"41.20797000","longitude":"-8.50086000","wikiDataId":"Q604262"},{"id":89672,"name":"Vila do Conde","stateId":2243,"stateCode":"13","stateName":"Porto","countryId":177,"countryCode":"PT","countryName":"Portugal","latitude":"41.35326000","longitude":"-8.74516000","wikiDataId":"Q49292311"},{"id":89652,"name":"Vila Meã","stateId":2243,"stateCode":"13","stateName":"Porto","countryId":177,"countryCode":"PT","countryName":"Portugal","latitude":"41.25116000","longitude":"-8.18397000","wikiDataId":"Q33511837"},{"id":89655,"name":"Vila Nova da Telha","stateId":2243,"stateCode":"13","stateName":"Porto","countryId":177,"countryCode":"PT","countryName":"Portugal","latitude":"41.07170000","longitude":"-8.64146000","wikiDataId":"Q33511853"},{"id":89657,"name":"Vila Nova de Gaia","stateId":2243,"stateCode":"13","stateName":"Porto","countryId":177,"countryCode":"PT","countryName":"Portugal","latitude":"41.12401000","longitude":"-8.61241000","wikiDataId":"Q1982979"},{"id":89675,"name":"Vilar de Andorinho","stateId":2243,"stateCode":"13","stateName":"Porto","countryId":177,"countryCode":"PT","countryName":"Portugal","latitude":"41.10574000","longitude":"-8.58622000","wikiDataId":"Q33511867"},{"id":89677,"name":"Vilar do Paraíso","stateId":2243,"stateCode":"13","stateName":"Porto","countryId":177,"countryCode":"PT","countryName":"Portugal","latitude":"41.08974000","longitude":"-8.62110000","wikiDataId":"Q1962829"},{"id":89678,"name":"Vilarinho","stateId":2243,"stateCode":"13","stateName":"Porto","countryId":177,"countryCode":"PT","countryName":"Portugal","latitude":"41.35955000","longitude":"-8.33123000","wikiDataId":"Q1147364"},{"id":89685,"name":"Vizela","stateId":2243,"stateCode":"13","stateName":"Porto","countryId":177,"countryCode":"PT","countryName":"Portugal","latitude":"41.38242000","longitude":"-8.24887000","wikiDataId":"Q33512261"}]