[{"id":52400,"name":"Acharávi","stateId":2131,"stateCode":"F","stateName":"Ionian Islands Region","countryId":85,"countryCode":"GR","countryName":"Greece","latitude":"39.79360000","longitude":"19.81736000","wikiDataId":"Q992317"},{"id":52409,"name":"Agios Georgis","stateId":2131,"stateCode":"F","stateName":"Ionian Islands Region","countryId":85,"countryCode":"GR","countryName":"Greece","latitude":"39.72363000","longitude":"19.69969000","wikiDataId":"Q12872132"},{"id":53379,"name":"Ágios Matthaíos","stateId":2131,"stateCode":"F","stateName":"Ionian Islands Region","countryId":85,"countryCode":"GR","countryName":"Greece","latitude":"39.49506000","longitude":"19.87336000","wikiDataId":"Q21555128"},{"id":52439,"name":"Alepoú","stateId":2131,"stateCode":"F","stateName":"Ionian Islands Region","countryId":85,"countryCode":"GR","countryName":"Greece","latitude":"39.61594000","longitude":"19.89564000","wikiDataId":"Q12720154"},{"id":52448,"name":"Ambelókipoi","stateId":2131,"stateCode":"F","stateName":"Ionian Islands Region","countryId":85,"countryCode":"GR","countryName":"Greece","latitude":"37.75809000","longitude":"20.87248000","wikiDataId":"Q162933"},{"id":52489,"name":"Argostólion","stateId":2131,"stateCode":"F","stateName":"Ionian Islands Region","countryId":85,"countryCode":"GR","countryName":"Greece","latitude":"38.18109000","longitude":"20.48903000","wikiDataId":"Q643695"},{"id":52545,"name":"Corfu","stateId":2131,"stateCode":"F","stateName":"Ionian Islands Region","countryId":85,"countryCode":"GR","countryName":"Greece","latitude":"39.62069000","longitude":"19.91975000","wikiDataId":"Q205832"},{"id":52650,"name":"Gáïos","stateId":2131,"stateCode":"F","stateName":"Ionian Islands Region","countryId":85,"countryCode":"GR","countryName":"Greece","latitude":"39.19722000","longitude":"20.18556000","wikiDataId":"Q2975318"},{"id":52631,"name":"Gaïtánion","stateId":2131,"stateCode":"F","stateName":"Ionian Islands Region","countryId":85,"countryCode":"GR","countryName":"Greece","latitude":"37.79134000","longitude":"20.87407000","wikiDataId":"Q16332238"},{"id":52669,"name":"Itháki","stateId":2131,"stateCode":"F","stateName":"Ionian Islands Region","countryId":85,"countryCode":"GR","countryName":"Greece","latitude":"38.36421000","longitude":"20.71848000","wikiDataId":"Q3555023"},{"id":52703,"name":"Kanáli","stateId":2131,"stateCode":"F","stateName":"Ionian Islands Region","countryId":85,"countryCode":"GR","countryName":"Greece","latitude":"39.60556000","longitude":"19.89250000","wikiDataId":"Q12878734"},{"id":52729,"name":"Katastárion","stateId":2131,"stateCode":"F","stateName":"Ionian Islands Region","countryId":85,"countryCode":"GR","countryName":"Greece","latitude":"37.83012000","longitude":"20.75755000","wikiDataId":"Q845105"},{"id":52765,"name":"Kontokáli","stateId":2131,"stateCode":"F","stateName":"Ionian Islands Region","countryId":85,"countryCode":"GR","countryName":"Greece","latitude":"39.64436000","longitude":"19.85194000","wikiDataId":"Q3564009"},{"id":52796,"name":"Kynopiástes","stateId":2131,"stateCode":"F","stateName":"Ionian Islands Region","countryId":85,"countryCode":"GR","countryName":"Greece","latitude":"39.56785000","longitude":"19.88362000","wikiDataId":"Q2831532"},{"id":52840,"name":"Lefkada","stateId":2131,"stateCode":"F","stateName":"Ionian Islands Region","countryId":85,"countryCode":"GR","countryName":"Greece","latitude":"38.75000000","longitude":"20.66667000","wikiDataId":"Q1248071"},{"id":52842,"name":"Lefkímmi","stateId":2131,"stateCode":"F","stateName":"Ionian Islands Region","countryId":85,"countryCode":"GR","countryName":"Greece","latitude":"39.42336000","longitude":"20.07094000","wikiDataId":"Q1812299"},{"id":52857,"name":"Lithakiá","stateId":2131,"stateCode":"F","stateName":"Ionian Islands Region","countryId":85,"countryCode":"GR","countryName":"Greece","latitude":"37.71935000","longitude":"20.83013000","wikiDataId":"Q2105234"},{"id":52863,"name":"Lixoúri","stateId":2131,"stateCode":"F","stateName":"Ionian Islands Region","countryId":85,"countryCode":"GR","countryName":"Greece","latitude":"38.20133000","longitude":"20.43706000","wikiDataId":"Q648399"},{"id":52945,"name":"Mouzaki","stateId":2131,"stateCode":"F","stateName":"Ionian Islands Region","countryId":85,"countryCode":"GR","countryName":"Greece","latitude":"37.73565000","longitude":"20.82291000","wikiDataId":"Q3326154"},{"id":52987,"name":"Nomós Kerkýras","stateId":2131,"stateCode":"F","stateName":"Ionian Islands Region","countryId":85,"countryCode":"GR","countryName":"Greece","latitude":"39.66667000","longitude":"19.75000000","wikiDataId":"Q842235"},{"id":52993,"name":"Nomós Zakýnthou","stateId":2131,"stateCode":"F","stateName":"Ionian Islands Region","countryId":85,"countryCode":"GR","countryName":"Greece","latitude":"37.75000000","longitude":"20.75000000","wikiDataId":"Q1542407"},{"id":53109,"name":"Perama","stateId":2131,"stateCode":"F","stateName":"Ionian Islands Region","countryId":85,"countryCode":"GR","countryName":"Greece","latitude":"39.58289000","longitude":"19.91220000","wikiDataId":"Q21554961"},{"id":53113,"name":"Perivóli","stateId":2131,"stateCode":"F","stateName":"Ionian Islands Region","countryId":85,"countryCode":"GR","countryName":"Greece","latitude":"39.41936000","longitude":"20.01469000","wikiDataId":"Q827238"},{"id":53179,"name":"Póros","stateId":2131,"stateCode":"F","stateName":"Ionian Islands Region","countryId":85,"countryCode":"GR","countryName":"Greece","latitude":"38.15369000","longitude":"20.77120000","wikiDataId":"Q1062964"},{"id":53141,"name":"Potamós","stateId":2131,"stateCode":"F","stateName":"Ionian Islands Region","countryId":85,"countryCode":"GR","countryName":"Greece","latitude":"39.62420000","longitude":"19.87826000","wikiDataId":"Q12199819"},{"id":53263,"name":"Sámi","stateId":2131,"stateCode":"F","stateName":"Ionian Islands Region","countryId":85,"countryCode":"GR","countryName":"Greece","latitude":"38.25081000","longitude":"20.64686000","wikiDataId":"Q1021651"},{"id":53304,"name":"Valsamáta","stateId":2131,"stateCode":"F","stateName":"Ionian Islands Region","countryId":85,"countryCode":"GR","countryName":"Greece","latitude":"38.17600000","longitude":"20.58392000","wikiDataId":"Q4120005"},{"id":53307,"name":"Vanáton","stateId":2131,"stateCode":"F","stateName":"Ionian Islands Region","countryId":85,"countryCode":"GR","countryName":"Greece","latitude":"37.79446000","longitude":"20.85188000","wikiDataId":"Q4120005"},{"id":53322,"name":"Virós","stateId":2131,"stateCode":"F","stateName":"Ionian Islands Region","countryId":85,"countryCode":"GR","countryName":"Greece","latitude":"39.58340000","longitude":"19.88270000","wikiDataId":"Q213916"},{"id":53358,"name":"Zakynthos","stateId":2131,"stateCode":"F","stateName":"Ionian Islands Region","countryId":85,"countryCode":"GR","countryName":"Greece","latitude":"37.78022000","longitude":"20.89555000","wikiDataId":"Q144869"}]