[{"id":21813,"name":"Batabanó","stateId":276,"stateCode":"16","stateName":"Mayabeque Province","countryId":56,"countryCode":"CU","countryName":"Cuba","latitude":"22.71794000","longitude":"-82.28965000","wikiDataId":"Q809538"},{"id":21816,"name":"Bejucal","stateId":276,"stateCode":"16","stateName":"Mayabeque Province","countryId":56,"countryCode":"CU","countryName":"Cuba","latitude":"22.92861000","longitude":"-82.38861000","wikiDataId":"Q814979"},{"id":21864,"name":"Güines","stateId":276,"stateCode":"16","stateName":"Mayabeque Province","countryId":56,"countryCode":"CU","countryName":"Cuba","latitude":"22.83727000","longitude":"-82.02641000","wikiDataId":"Q1935474"},{"id":21871,"name":"Jamaica","stateId":276,"stateCode":"16","stateName":"Mayabeque Province","countryId":56,"countryCode":"CU","countryName":"Cuba","latitude":"22.97559000","longitude":"-82.16852000","wikiDataId":"Q23795053"},{"id":21872,"name":"Jaruco","stateId":276,"stateCode":"16","stateName":"Mayabeque Province","countryId":56,"countryCode":"CU","countryName":"Cuba","latitude":"23.04419000","longitude":"-82.00919000","wikiDataId":"Q23795053"},{"id":21881,"name":"La Salud","stateId":276,"stateCode":"16","stateName":"Mayabeque Province","countryId":56,"countryCode":"CU","countryName":"Cuba","latitude":"22.87199000","longitude":"-82.42328000","wikiDataId":"Q23794891"},{"id":21888,"name":"Madruga","stateId":276,"stateCode":"16","stateName":"Mayabeque Province","countryId":56,"countryCode":"CU","countryName":"Cuba","latitude":"22.91000000","longitude":"-81.85639000","wikiDataId":"Q2737469"},{"id":21917,"name":"Municipio de Güines","stateId":276,"stateCode":"16","stateName":"Mayabeque Province","countryId":56,"countryCode":"CU","countryName":"Cuba","latitude":"22.78712000","longitude":"-82.01602000","wikiDataId":"Q270297"},{"id":21925,"name":"Municipio de Melena del Sur","stateId":276,"stateCode":"16","stateName":"Mayabeque Province","countryId":56,"countryCode":"CU","countryName":"Cuba","latitude":"22.78821000","longitude":"-82.15113000","wikiDataId":"Q272471"},{"id":21949,"name":"Quivicán","stateId":276,"stateCode":"16","stateName":"Mayabeque Province","countryId":56,"countryCode":"CU","countryName":"Cuba","latitude":"22.82313000","longitude":"-82.35558000","wikiDataId":"Q23794731"},{"id":21963,"name":"San José de las Lajas","stateId":276,"stateCode":"16","stateName":"Mayabeque Province","countryId":56,"countryCode":"CU","countryName":"Cuba","latitude":"22.96139000","longitude":"-82.15111000","wikiDataId":"Q23789806"},{"id":21967,"name":"San Nicolás de Bari","stateId":276,"stateCode":"16","stateName":"Mayabeque Province","countryId":56,"countryCode":"CU","countryName":"Cuba","latitude":"22.78444000","longitude":"-81.91333000","wikiDataId":"Q2234391"},{"id":21970,"name":"Santa Cruz del Norte","stateId":276,"stateCode":"16","stateName":"Mayabeque Province","countryId":56,"countryCode":"CU","countryName":"Cuba","latitude":"23.15424000","longitude":"-81.92556000","wikiDataId":"Q12896967"}]