[{"id":1014,"name":"Agder","countryId":165,"countryCode":"NO","countryName":"Norway","stateCode":"42","type":"county","latitude":"58.74069340","longitude":"6.75315210"},{"id":1009,"name":"Innlandet","countryId":165,"countryCode":"NO","countryName":"Norway","stateCode":"34","type":"county","latitude":"61.19357870","longitude":"5.50832660"},{"id":1026,"name":"Jan Mayen","countryId":165,"countryCode":"NO","countryName":"Norway","stateCode":"22","type":"arctic region","latitude":"71.03181800","longitude":"-8.29203460"},{"id":1020,"name":"Møre og Romsdal","countryId":165,"countryCode":"NO","countryName":"Norway","stateCode":"15","type":"county","latitude":"62.84068330","longitude":"7.00714300"},{"id":1025,"name":"Nordland","countryId":165,"countryCode":"NO","countryName":"Norway","stateCode":"18","type":"county","latitude":"67.69305800","longitude":"12.70739360"},{"id":1007,"name":"Oslo","countryId":165,"countryCode":"NO","countryName":"Norway","stateCode":"03","type":"county","latitude":"59.91386880","longitude":"10.75224540"},{"id":1021,"name":"Rogaland","countryId":165,"countryCode":"NO","countryName":"Norway","stateCode":"11","type":"county","latitude":"59.14895440","longitude":"6.01434320"},{"id":1013,"name":"Svalbard","countryId":165,"countryCode":"NO","countryName":"Norway","stateCode":"21","type":"arctic region","latitude":"77.87497250","longitude":"20.97518210"},{"id":1015,"name":"Troms og Finnmark","countryId":165,"countryCode":"NO","countryName":"Norway","stateCode":"54","type":"county","latitude":"69.77890670","longitude":"18.99401840"},{"id":1006,"name":"Trøndelag","countryId":165,"countryCode":"NO","countryName":"Norway","stateCode":"50","type":"county","latitude":"63.54201250","longitude":"10.93692670"},{"id":1024,"name":"Vestfold og Telemark","countryId":165,"countryCode":"NO","countryName":"Norway","stateCode":"38","type":"county","latitude":"59.41174820","longitude":"7.76471750"},{"id":1018,"name":"Vestland","countryId":165,"countryCode":"NO","countryName":"Norway","stateCode":"46","type":"county","latitude":"60.90694420","longitude":"3.96270810"},{"id":1011,"name":"Viken","countryId":165,"countryCode":"NO","countryName":"Norway","stateCode":"30","type":"county","latitude":"59.96530050","longitude":"7.45051440"}]