[{"id":130673,"name":"Ahwar","stateId":1237,"stateCode":"AB","stateName":"Abyan","countryId":245,"countryCode":"YE","countryName":"Yemen","latitude":"13.68530000","longitude":"46.75560000","wikiDataId":"Q4117549"},{"id":130714,"name":"Al Mahfad","stateId":1237,"stateCode":"AB","stateName":"Abyan","countryId":245,"countryCode":"YE","countryName":"Yemen","latitude":"13.97050000","longitude":"46.75600000","wikiDataId":"Q4117574"},{"id":130752,"name":"Al Wade'a","stateId":1237,"stateCode":"AB","stateName":"Abyan","countryId":245,"countryCode":"YE","countryName":"Yemen","latitude":"13.71360000","longitude":"46.01220000","wikiDataId":"Q4117454"},{"id":130880,"name":"Jawf al Maqbābah","stateId":1237,"stateCode":"AB","stateName":"Abyan","countryId":245,"countryCode":"YE","countryName":"Yemen","latitude":"13.83783000","longitude":"45.83488000","wikiDataId":"Q6166106"},{"id":130881,"name":"Jayshan","stateId":1237,"stateCode":"AB","stateName":"Abyan","countryId":245,"countryCode":"YE","countryName":"Yemen","latitude":"14.16620000","longitude":"46.17230000","wikiDataId":"Q4117520"},{"id":130887,"name":"Khanfir","stateId":1237,"stateCode":"AB","stateName":"Abyan","countryId":245,"countryCode":"YE","countryName":"Yemen","latitude":"13.42049000","longitude":"45.68707000","wikiDataId":"Q4117538"},{"id":130900,"name":"Lawdar","stateId":1237,"stateCode":"AB","stateName":"Abyan","countryId":245,"countryCode":"YE","countryName":"Yemen","latitude":"13.80590000","longitude":"45.80080000","wikiDataId":"Q1164303"},{"id":130928,"name":"Mudiyah","stateId":1237,"stateCode":"AB","stateName":"Abyan","countryId":245,"countryCode":"YE","countryName":"Yemen","latitude":"13.90960000","longitude":"46.21960000","wikiDataId":"Q4117556"},{"id":130952,"name":"Rasad","stateId":1237,"stateCode":"AB","stateName":"Abyan","countryId":245,"countryCode":"YE","countryName":"Yemen","latitude":"13.72310000","longitude":"45.28140000","wikiDataId":"Q4117586"},{"id":130967,"name":"Sarar","stateId":1237,"stateCode":"AB","stateName":"Abyan","countryId":245,"countryCode":"YE","countryName":"Yemen","latitude":"13.58300000","longitude":"45.35080000","wikiDataId":"Q4117544"},{"id":130981,"name":"Sibah","stateId":1237,"stateCode":"AB","stateName":"Abyan","countryId":245,"countryCode":"YE","countryName":"Yemen","latitude":"13.80910000","longitude":"45.40230000","wikiDataId":"Q4117509"},{"id":131008,"name":"Zingibar","stateId":1237,"stateCode":"AB","stateName":"Abyan","countryId":245,"countryCode":"YE","countryName":"Yemen","latitude":"13.13420000","longitude":"45.43040000","wikiDataId":"Q580992"},{"id":131009,"name":"Zinjibār","stateId":1237,"stateCode":"AB","stateName":"Abyan","countryId":245,"countryCode":"YE","countryName":"Yemen","latitude":"13.12871000","longitude":"45.38073000","wikiDataId":"Q204391"}]