[{"id":19438,"name":"Dawukou","stateId":2262,"stateCode":"NX","stateName":"Ningxia Huizu","countryId":45,"countryCode":"CN","countryName":"China","latitude":"39.04194000","longitude":"106.39583000","wikiDataId":"Q72877"},{"id":19476,"name":"Dongta","stateId":2262,"stateCode":"NX","stateName":"Ningxia Huizu","countryId":45,"countryCode":"CN","countryName":"China","latitude":"38.08140000","longitude":"106.34444000","wikiDataId":"Q609421"},{"id":20106,"name":"Shitanjing","stateId":2262,"stateCode":"NX","stateName":"Ningxia Huizu","countryId":45,"countryCode":"CN","countryName":"China","latitude":"39.23417000","longitude":"106.34389000","wikiDataId":"Q1025428"},{"id":20111,"name":"Shizuishan","stateId":2262,"stateCode":"NX","stateName":"Ningxia Huizu","countryId":45,"countryCode":"CN","countryName":"China","latitude":"39.23333000","longitude":"106.76944000","wikiDataId":"Q604385"},{"id":20246,"name":"Wuzhong","stateId":2262,"stateCode":"NX","stateName":"Ningxia Huizu","countryId":45,"countryCode":"CN","countryName":"China","latitude":"37.98670000","longitude":"106.20100000","wikiDataId":"Q604517"},{"id":20374,"name":"Yinchuan","stateId":2262,"stateCode":"NX","stateName":"Ningxia Huizu","countryId":45,"countryCode":"CN","countryName":"China","latitude":"38.46806000","longitude":"106.27306000","wikiDataId":"Q211243"},{"id":20454,"name":"Zhongwei","stateId":2262,"stateCode":"NX","stateName":"Ningxia Huizu","countryId":45,"countryCode":"CN","countryName":"China","latitude":"37.51129000","longitude":"105.19067000","wikiDataId":"Q197922"}]