[{"id":65276,"name":"Buk-gu","stateId":3860,"stateCode":"26","stateName":"Busan","countryId":116,"countryCode":"KR","countryName":"South Korea","latitude":"35.19724000","longitude":"128.99134000","wikiDataId":"Q50394"},{"id":65278,"name":"Busan","stateId":3860,"stateCode":"26","stateName":"Busan","countryId":116,"countryCode":"KR","countryName":"South Korea","latitude":"35.10168000","longitude":"129.03004000","wikiDataId":"Q16520"},{"id":65313,"name":"Dongnae-gu","stateId":3860,"stateCode":"26","stateName":"Busan","countryId":116,"countryCode":"KR","countryName":"South Korea","latitude":"35.20447000","longitude":"129.07800000","wikiDataId":"Q50383"},{"id":65325,"name":"Gangseo-gu","stateId":3860,"stateCode":"26","stateName":"Busan","countryId":116,"countryCode":"KR","countryName":"South Korea","latitude":"35.15930000","longitude":"128.93300000","wikiDataId":"Q50191"},{"id":65331,"name":"Geumjeong-gu","stateId":3860,"stateCode":"26","stateName":"Busan","countryId":116,"countryCode":"KR","countryName":"South Korea","latitude":"35.25863000","longitude":"129.09010000","wikiDataId":"Q50358"},{"id":65333,"name":"Gijang","stateId":3860,"stateCode":"26","stateName":"Busan","countryId":116,"countryCode":"KR","countryName":"South Korea","latitude":"35.24417000","longitude":"129.21389000","wikiDataId":"Q50216"},{"id":65334,"name":"Gijang-gun","stateId":3860,"stateCode":"26","stateName":"Busan","countryId":116,"countryCode":"KR","countryName":"South Korea","latitude":"35.29721000","longitude":"129.20076000","wikiDataId":"Q50217"},{"id":65375,"name":"Haeundae-gu","stateId":3860,"stateCode":"26","stateName":"Busan","countryId":116,"countryCode":"KR","countryName":"South Korea","latitude":"35.16665000","longitude":"129.16792000","wikiDataId":"Q50449"},{"id":65421,"name":"Jung-gu","stateId":3860,"stateCode":"26","stateName":"Busan","countryId":116,"countryCode":"KR","countryName":"South Korea","latitude":"35.10594000","longitude":"129.03331000","wikiDataId":"Q50440"},{"id":65452,"name":"Nam-gu","stateId":3860,"stateCode":"26","stateName":"Busan","countryId":116,"countryCode":"KR","countryName":"South Korea","latitude":"35.13648000","longitude":"129.08266000","wikiDataId":"Q50363"},{"id":65477,"name":"Saha-gu","stateId":3860,"stateCode":"26","stateName":"Busan","countryId":116,"countryCode":"KR","countryName":"South Korea","latitude":"35.08552000","longitude":"128.98725000","wikiDataId":"Q50400"},{"id":65482,"name":"Sasang-gu","stateId":3860,"stateCode":"26","stateName":"Busan","countryId":116,"countryCode":"KR","countryName":"South Korea","latitude":"35.14479000","longitude":"128.97986000","wikiDataId":"Q50398"},{"id":65484,"name":"Seo-gu","stateId":3860,"stateCode":"26","stateName":"Busan","countryId":116,"countryCode":"KR","countryName":"South Korea","latitude":"35.12529000","longitude":"129.01946000","wikiDataId":"Q50406"},{"id":65513,"name":"Suyeong-gu","stateId":3860,"stateCode":"26","stateName":"Busan","countryId":116,"countryCode":"KR","countryName":"South Korea","latitude":"35.15627000","longitude":"129.11253000","wikiDataId":"Q50417"},{"id":65552,"name":"Yeongdo-gu","stateId":3860,"stateCode":"26","stateName":"Busan","countryId":116,"countryCode":"KR","countryName":"South Korea","latitude":"35.07849000","longitude":"129.06483000","wikiDataId":"Q50423"}]