[{"id":10078,"name":"Acrelândia","stateId":2012,"stateCode":"AC","stateName":"Acre","countryId":31,"countryCode":"BR","countryName":"Brazil","latitude":"-9.98045000","longitude":"-66.84388000","wikiDataId":"Q507567"},{"id":10428,"name":"Assis Brasil","stateId":2012,"stateCode":"AC","stateName":"Acre","countryId":31,"countryCode":"BR","countryName":"Brazil","latitude":"-10.88334000","longitude":"-70.01314000","wikiDataId":"Q742227"},{"id":10774,"name":"Brasiléia","stateId":2012,"stateCode":"AC","stateName":"Acre","countryId":31,"countryCode":"BR","countryName":"Brazil","latitude":"-11.01611000","longitude":"-68.74806000","wikiDataId":"Q899406"},{"id":10819,"name":"Bujari","stateId":2012,"stateCode":"AC","stateName":"Acre","countryId":31,"countryCode":"BR","countryName":"Brazil","latitude":"-9.57859000","longitude":"-68.17197000","wikiDataId":"Q1793226"},{"id":11091,"name":"Capixaba","stateId":2012,"stateCode":"AC","stateName":"Acre","countryId":31,"countryCode":"BR","countryName":"Brazil","latitude":"-10.48782000","longitude":"-67.84831000","wikiDataId":"Q1750439"},{"id":11498,"name":"Cruzeiro do Sul","stateId":2012,"stateCode":"AC","stateName":"Acre","countryId":31,"countryCode":"BR","countryName":"Brazil","latitude":"-7.62759000","longitude":"-72.67756000","wikiDataId":"Q941136"},{"id":11713,"name":"Epitaciolândia","stateId":2012,"stateCode":"AC","stateName":"Acre","countryId":31,"countryCode":"BR","countryName":"Brazil","latitude":"-10.93542000","longitude":"-68.44411000","wikiDataId":"Q22054061"},{"id":11788,"name":"Feijó","stateId":2012,"stateCode":"AC","stateName":"Acre","countryId":31,"countryCode":"BR","countryName":"Brazil","latitude":"-8.16540000","longitude":"-70.35486000","wikiDataId":"Q1994833"},{"id":12647,"name":"Jordão","stateId":2012,"stateCode":"AC","stateName":"Acre","countryId":31,"countryCode":"BR","countryName":"Brazil","latitude":"-9.09166000","longitude":"-71.84069000","wikiDataId":"Q1800793"},{"id":13291,"name":"Mâncio Lima","stateId":2012,"stateCode":"AC","stateName":"Acre","countryId":31,"countryCode":"BR","countryName":"Brazil","latitude":"-7.61417000","longitude":"-72.89583000","wikiDataId":"Q1772621"},{"id":12954,"name":"Manoel Urbano","stateId":2012,"stateCode":"AC","stateName":"Acre","countryId":31,"countryCode":"BR","countryName":"Brazil","latitude":"-8.83889000","longitude":"-69.25972000","wikiDataId":"Q1772688"},{"id":13001,"name":"Marechal Thaumaturgo","stateId":2012,"stateCode":"AC","stateName":"Acre","countryId":31,"countryCode":"BR","countryName":"Brazil","latitude":"-8.94111000","longitude":"-72.79167000","wikiDataId":"Q1772613"},{"id":13945,"name":"Plácido de Castro","stateId":2012,"stateCode":"AC","stateName":"Acre","countryId":31,"countryCode":"BR","countryName":"Brazil","latitude":"-10.33528000","longitude":"-67.18556000","wikiDataId":"Q964075"},{"id":13993,"name":"Porto Acre","stateId":2012,"stateCode":"AC","stateName":"Acre","countryId":31,"countryCode":"BR","countryName":"Brazil","latitude":"-9.65038000","longitude":"-67.77733000","wikiDataId":"Q2113232"},{"id":14022,"name":"Porto Walter","stateId":2012,"stateCode":"AC","stateName":"Acre","countryId":31,"countryCode":"BR","countryName":"Brazil","latitude":"-8.26861000","longitude":"-72.74389000","wikiDataId":"Q1772588"},{"id":14263,"name":"Rio Branco","stateId":2012,"stateCode":"AC","stateName":"Acre","countryId":31,"countryCode":"BR","countryName":"Brazil","latitude":"-9.97472000","longitude":"-67.81000000","wikiDataId":"Q171612"},{"id":14333,"name":"Rodrigues Alves","stateId":2012,"stateCode":"AC","stateName":"Acre","countryId":31,"countryCode":"BR","countryName":"Brazil","latitude":"-7.85286000","longitude":"-73.23613000","wikiDataId":"Q1800776"},{"id":14547,"name":"Santa Rosa do Purus","stateId":2012,"stateCode":"AC","stateName":"Acre","countryId":31,"countryCode":"BR","countryName":"Brazil","latitude":"-9.47730000","longitude":"-70.39032000","wikiDataId":"Q1097771"},{"id":14692,"name":"Sena Madureira","stateId":2012,"stateCode":"AC","stateName":"Acre","countryId":31,"countryCode":"BR","countryName":"Brazil","latitude":"-9.06341000","longitude":"-68.67245000","wikiDataId":"Q1754389"},{"id":14700,"name":"Senador Guiomard","stateId":2012,"stateCode":"AC","stateName":"Acre","countryId":31,"countryCode":"BR","countryName":"Brazil","latitude":"-10.14970000","longitude":"-67.73741000","wikiDataId":"Q771763"},{"id":15253,"name":"Tarauacá","stateId":2012,"stateCode":"AC","stateName":"Acre","countryId":31,"countryCode":"BR","countryName":"Brazil","latitude":"-8.16139000","longitude":"-70.76556000","wikiDataId":"Q979910"},{"id":15637,"name":"Xapuri","stateId":2012,"stateCode":"AC","stateName":"Acre","countryId":31,"countryCode":"BR","countryName":"Brazil","latitude":"-10.59663000","longitude":"-68.64891000","wikiDataId":"Q1012531"},{"id":15652,"name":"Água Branca","stateId":2007,"stateCode":"AL","stateName":"Alagoas","countryId":31,"countryCode":"BR","countryName":"Brazil","latitude":"-9.26988000","longitude":"-37.91917000","wikiDataId":"Q1808899"},{"id":10227,"name":"Anadia","stateId":2007,"stateCode":"AL","stateName":"Alagoas","countryId":31,"countryCode":"BR","countryName":"Brazil","latitude":"-9.67495000","longitude":"-36.33790000","wikiDataId":"Q2028005"},{"id":10337,"name":"Arapiraca","stateId":2007,"stateCode":"AL","stateName":"Alagoas","countryId":31,"countryCode":"BR","countryName":"Brazil","latitude":"-9.74380000","longitude":"-36.59315000","wikiDataId":"Q626175"},{"id":10434,"name":"Atalaia","stateId":2007,"stateCode":"AL","stateName":"Alagoas","countryId":31,"countryCode":"BR","countryName":"Brazil","latitude":"-9.50194000","longitude":"-36.02278000","wikiDataId":"Q928274"},{"id":10527,"name":"Barra de Santo Antônio","stateId":2007,"stateCode":"AL","stateName":"Alagoas","countryId":31,"countryCode":"BR","countryName":"Brazil","latitude":"-9.40472000","longitude":"-35.50722000","wikiDataId":"Q1795908"},{"id":10529,"name":"Barra de São Miguel","stateId":2007,"stateCode":"AL","stateName":"Alagoas","countryId":31,"countryCode":"BR","countryName":"Brazil","latitude":"-9.81230000","longitude":"-35.96087000","wikiDataId":"Q1794183"},{"id":10581,"name":"Batalha","stateId":2007,"stateCode":"AL","stateName":"Alagoas","countryId":31,"countryCode":"BR","countryName":"Brazil","latitude":"-9.73256000","longitude":"-37.08877000","wikiDataId":"Q2028288"},{"id":10616,"name":"Belém","stateId":2007,"stateCode":"AL","stateName":"Alagoas","countryId":31,"countryCode":"BR","countryName":"Brazil","latitude":"-9.54424000","longitude":"-36.50196000","wikiDataId":"Q12829733"},{"id":10609,"name":"Belo Monte","stateId":2007,"stateCode":"AL","stateName":"Alagoas","countryId":31,"countryCode":"BR","countryName":"Brazil","latitude":"-9.80521000","longitude":"-37.19157000","wikiDataId":"Q949079"},{"id":10677,"name":"Boca da Mata","stateId":2007,"stateCode":"AL","stateName":"Alagoas","countryId":31,"countryCode":"BR","countryName":"Brazil","latitude":"-9.64651000","longitude":"-36.14134000","wikiDataId":"Q1803204"},{"id":10767,"name":"Branquinha","stateId":2007,"stateCode":"AL","stateName":"Alagoas","countryId":31,"countryCode":"BR","countryName":"Brazil","latitude":"-9.21168000","longitude":"-36.08956000","wikiDataId":"Q897232"},{"id":10883,"name":"Cacimbinhas","stateId":2007,"stateCode":"AL","stateName":"Alagoas","countryId":31,"countryCode":"BR","countryName":"Brazil","latitude":"-9.40028000","longitude":"-36.99028000","wikiDataId":"Q1808791"},{"id":10919,"name":"Cajueiro","stateId":2007,"stateCode":"AL","stateName":"Alagoas","countryId":31,"countryCode":"BR","countryName":"Brazil","latitude":"-9.71667000","longitude":"-36.45000000","wikiDataId":"Q22023546"},{"id":10957,"name":"Campestre","stateId":2007,"stateCode":"AL","stateName":"Alagoas","countryId":31,"countryCode":"BR","countryName":"Brazil","latitude":"-8.89393000","longitude":"-35.53237000","wikiDataId":"Q2028637"},{"id":10976,"name":"Campo Alegre","stateId":2007,"stateCode":"AL","stateName":"Alagoas","countryId":31,"countryCode":"BR","countryName":"Brazil","latitude":"-9.78194000","longitude":"-36.35083000","wikiDataId":"Q2028275"},{"id":10990,"name":"Campo Grande","stateId":2007,"stateCode":"AL","stateName":"Alagoas","countryId":31,"countryCode":"BR","countryName":"Brazil","latitude":"-9.94997000","longitude":"-36.75593000","wikiDataId":"Q1814259"},{"id":11024,"name":"Canapi","stateId":2007,"stateCode":"AL","stateName":"Alagoas","countryId":31,"countryCode":"BR","countryName":"Brazil","latitude":"-9.17327000","longitude":"-37.51985000","wikiDataId":"Q22047157"},{"id":11066,"name":"Capela","stateId":2007,"stateCode":"AL","stateName":"Alagoas","countryId":31,"countryCode":"BR","countryName":"Brazil","latitude":"-9.39342000","longitude":"-36.12390000","wikiDataId":"Q1955261"},{"id":11160,"name":"Carneiros","stateId":2007,"stateCode":"AL","stateName":"Alagoas","countryId":31,"countryCode":"BR","countryName":"Brazil","latitude":"-9.46467000","longitude":"-37.35559000","wikiDataId":"Q22024027"},{"id":11287,"name":"Chã Preta","stateId":2007,"stateCode":"AL","stateName":"Alagoas","countryId":31,"countryCode":"BR","countryName":"Brazil","latitude":"-9.22921000","longitude":"-36.33049000","wikiDataId":"Q2010970"},{"id":11317,"name":"Coité do Nóia","stateId":2007,"stateCode":"AL","stateName":"Alagoas","countryId":31,"countryCode":"BR","countryName":"Brazil","latitude":"-9.62616000","longitude":"-36.60044000","wikiDataId":"Q1816142"},{"id":11336,"name":"Colônia Leopoldina","stateId":2007,"stateCode":"AL","stateName":"Alagoas","countryId":31,"countryCode":"BR","countryName":"Brazil","latitude":"-8.94183000","longitude":"-35.76005000","wikiDataId":"Q1795581"},{"id":11394,"name":"Coqueiro Seco","stateId":2007,"stateCode":"AL","stateName":"Alagoas","countryId":31,"countryCode":"BR","countryName":"Brazil","latitude":"-9.64656000","longitude":"-35.80938000","wikiDataId":"Q271333"},{"id":11445,"name":"Coruripe","stateId":2007,"stateCode":"AL","stateName":"Alagoas","countryId":31,"countryCode":"BR","countryName":"Brazil","latitude":"-10.12556000","longitude":"-36.17556000","wikiDataId":"Q1796426"},{"id":11464,"name":"Craíbas","stateId":2007,"stateCode":"AL","stateName":"Alagoas","countryId":31,"countryCode":"BR","countryName":"Brazil","latitude":"-9.60115000","longitude":"-36.80273000","wikiDataId":"Q1798797"},{"id":11569,"name":"Delmiro Gouveia","stateId":2007,"stateCode":"AL","stateName":"Alagoas","countryId":31,"countryCode":"BR","countryName":"Brazil","latitude":"-9.38861000","longitude":"-37.99917000","wikiDataId":"Q1808849"},{"id":11619,"name":"Dois Riachos","stateId":2007,"stateCode":"AL","stateName":"Alagoas","countryId":31,"countryCode":"BR","countryName":"Brazil","latitude":"-9.39250000","longitude":"-37.10056000","wikiDataId":"Q988800"},{"id":11752,"name":"Estrela de Alagoas","stateId":2007,"stateCode":"AL","stateName":"Alagoas","countryId":31,"countryCode":"BR","countryName":"Brazil","latitude":"-9.39858000","longitude":"-36.76219000","wikiDataId":"Q1648136"},{"id":11789,"name":"Feira Grande","stateId":2007,"stateCode":"AL","stateName":"Alagoas","countryId":31,"countryCode":"BR","countryName":"Brazil","latitude":"-9.92470000","longitude":"-36.66953000","wikiDataId":"Q1994833"},{"id":11799,"name":"Feliz Deserto","stateId":2007,"stateCode":"AL","stateName":"Alagoas","countryId":31,"countryCode":"BR","countryName":"Brazil","latitude":"-10.29080000","longitude":"-36.35367000","wikiDataId":"Q194343"},{"id":11824,"name":"Flexeiras","stateId":2007,"stateCode":"AL","stateName":"Alagoas","countryId":31,"countryCode":"BR","countryName":"Brazil","latitude":"-9.20061000","longitude":"-35.78000000","wikiDataId":"Q1816177"},{"id":11945,"name":"Girau do Ponciano","stateId":2007,"stateCode":"AL","stateName":"Alagoas","countryId":31,"countryCode":"BR","countryName":"Brazil","latitude":"-9.88417000","longitude":"-36.82889000","wikiDataId":"Q768122"},{"id":12123,"name":"Ibateguara","stateId":2007,"stateCode":"AL","stateName":"Alagoas","countryId":31,"countryCode":"BR","countryName":"Brazil","latitude":"-8.97250000","longitude":"-35.93944000","wikiDataId":"Q2021130"},{"id":12177,"name":"Igaci","stateId":2007,"stateCode":"AL","stateName":"Alagoas","countryId":31,"countryCode":"BR","countryName":"Brazil","latitude":"-9.53694000","longitude":"-36.63361000","wikiDataId":"Q1808097"},{"id":12193,"name":"Igreja Nova","stateId":2007,"stateCode":"AL","stateName":"Alagoas","countryId":31,"countryCode":"BR","countryName":"Brazil","latitude":"-10.16660000","longitude":"-36.61724000","wikiDataId":"Q594183"},{"id":12249,"name":"Inhapi","stateId":2007,"stateCode":"AL","stateName":"Alagoas","countryId":31,"countryCode":"BR","countryName":"Brazil","latitude":"-9.22139000","longitude":"-37.74861000","wikiDataId":"Q2021140"},{"id":12522,"name":"Jacaré dos Homens","stateId":2007,"stateCode":"AL","stateName":"Alagoas","countryId":31,"countryCode":"BR","countryName":"Brazil","latitude":"-9.67278000","longitude":"-37.22275000","wikiDataId":"Q655363"},{"id":12535,"name":"Jacuípe","stateId":2007,"stateCode":"AL","stateName":"Alagoas","countryId":31,"countryCode":"BR","countryName":"Brazil","latitude":"-8.87722000","longitude":"-35.45885000","wikiDataId":"Q1804332"},{"id":12566,"name":"Japaratinga","stateId":2007,"stateCode":"AL","stateName":"Alagoas","countryId":31,"countryCode":"BR","countryName":"Brazil","latitude":"-9.09900000","longitude":"-35.29631000","wikiDataId":"Q1808087"},{"id":12582,"name":"Jaramataia","stateId":2007,"stateCode":"AL","stateName":"Alagoas","countryId":31,"countryCode":"BR","countryName":"Brazil","latitude":"-9.65053000","longitude":"-36.96036000","wikiDataId":"Q849584"},{"id":12618,"name":"Jequiá da Praia","stateId":2007,"stateCode":"AL","stateName":"Alagoas","countryId":31,"countryCode":"BR","countryName":"Brazil","latitude":"-9.91151000","longitude":"-36.09896000","wikiDataId":"Q1808524"},{"id":12637,"name":"Joaquim Gomes","stateId":2007,"stateCode":"AL","stateName":"Alagoas","countryId":31,"countryCode":"BR","countryName":"Brazil","latitude":"-9.10352000","longitude":"-35.73739000","wikiDataId":"Q2027123"},{"id":12686,"name":"Jundiá","stateId":2007,"stateCode":"AL","stateName":"Alagoas","countryId":31,"countryCode":"BR","countryName":"Brazil","latitude":"-8.93472000","longitude":"-35.57361000","wikiDataId":"Q2020978"},{"id":12688,"name":"Junqueiro","stateId":2007,"stateCode":"AL","stateName":"Alagoas","countryId":31,"countryCode":"BR","countryName":"Brazil","latitude":"-9.88524000","longitude":"-36.45640000","wikiDataId":"Q1808328"},{"id":12749,"name":"Lagoa da Canoa","stateId":2007,"stateCode":"AL","stateName":"Alagoas","countryId":31,"countryCode":"BR","countryName":"Brazil","latitude":"-9.82972000","longitude":"-36.73778000","wikiDataId":"Q1795976"},{"id":12832,"name":"Limoeiro de Anadia","stateId":2007,"stateCode":"AL","stateName":"Alagoas","countryId":31,"countryCode":"BR","countryName":"Brazil","latitude":"-9.72685000","longitude":"-36.45407000","wikiDataId":"Q961349"},{"id":12896,"name":"Maceió","stateId":2007,"stateCode":"AL","stateName":"Alagoas","countryId":31,"countryCode":"BR","countryName":"Brazil","latitude":"-9.66583000","longitude":"-35.73528000","wikiDataId":"Q168888"},{"id":12921,"name":"Major Isidoro","stateId":2007,"stateCode":"AL","stateName":"Alagoas","countryId":31,"countryCode":"BR","countryName":"Brazil","latitude":"-9.53222000","longitude":"-36.98500000","wikiDataId":"Q1808271"},{"id":12961,"name":"Mar Vermelho","stateId":2007,"stateCode":"AL","stateName":"Alagoas","countryId":31,"countryCode":"BR","countryName":"Brazil","latitude":"-9.49247000","longitude":"-36.35042000","wikiDataId":"Q2028214"},{"id":12973,"name":"Maragogi","stateId":2007,"stateCode":"AL","stateName":"Alagoas","countryId":31,"countryCode":"BR","countryName":"Brazil","latitude":"-9.01222000","longitude":"-35.22250000","wikiDataId":"Q971736"},{"id":12985,"name":"Maravilha","stateId":2007,"stateCode":"AL","stateName":"Alagoas","countryId":31,"countryCode":"BR","countryName":"Brazil","latitude":"-9.22305000","longitude":"-37.37936000","wikiDataId":"Q1784401"},{"id":12999,"name":"Marechal Deodoro","stateId":2007,"stateCode":"AL","stateName":"Alagoas","countryId":31,"countryCode":"BR","countryName":"Brazil","latitude":"-9.71028000","longitude":"-35.89500000","wikiDataId":"Q985275"},{"id":13011,"name":"Maribondo","stateId":2007,"stateCode":"AL","stateName":"Alagoas","countryId":31,"countryCode":"BR","countryName":"Brazil","latitude":"-9.57722000","longitude":"-36.30528000","wikiDataId":"Q2021217"},{"id":13046,"name":"Mata Grande","stateId":2007,"stateCode":"AL","stateName":"Alagoas","countryId":31,"countryCode":"BR","countryName":"Brazil","latitude":"-8.98543000","longitude":"-37.76150000","wikiDataId":"Q2027641"},{"id":13073,"name":"Matriz de Camaragibe","stateId":2007,"stateCode":"AL","stateName":"Alagoas","countryId":31,"countryCode":"BR","countryName":"Brazil","latitude":"-9.15167000","longitude":"-35.53333000","wikiDataId":"Q2013614"},{"id":13106,"name":"Messias","stateId":2007,"stateCode":"AL","stateName":"Alagoas","countryId":31,"countryCode":"BR","countryName":"Brazil","latitude":"-9.38333000","longitude":"-35.84167000","wikiDataId":"Q2028160"},{"id":13121,"name":"Minador do Negrão","stateId":2007,"stateCode":"AL","stateName":"Alagoas","countryId":31,"countryCode":"BR","countryName":"Brazil","latitude":"-9.30528000","longitude":"-36.86472000","wikiDataId":"Q767029"},{"id":13217,"name":"Monteirópolis","stateId":2007,"stateCode":"AL","stateName":"Alagoas","countryId":31,"countryCode":"BR","countryName":"Brazil","latitude":"-9.62019000","longitude":"-37.29350000","wikiDataId":"Q1760453"},{"id":13280,"name":"Murici","stateId":2007,"stateCode":"AL","stateName":"Alagoas","countryId":31,"countryCode":"BR","countryName":"Brazil","latitude":"-9.29835000","longitude":"-35.89999000","wikiDataId":"Q1795628"},{"id":13468,"name":"Novo Lino","stateId":2007,"stateCode":"AL","stateName":"Alagoas","countryId":31,"countryCode":"BR","countryName":"Brazil","latitude":"-8.88091000","longitude":"-35.61948000","wikiDataId":"Q1816167"},{"id":13497,"name":"Olho d'Água das Flores","stateId":2007,"stateCode":"AL","stateName":"Alagoas","countryId":31,"countryCode":"BR","countryName":"Brazil","latitude":"-9.54034000","longitude":"-37.25214000","wikiDataId":"Q2077934"},{"id":13498,"name":"Olho d'Água do Casado","stateId":2007,"stateCode":"AL","stateName":"Alagoas","countryId":31,"countryCode":"BR","countryName":"Brazil","latitude":"-9.45648000","longitude":"-37.83496000","wikiDataId":"Q1808294"},{"id":13495,"name":"Olho d'Água Grande","stateId":2007,"stateCode":"AL","stateName":"Alagoas","countryId":31,"countryCode":"BR","countryName":"Brazil","latitude":"-10.05622000","longitude":"-36.79522000","wikiDataId":"Q2077934"},{"id":13510,"name":"Olivença","stateId":2007,"stateCode":"AL","stateName":"Alagoas","countryId":31,"countryCode":"BR","countryName":"Brazil","latitude":"-9.51861000","longitude":"-37.19056000","wikiDataId":"Q950712"},{"id":13539,"name":"Ouro Branco","stateId":2007,"stateCode":"AL","stateName":"Alagoas","countryId":31,"countryCode":"BR","countryName":"Brazil","latitude":"-9.12895000","longitude":"-37.37367000","wikiDataId":"Q2355814"},{"id":13575,"name":"Palestina","stateId":2007,"stateCode":"AL","stateName":"Alagoas","countryId":31,"countryCode":"BR","countryName":"Brazil","latitude":"-9.67504000","longitude":"-37.33100000","wikiDataId":"Q2005187"},{"id":13594,"name":"Palmeira dos Índios","stateId":2007,"stateCode":"AL","stateName":"Alagoas","countryId":31,"countryCode":"BR","countryName":"Brazil","latitude":"-9.40902000","longitude":"-36.60651000","wikiDataId":"Q948268"},{"id":14119,"name":"Pão de Açúcar","stateId":2007,"stateCode":"AL","stateName":"Alagoas","countryId":31,"countryCode":"BR","countryName":"Brazil","latitude":"-9.68353000","longitude":"-37.45431000","wikiDataId":"Q2027100"},{"id":13671,"name":"Pariconha","stateId":2007,"stateCode":"AL","stateName":"Alagoas","countryId":31,"countryCode":"BR","countryName":"Brazil","latitude":"-9.22039000","longitude":"-38.01670000","wikiDataId":"Q1786896"},{"id":13674,"name":"Paripueira","stateId":2007,"stateCode":"AL","stateName":"Alagoas","countryId":31,"countryCode":"BR","countryName":"Brazil","latitude":"-9.42940000","longitude":"-35.58979000","wikiDataId":"Q1761881"},{"id":13697,"name":"Passo de Camaragibe","stateId":2007,"stateCode":"AL","stateName":"Alagoas","countryId":31,"countryCode":"BR","countryName":"Brazil","latitude":"-9.29865000","longitude":"-35.42788000","wikiDataId":"Q525647"},{"id":13734,"name":"Paulo Jacinto","stateId":2007,"stateCode":"AL","stateName":"Alagoas","countryId":31,"countryCode":"BR","countryName":"Brazil","latitude":"-9.36843000","longitude":"-36.39294000","wikiDataId":"Q2007799"},{"id":13795,"name":"Penedo","stateId":2007,"stateCode":"AL","stateName":"Alagoas","countryId":31,"countryCode":"BR","countryName":"Brazil","latitude":"-10.24448000","longitude":"-36.46992000","wikiDataId":"Q1772658"},{"id":13827,"name":"Piaçabuçu","stateId":2007,"stateCode":"AL","stateName":"Alagoas","countryId":31,"countryCode":"BR","countryName":"Brazil","latitude":"-10.40556000","longitude":"-36.43444000","wikiDataId":"Q1772595"},{"id":13837,"name":"Pilar","stateId":2007,"stateCode":"AL","stateName":"Alagoas","countryId":31,"countryCode":"BR","countryName":"Brazil","latitude":"-9.61752000","longitude":"-36.06323000","wikiDataId":"Q2013557"},{"id":13852,"name":"Pindoba","stateId":2007,"stateCode":"AL","stateName":"Alagoas","countryId":31,"countryCode":"BR","countryName":"Brazil","latitude":"-9.47492000","longitude":"-36.30343000","wikiDataId":"Q2065093"},{"id":13897,"name":"Piranhas","stateId":2007,"stateCode":"AL","stateName":"Alagoas","countryId":31,"countryCode":"BR","countryName":"Brazil","latitude":"-9.54806000","longitude":"-37.74529000","wikiDataId":"Q1025769"},{"id":14051,"name":"Poço das Trincheiras","stateId":2007,"stateCode":"AL","stateName":"Alagoas","countryId":31,"countryCode":"BR","countryName":"Brazil","latitude":"-9.31250000","longitude":"-37.28556000","wikiDataId":"Q1795960"},{"id":14001,"name":"Porto Calvo","stateId":2007,"stateCode":"AL","stateName":"Alagoas","countryId":31,"countryCode":"BR","countryName":"Brazil","latitude":"-9.04500000","longitude":"-35.39833000","wikiDataId":"Q1772636"},{"id":14026,"name":"Porto de Pedras","stateId":2007,"stateCode":"AL","stateName":"Alagoas","countryId":31,"countryCode":"BR","countryName":"Brazil","latitude":"-9.11562000","longitude":"-35.39158000","wikiDataId":"Q2011894"},{"id":14014,"name":"Porto Real do Colégio","stateId":2007,"stateCode":"AL","stateName":"Alagoas","countryId":31,"countryCode":"BR","countryName":"Brazil","latitude":"-10.10538000","longitude":"-36.72695000","wikiDataId":"Q22036573"},{"id":14136,"name":"Quebrangulo","stateId":2007,"stateCode":"AL","stateName":"Alagoas","countryId":31,"countryCode":"BR","countryName":"Brazil","latitude":"-9.31889000","longitude":"-36.47111000","wikiDataId":"Q1772591"},{"id":14279,"name":"Rio Largo","stateId":2007,"stateCode":"AL","stateName":"Alagoas","countryId":31,"countryCode":"BR","countryName":"Brazil","latitude":"-9.47833000","longitude":"-35.85333000","wikiDataId":"Q530211"},{"id":14356,"name":"Roteiro","stateId":2007,"stateCode":"AL","stateName":"Alagoas","countryId":31,"countryCode":"BR","countryName":"Brazil","latitude":"-9.85906000","longitude":"-35.98311000","wikiDataId":"Q266960"},{"id":14495,"name":"Santa Luzia do Norte","stateId":2007,"stateCode":"AL","stateName":"Alagoas","countryId":31,"countryCode":"BR","countryName":"Brazil","latitude":"-9.61082000","longitude":"-35.82917000","wikiDataId":"Q1977528"},{"id":14582,"name":"Santana do Ipanema","stateId":2007,"stateCode":"AL","stateName":"Alagoas","countryId":31,"countryCode":"BR","countryName":"Brazil","latitude":"-9.37833000","longitude":"-37.24528000","wikiDataId":"Q2021116"},{"id":14589,"name":"Santana do Mundaú","stateId":2007,"stateCode":"AL","stateName":"Alagoas","countryId":31,"countryCode":"BR","countryName":"Brazil","latitude":"-9.16806000","longitude":"-36.22222000","wikiDataId":"Q22016386"},{"id":14850,"name":"São Brás","stateId":2007,"stateCode":"AL","stateName":"Alagoas","countryId":31,"countryCode":"BR","countryName":"Brazil","latitude":"-10.12409000","longitude":"-36.85043000","wikiDataId":"Q22035039"},{"id":14944,"name":"São José da Laje","stateId":2007,"stateCode":"AL","stateName":"Alagoas","countryId":31,"countryCode":"BR","countryName":"Brazil","latitude":"-9.00972000","longitude":"-36.05833000","wikiDataId":"Q1808170"},{"id":14947,"name":"São José da Tapera","stateId":2007,"stateCode":"AL","stateName":"Alagoas","countryId":31,"countryCode":"BR","countryName":"Brazil","latitude":"-9.55833000","longitude":"-37.38111000","wikiDataId":"Q1808190"},{"id":15067,"name":"São Luís do Quitunde","stateId":2007,"stateCode":"AL","stateName":"Alagoas","countryId":31,"countryCode":"BR","countryName":"Brazil","latitude":"-9.31833000","longitude":"-35.56111000","wikiDataId":"Q1808105"},{"id":15097,"name":"São Miguel dos Campos","stateId":2007,"stateCode":"AL","stateName":"Alagoas","countryId":31,"countryCode":"BR","countryName":"Brazil","latitude":"-9.78111000","longitude":"-36.09361000","wikiDataId":"Q1816037"},{"id":15098,"name":"São Miguel dos Milagres","stateId":2007,"stateCode":"AL","stateName":"Alagoas","countryId":31,"countryCode":"BR","countryName":"Brazil","latitude":"-9.25423000","longitude":"-35.38419000","wikiDataId":"Q1816037"},{"id":15136,"name":"São Sebastião","stateId":2007,"stateCode":"AL","stateName":"Alagoas","countryId":31,"countryCode":"BR","countryName":"Brazil","latitude":"-9.96698000","longitude":"-36.55280000","wikiDataId":"Q2014339"},{"id":14673,"name":"Satuba","stateId":2007,"stateCode":"AL","stateName":"Alagoas","countryId":31,"countryCode":"BR","countryName":"Brazil","latitude":"-9.56333000","longitude":"-35.82444000","wikiDataId":"Q1795925"},{"id":14706,"name":"Senador Rui Palmeira","stateId":2007,"stateCode":"AL","stateName":"Alagoas","countryId":31,"countryCode":"BR","countryName":"Brazil","latitude":"-9.33827000","longitude":"-37.55968000","wikiDataId":"Q1795898"},{"id":15221,"name":"Tanque d'Arca","stateId":2007,"stateCode":"AL","stateName":"Alagoas","countryId":31,"countryCode":"BR","countryName":"Brazil","latitude":"-9.56069000","longitude":"-36.40824000","wikiDataId":"Q1772722"},{"id":15243,"name":"Taquarana","stateId":2007,"stateCode":"AL","stateName":"Alagoas","countryId":31,"countryCode":"BR","countryName":"Brazil","latitude":"-9.64342000","longitude":"-36.49419000","wikiDataId":"Q22061199"},{"id":15282,"name":"Teotônio Vilela","stateId":2007,"stateCode":"AL","stateName":"Alagoas","countryId":31,"countryCode":"BR","countryName":"Brazil","latitude":"-9.99012000","longitude":"-36.43273000","wikiDataId":"Q13109202"},{"id":15347,"name":"Traipu","stateId":2007,"stateCode":"AL","stateName":"Alagoas","countryId":31,"countryCode":"BR","countryName":"Brazil","latitude":"-9.89240000","longitude":"-36.97849000","wikiDataId":"Q1772703"},{"id":15463,"name":"União dos Palmares","stateId":2007,"stateCode":"AL","stateName":"Alagoas","countryId":31,"countryCode":"BR","countryName":"Brazil","latitude":"-9.13251000","longitude":"-36.08182000","wikiDataId":"Q22063263"},{"id":15606,"name":"Viçosa","stateId":2007,"stateCode":"AL","stateName":"Alagoas","countryId":31,"countryCode":"BR","countryName":"Brazil","latitude":"-9.36022000","longitude":"-36.32095000","wikiDataId":"Q22063262"},{"id":10204,"name":"Amapá","stateId":1999,"stateCode":"AP","stateName":"Amapá","countryId":31,"countryCode":"BR","countryName":"Brazil","latitude":"1.85706000","longitude":"-50.84374000","wikiDataId":"Q586263"},{"id":10933,"name":"Calçoene","stateId":1999,"stateCode":"AP","stateName":"Amapá","countryId":31,"countryCode":"BR","countryName":"Brazil","latitude":"2.36098000","longitude":"-51.45285000","wikiDataId":"Q2088907"},{"id":11541,"name":"Cutias","stateId":1999,"stateCode":"AP","stateName":"Amapá","countryId":31,"countryCode":"BR","countryName":"Brazil","latitude":"0.99713000","longitude":"-50.52041000","wikiDataId":"Q2013538"},{"id":11812,"name":"Ferreira Gomes","stateId":1999,"stateCode":"AP","stateName":"Amapá","countryId":31,"countryCode":"BR","countryName":"Brazil","latitude":"0.91012000","longitude":"-51.35442000","wikiDataId":"Q1646968"},{"id":12462,"name":"Itaubal","stateId":1999,"stateCode":"AP","stateName":"Amapá","countryId":31,"countryCode":"BR","countryName":"Brazil","latitude":"0.57732000","longitude":"-50.67833000","wikiDataId":"Q368933"},{"id":12798,"name":"Laranjal do Jari","stateId":1999,"stateCode":"AP","stateName":"Amapá","countryId":31,"countryCode":"BR","countryName":"Brazil","latitude":"0.93828000","longitude":"-53.22949000","wikiDataId":"Q1117969"},{"id":12887,"name":"Macapá","stateId":1999,"stateCode":"AP","stateName":"Amapá","countryId":31,"countryCode":"BR","countryName":"Brazil","latitude":"0.03889000","longitude":"-51.06639000","wikiDataId":"Q180215"},{"id":13088,"name":"Mazagão","stateId":1999,"stateCode":"AP","stateName":"Amapá","countryId":31,"countryCode":"BR","countryName":"Brazil","latitude":"-0.11500000","longitude":"-51.28944000","wikiDataId":"Q1800704"},{"id":13492,"name":"Oiapoque","stateId":1999,"stateCode":"AP","stateName":"Amapá","countryId":31,"countryCode":"BR","countryName":"Brazil","latitude":"2.70795000","longitude":"-52.16963000","wikiDataId":"Q2008580"},{"id":13751,"name":"Pedra Branca do Amapari","stateId":1999,"stateCode":"AP","stateName":"Amapá","countryId":31,"countryCode":"BR","countryName":"Brazil","latitude":"1.14843000","longitude":"-52.40118000","wikiDataId":"Q2342000"},{"id":14008,"name":"Porto Grande","stateId":1999,"stateCode":"AP","stateName":"Amapá","countryId":31,"countryCode":"BR","countryName":"Brazil","latitude":"0.56553000","longitude":"-51.71181000","wikiDataId":"Q2082418"},{"id":14058,"name":"Pracuúba","stateId":1999,"stateCode":"AP","stateName":"Amapá","countryId":31,"countryCode":"BR","countryName":"Brazil","latitude":"1.67076000","longitude":"-51.24490000","wikiDataId":"Q1793430"},{"id":14568,"name":"Santana","stateId":1999,"stateCode":"AP","stateName":"Amapá","countryId":31,"countryCode":"BR","countryName":"Brazil","latitude":"-0.05833000","longitude":"-51.18167000","wikiDataId":"Q1994845"},{"id":14739,"name":"Serra do Navio","stateId":1999,"stateCode":"AP","stateName":"Amapá","countryId":31,"countryCode":"BR","countryName":"Brazil","latitude":"1.65803000","longitude":"-52.28195000","wikiDataId":"Q1754911"},{"id":15255,"name":"Tartarugalzinho","stateId":1999,"stateCode":"AP","stateName":"Amapá","countryId":31,"countryCode":"BR","countryName":"Brazil","latitude":"1.26300000","longitude":"-51.10973000","wikiDataId":"Q979910"},{"id":15602,"name":"Vitória do Jari","stateId":1999,"stateCode":"AP","stateName":"Amapá","countryId":31,"countryCode":"BR","countryName":"Brazil","latitude":"-0.95653000","longitude":"-52.03443000","wikiDataId":"Q1772675"},{"id":10191,"name":"Alvarães","stateId":2004,"stateCode":"AM","stateName":"Amazonas","countryId":31,"countryCode":"BR","countryName":"Brazil","latitude":"-3.22083000","longitude":"-64.80417000","wikiDataId":"Q1808573"},{"id":10212,"name":"Amaturá","stateId":2004,"stateCode":"AM","stateName":"Amazonas","countryId":31,"countryCode":"BR","countryName":"Brazil","latitude":"-3.38926000","longitude":"-68.22698000","wikiDataId":"Q1648060"},{"id":10233,"name":"Anamã","stateId":2004,"stateCode":"AM","stateName":"Amazonas","countryId":31,"countryCode":"BR","countryName":"Brazil","latitude":"-3.47990000","longitude":"-61.71689000","wikiDataId":"Q2013314"},{"id":10266,"name":"Anori","stateId":2004,"stateCode":"AM","stateName":"Amazonas","countryId":31,"countryCode":"BR","countryName":"Brazil","latitude":"-3.77278000","longitude":"-61.64417000","wikiDataId":"Q931090"},{"id":10303,"name":"Apuí","stateId":2004,"stateCode":"AM","stateName":"Amazonas","countryId":31,"countryCode":"BR","countryName":"Brazil","latitude":"-7.78922000","longitude":"-59.34104000","wikiDataId":"Q1638385"},{"id":10436,"name":"Atalaia do Norte","stateId":2004,"stateCode":"AM","stateName":"Amazonas","countryId":31,"countryCode":"BR","countryName":"Brazil","latitude":"-5.66448000","longitude":"-71.82776000","wikiDataId":"Q928274"},{"id":10454,"name":"Autazes","stateId":2004,"stateCode":"AM","stateName":"Amazonas","countryId":31,"countryCode":"BR","countryName":"Brazil","latitude":"-3.57972000","longitude":"-59.13056000","wikiDataId":"Q1772695"},{"id":10513,"name":"Barcelos","stateId":2004,"stateCode":"AM","stateName":"Amazonas","countryId":31,"countryCode":"BR","countryName":"Brazil","latitude":"-0.97357000","longitude":"-62.92690000","wikiDataId":"Q807939"},{"id":10553,"name":"Barreirinha","stateId":2004,"stateCode":"AM","stateName":"Amazonas","countryId":31,"countryCode":"BR","countryName":"Brazil","latitude":"-2.79333000","longitude":"-57.07000000","wikiDataId":"Q1772565"},{"id":10626,"name":"Benjamin Constant","stateId":2004,"stateCode":"AM","stateName":"Amazonas","countryId":31,"countryCode":"BR","countryName":"Brazil","latitude":"-4.37555000","longitude":"-70.03179000","wikiDataId":"Q1767926"},{"id":10641,"name":"Beruri","stateId":2004,"stateCode":"AM","stateName":"Amazonas","countryId":31,"countryCode":"BR","countryName":"Brazil","latitude":"-4.34371000","longitude":"-61.75126000","wikiDataId":"Q828319"},{"id":10674,"name":"Boa Vista do Ramos","stateId":2004,"stateCode":"AM","stateName":"Amazonas","countryId":31,"countryCode":"BR","countryName":"Brazil","latitude":"-3.15779000","longitude":"-57.90517000","wikiDataId":"Q1803204"},{"id":10678,"name":"Boca do Acre","stateId":2004,"stateCode":"AM","stateName":"Amazonas","countryId":31,"countryCode":"BR","countryName":"Brazil","latitude":"-8.75222000","longitude":"-67.39778000","wikiDataId":"Q1793334"},{"id":10749,"name":"Borba","stateId":2004,"stateCode":"AM","stateName":"Amazonas","countryId":31,"countryCode":"BR","countryName":"Brazil","latitude":"-4.39143000","longitude":"-59.58864000","wikiDataId":"Q2089660"},{"id":10841,"name":"Caapiranga","stateId":2004,"stateCode":"AM","stateName":"Amazonas","countryId":31,"countryCode":"BR","countryName":"Brazil","latitude":"-3.12981000","longitude":"-61.74406000","wikiDataId":"Q1750436"},{"id":11059,"name":"Canutama","stateId":2004,"stateCode":"AM","stateName":"Amazonas","countryId":31,"countryCode":"BR","countryName":"Brazil","latitude":"-6.53389000","longitude":"-64.38306000","wikiDataId":"Q1807050"},{"id":11111,"name":"Carauari","stateId":2004,"stateCode":"AM","stateName":"Amazonas","countryId":31,"countryCode":"BR","countryName":"Brazil","latitude":"-4.88278000","longitude":"-66.89583000","wikiDataId":"Q1794236"},{"id":11125,"name":"Careiro","stateId":2004,"stateCode":"AM","stateName":"Amazonas","countryId":31,"countryCode":"BR","countryName":"Brazil","latitude":"-3.78706000","longitude":"-60.34790000","wikiDataId":"Q1649954"},{"id":11126,"name":"Careiro da Várzea","stateId":2004,"stateCode":"AM","stateName":"Amazonas","countryId":31,"countryCode":"BR","countryName":"Brazil","latitude":"-3.19695000","longitude":"-59.82674000","wikiDataId":"Q1807045"},{"id":11304,"name":"Coari","stateId":2004,"stateCode":"AM","stateName":"Amazonas","countryId":31,"countryCode":"BR","countryName":"Brazil","latitude":"-4.08500000","longitude":"-63.14139000","wikiDataId":"Q645204"},{"id":11313,"name":"Codajás","stateId":2004,"stateCode":"AM","stateName":"Amazonas","countryId":31,"countryCode":"BR","countryName":"Brazil","latitude":"-3.83667000","longitude":"-62.05694000","wikiDataId":"Q1762074"},{"id":11676,"name":"Eirunepé","stateId":2004,"stateCode":"AM","stateName":"Amazonas","countryId":31,"countryCode":"BR","countryName":"Brazil","latitude":"-6.66028000","longitude":"-69.87361000","wikiDataId":"Q1646910"},{"id":11711,"name":"Envira","stateId":2004,"stateCode":"AM","stateName":"Amazonas","countryId":31,"countryCode":"BR","countryName":"Brazil","latitude":"-7.30000000","longitude":"-70.21667000","wikiDataId":"Q22054061"},{"id":11848,"name":"Fonte Boa","stateId":2004,"stateCode":"AM","stateName":"Amazonas","countryId":31,"countryCode":"BR","countryName":"Brazil","latitude":"-2.51389000","longitude":"-66.09167000","wikiDataId":"Q1793768"},{"id":12018,"name":"Guajará","stateId":2004,"stateCode":"AM","stateName":"Amazonas","countryId":31,"countryCode":"BR","countryName":"Brazil","latitude":"-2.96667000","longitude":"-57.66667000","wikiDataId":"Q22020773"},{"id":12110,"name":"Humaitá","stateId":2004,"stateCode":"AM","stateName":"Amazonas","countryId":31,"countryCode":"BR","countryName":"Brazil","latitude":"-7.51651000","longitude":"-63.03105000","wikiDataId":"Q1025760"},{"id":12281,"name":"Ipixuna","stateId":2004,"stateCode":"AM","stateName":"Amazonas","countryId":31,"countryCode":"BR","countryName":"Brazil","latitude":"-7.11910000","longitude":"-71.37590000","wikiDataId":"Q2026825"},{"id":12306,"name":"Iranduba","stateId":2004,"stateCode":"AM","stateName":"Amazonas","countryId":31,"countryCode":"BR","countryName":"Brazil","latitude":"-3.28472000","longitude":"-60.18611000","wikiDataId":"Q1761947"},{"id":12342,"name":"Itacoatiara","stateId":2004,"stateCode":"AM","stateName":"Amazonas","countryId":31,"countryCode":"BR","countryName":"Brazil","latitude":"-3.13435000","longitude":"-58.43353000","wikiDataId":"Q1750426"},{"id":12378,"name":"Itamarati","stateId":2004,"stateCode":"AM","stateName":"Amazonas","countryId":31,"countryCode":"BR","countryName":"Brazil","latitude":"-6.76472000","longitude":"-68.03926000","wikiDataId":"Q1756622"},{"id":12421,"name":"Itapiranga","stateId":2004,"stateCode":"AM","stateName":"Amazonas","countryId":31,"countryCode":"BR","countryName":"Brazil","latitude":"-2.51600000","longitude":"-58.55730000","wikiDataId":"Q1760028"},{"id":12575,"name":"Japurá","stateId":2004,"stateCode":"AM","stateName":"Amazonas","countryId":31,"countryCode":"BR","countryName":"Brazil","latitude":"-1.55349000","longitude":"-68.24526000","wikiDataId":"Q1112881"},{"id":12703,"name":"Juruá","stateId":2004,"stateCode":"AM","stateName":"Amazonas","countryId":31,"countryCode":"BR","countryName":"Brazil","latitude":"-3.27526000","longitude":"-66.24211000","wikiDataId":"Q1008242"},{"id":12710,"name":"Jutaí","stateId":2004,"stateCode":"AM","stateName":"Amazonas","countryId":31,"countryCode":"BR","countryName":"Brazil","latitude":"-5.18333000","longitude":"-68.90000000","wikiDataId":"Q22054462"},{"id":12883,"name":"Lábrea","stateId":2004,"stateCode":"AM","stateName":"Amazonas","countryId":31,"countryCode":"BR","countryName":"Brazil","latitude":"-8.18437000","longitude":"-66.07500000","wikiDataId":"Q386631"},{"id":12936,"name":"Manacapuru","stateId":2004,"stateCode":"AM","stateName":"Amazonas","countryId":31,"countryCode":"BR","countryName":"Brazil","latitude":"-3.29972000","longitude":"-60.62056000","wikiDataId":"Q983526"},{"id":12937,"name":"Manaquiri","stateId":2004,"stateCode":"AM","stateName":"Amazonas","countryId":31,"countryCode":"BR","countryName":"Brazil","latitude":"-3.31667000","longitude":"-60.35000000","wikiDataId":"Q22054566"},{"id":12939,"name":"Manaus","stateId":2004,"stateCode":"AM","stateName":"Amazonas","countryId":31,"countryCode":"BR","countryName":"Brazil","latitude":"-3.04361000","longitude":"-60.01282000","wikiDataId":"Q40236"},{"id":12951,"name":"Manicoré","stateId":2004,"stateCode":"AM","stateName":"Amazonas","countryId":31,"countryCode":"BR","countryName":"Brazil","latitude":"-5.80917000","longitude":"-61.30028000","wikiDataId":"Q43490"},{"id":12988,"name":"Maraã","stateId":2004,"stateCode":"AM","stateName":"Amazonas","countryId":31,"countryCode":"BR","countryName":"Brazil","latitude":"-1.82403000","longitude":"-65.35883000","wikiDataId":"Q22054605"},{"id":13085,"name":"Maués","stateId":2004,"stateCode":"AM","stateName":"Amazonas","countryId":31,"countryCode":"BR","countryName":"Brazil","latitude":"-3.38361000","longitude":"-57.71861000","wikiDataId":"Q1808581"},{"id":13321,"name":"Nhamundá","stateId":2004,"stateCode":"AM","stateName":"Amazonas","countryId":31,"countryCode":"BR","countryName":"Brazil","latitude":"-2.18611000","longitude":"-56.71306000","wikiDataId":"Q1793306"},{"id":13413,"name":"Nova Olinda do Norte","stateId":2004,"stateCode":"AM","stateName":"Amazonas","countryId":31,"countryCode":"BR","countryName":"Brazil","latitude":"-3.89174000","longitude":"-59.09542000","wikiDataId":"Q1772535"},{"id":13451,"name":"Novo Airão","stateId":2004,"stateCode":"AM","stateName":"Amazonas","countryId":31,"countryCode":"BR","countryName":"Brazil","latitude":"-1.98386000","longitude":"-61.78513000","wikiDataId":"Q1750332"},{"id":13453,"name":"Novo Aripuanã","stateId":2004,"stateCode":"AM","stateName":"Amazonas","countryId":31,"countryCode":"BR","countryName":"Brazil","latitude":"-5.12056000","longitude":"-60.37972000","wikiDataId":"Q1793549"},{"id":13672,"name":"Parintins","stateId":2004,"stateCode":"AM","stateName":"Amazonas","countryId":31,"countryCode":"BR","countryName":"Brazil","latitude":"-2.62833000","longitude":"-56.73583000","wikiDataId":"Q926713"},{"id":13720,"name":"Pauini","stateId":2004,"stateCode":"AM","stateName":"Amazonas","countryId":31,"countryCode":"BR","countryName":"Brazil","latitude":"-7.71361000","longitude":"-66.97639000","wikiDataId":"Q1793494"},{"id":14082,"name":"Presidente Figueiredo","stateId":2004,"stateCode":"AM","stateName":"Amazonas","countryId":31,"countryCode":"BR","countryName":"Brazil","latitude":"-1.28344000","longitude":"-59.98317000","wikiDataId":"Q983495"},{"id":14293,"name":"Rio Preto da Eva","stateId":2004,"stateCode":"AM","stateName":"Amazonas","countryId":31,"countryCode":"BR","countryName":"Brazil","latitude":"-2.69795000","longitude":"-59.70172000","wikiDataId":"Q1793560"},{"id":14483,"name":"Santa Isabel do Rio Negro","stateId":2004,"stateCode":"AM","stateName":"Amazonas","countryId":31,"countryCode":"BR","countryName":"Brazil","latitude":"-0.41389000","longitude":"-65.01917000","wikiDataId":"Q1754543"},{"id":14628,"name":"Santo Antônio do Içá","stateId":2004,"stateCode":"AM","stateName":"Amazonas","countryId":31,"countryCode":"BR","countryName":"Brazil","latitude":"-3.10222000","longitude":"-67.93972000","wikiDataId":"Q970224"},{"id":14909,"name":"São Gabriel da Cachoeira","stateId":2004,"stateCode":"AM","stateName":"Amazonas","countryId":31,"countryCode":"BR","countryName":"Brazil","latitude":"-0.11810000","longitude":"-67.08527000","wikiDataId":"Q694840"},{"id":15103,"name":"São Paulo de Olivença","stateId":2004,"stateCode":"AM","stateName":"Amazonas","countryId":31,"countryCode":"BR","countryName":"Brazil","latitude":"-3.37833000","longitude":"-68.87250000","wikiDataId":"Q1794983"},{"id":15153,"name":"São Sebastião do Uatumã","stateId":2004,"stateCode":"AM","stateName":"Amazonas","countryId":31,"countryCode":"BR","countryName":"Brazil","latitude":"-1.93197000","longitude":"-58.74216000","wikiDataId":"Q1787301"},{"id":14780,"name":"Silves","stateId":2004,"stateCode":"AM","stateName":"Amazonas","countryId":31,"countryCode":"BR","countryName":"Brazil","latitude":"-2.76846000","longitude":"-58.62751000","wikiDataId":"Q1788659"},{"id":15184,"name":"Tabatinga","stateId":2004,"stateCode":"AM","stateName":"Amazonas","countryId":31,"countryCode":"BR","countryName":"Brazil","latitude":"-3.96298000","longitude":"-69.60265000","wikiDataId":"Q22060342"},{"id":15225,"name":"Tapauá","stateId":2004,"stateCode":"AM","stateName":"Amazonas","countryId":31,"countryCode":"BR","countryName":"Brazil","latitude":"-6.21423000","longitude":"-65.69985000","wikiDataId":"Q1787155"},{"id":15264,"name":"Tefé","stateId":2004,"stateCode":"AM","stateName":"Amazonas","countryId":31,"countryCode":"BR","countryName":"Brazil","latitude":"-3.36841000","longitude":"-64.72054000","wikiDataId":"Q975545"},{"id":15336,"name":"Tonantins","stateId":2004,"stateCode":"AM","stateName":"Amazonas","countryId":31,"countryCode":"BR","countryName":"Brazil","latitude":"-2.87306000","longitude":"-67.80222000","wikiDataId":"Q1793355"},{"id":15423,"name":"Uarini","stateId":2004,"stateCode":"AM","stateName":"Amazonas","countryId":31,"countryCode":"BR","countryName":"Brazil","latitude":"-3.14736000","longitude":"-65.42036000","wikiDataId":"Q517607"},{"id":15475,"name":"Urucará","stateId":2004,"stateCode":"AM","stateName":"Amazonas","countryId":31,"countryCode":"BR","countryName":"Brazil","latitude":"-2.53639000","longitude":"-57.76000000","wikiDataId":"Q1816370"},{"id":15477,"name":"Urucurituba","stateId":2004,"stateCode":"AM","stateName":"Amazonas","countryId":31,"countryCode":"BR","countryName":"Brazil","latitude":"-3.12845000","longitude":"-58.15856000","wikiDataId":"Q22014945"},{"id":10061,"name":"Abaíra","stateId":2002,"stateCode":"BA","stateName":"Bahia","countryId":31,"countryCode":"BR","countryName":"Brazil","latitude":"-13.32129000","longitude":"-41.69759000","wikiDataId":"Q1645077"},{"id":10059,"name":"Abaré","stateId":2002,"stateCode":"BA","stateName":"Bahia","countryId":31,"countryCode":"BR","countryName":"Brazil","latitude":"-8.80961000","longitude":"-39.27062000","wikiDataId":"Q1647789"},{"id":10069,"name":"Acajutiba","stateId":2002,"stateCode":"BA","stateName":"Bahia","countryId":31,"countryCode":"BR","countryName":"Brazil","latitude":"-11.60682000","longitude":"-38.03594000","wikiDataId":"Q1761962"},{"id":10084,"name":"Adustina","stateId":2002,"stateCode":"BA","stateName":"Bahia","countryId":31,"countryCode":"BR","countryName":"Brazil","latitude":"-10.48227000","longitude":"-37.98446000","wikiDataId":"Q676044"},{"id":15659,"name":"Água Fria","stateId":2002,"stateCode":"BA","stateName":"Bahia","countryId":31,"countryCode":"BR","countryName":"Brazil","latitude":"-11.74762000","longitude":"-38.73497000","wikiDataId":"Q1796727"},{"id":10103,"name":"Aiquara","stateId":2002,"stateCode":"BA","stateName":"Bahia","countryId":31,"countryCode":"BR","countryName":"Brazil","latitude":"-14.11135000","longitude":"-39.87641000","wikiDataId":"Q1650790"},{"id":10113,"name":"Alagoinhas","stateId":2002,"stateCode":"BA","stateName":"Bahia","countryId":31,"countryCode":"BR","countryName":"Brazil","latitude":"-12.00580000","longitude":"-38.36146000","wikiDataId":"Q22050101"},{"id":10118,"name":"Alcobaça","stateId":2002,"stateCode":"BA","stateName":"Bahia","countryId":31,"countryCode":"BR","countryName":"Brazil","latitude":"-17.46365000","longitude":"-39.37401000","wikiDataId":"Q22063205"},{"id":10139,"name":"Almadina","stateId":2002,"stateCode":"BA","stateName":"Bahia","countryId":31,"countryCode":"BR","countryName":"Brazil","latitude":"-14.67608000","longitude":"-39.69066000","wikiDataId":"Q2010570"},{"id":10211,"name":"Amargosa","stateId":2002,"stateCode":"BA","stateName":"Bahia","countryId":31,"countryCode":"BR","countryName":"Brazil","latitude":"-13.04970000","longitude":"-39.60720000","wikiDataId":"Q1648060"},{"id":10223,"name":"Amélia Rodrigues","stateId":2002,"stateCode":"BA","stateName":"Bahia","countryId":31,"countryCode":"BR","countryName":"Brazil","latitude":"-12.38975000","longitude":"-38.75153000","wikiDataId":"Q2004241"},{"id":10224,"name":"América Dourada","stateId":2002,"stateCode":"BA","stateName":"Bahia","countryId":31,"countryCode":"BR","countryName":"Brazil","latitude":"-11.46940000","longitude":"-41.47335000","wikiDataId":"Q1762100"},{"id":10228,"name":"Anagé","stateId":2002,"stateCode":"BA","stateName":"Bahia","countryId":31,"countryCode":"BR","countryName":"Brazil","latitude":"-14.66168000","longitude":"-41.14703000","wikiDataId":"Q1772546"},{"id":10242,"name":"Andaraí","stateId":2002,"stateCode":"BA","stateName":"Bahia","countryId":31,"countryCode":"BR","countryName":"Brazil","latitude":"-12.84167000","longitude":"-41.27679000","wikiDataId":"Q1935710"},{"id":10244,"name":"Andorinha","stateId":2002,"stateCode":"BA","stateName":"Bahia","countryId":31,"countryCode":"BR","countryName":"Brazil","latitude":"-10.22216000","longitude":"-39.86387000","wikiDataId":"Q1935710"},{"id":10253,"name":"Angical","stateId":2002,"stateCode":"BA","stateName":"Bahia","countryId":31,"countryCode":"BR","countryName":"Brazil","latitude":"-11.96280000","longitude":"-44.74980000","wikiDataId":"Q1756210"},{"id":10258,"name":"Anguera","stateId":2002,"stateCode":"BA","stateName":"Bahia","countryId":31,"countryCode":"BR","countryName":"Brazil","latitude":"-12.18221000","longitude":"-39.21384000","wikiDataId":"Q1761950"},{"id":10268,"name":"Antas","stateId":2002,"stateCode":"BA","stateName":"Bahia","countryId":31,"countryCode":"BR","countryName":"Brazil","latitude":"-10.42138000","longitude":"-38.30341000","wikiDataId":"Q22063195"},{"id":10272,"name":"Antônio Cardoso","stateId":2002,"stateCode":"BA","stateName":"Bahia","countryId":31,"countryCode":"BR","countryName":"Brazil","latitude":"-12.38641000","longitude":"-39.14549000","wikiDataId":"Q599068"},{"id":10276,"name":"Antônio Gonçalves","stateId":2002,"stateCode":"BA","stateName":"Bahia","countryId":31,"countryCode":"BR","countryName":"Brazil","latitude":"-10.62282000","longitude":"-40.40933000","wikiDataId":"Q611911"},{"id":10298,"name":"Aporá","stateId":2002,"stateCode":"BA","stateName":"Bahia","countryId":31,"countryCode":"BR","countryName":"Brazil","latitude":"-11.75439000","longitude":"-38.22784000","wikiDataId":"Q2008084"},{"id":10300,"name":"Apuarema","stateId":2002,"stateCode":"BA","stateName":"Bahia","countryId":31,"countryCode":"BR","countryName":"Brazil","latitude":"-13.83005000","longitude":"-39.73444000","wikiDataId":"Q1772630"},{"id":10374,"name":"Araçás","stateId":2002,"stateCode":"BA","stateName":"Bahia","countryId":31,"countryCode":"BR","countryName":"Brazil","latitude":"-12.14681000","longitude":"-38.17233000","wikiDataId":"Q1749750"},{"id":10310,"name":"Aracatu","stateId":2002,"stateCode":"BA","stateName":"Bahia","countryId":31,"countryCode":"BR","countryName":"Brazil","latitude":"-14.39011000","longitude":"-41.36331000","wikiDataId":"Q1762365"},{"id":10311,"name":"Araci","stateId":2002,"stateCode":"BA","stateName":"Bahia","countryId":31,"countryCode":"BR","countryName":"Brazil","latitude":"-11.13564000","longitude":"-39.07003000","wikiDataId":"Q22063188"},{"id":10330,"name":"Aramari","stateId":2002,"stateCode":"BA","stateName":"Bahia","countryId":31,"countryCode":"BR","countryName":"Brazil","latitude":"-12.04618000","longitude":"-38.55762000","wikiDataId":"Q22067428"},{"id":10359,"name":"Arataca","stateId":2002,"stateCode":"BA","stateName":"Bahia","countryId":31,"countryCode":"BR","countryName":"Brazil","latitude":"-15.24607000","longitude":"-39.42481000","wikiDataId":"Q2065337"},{"id":10362,"name":"Aratuípe","stateId":2002,"stateCode":"BA","stateName":"Bahia","countryId":31,"countryCode":"BR","countryName":"Brazil","latitude":"-13.09363000","longitude":"-39.08259000","wikiDataId":"Q2065337"},{"id":10447,"name":"Aurelino Leal","stateId":2002,"stateCode":"BA","stateName":"Bahia","countryId":31,"countryCode":"BR","countryName":"Brazil","latitude":"-14.36310000","longitude":"-39.47961000","wikiDataId":"Q1804338"},{"id":10475,"name":"Baianópolis","stateId":2002,"stateCode":"BA","stateName":"Bahia","countryId":31,"countryCode":"BR","countryName":"Brazil","latitude":"-12.48331000","longitude":"-44.53105000","wikiDataId":"Q119140"},{"id":10476,"name":"Baixa Grande","stateId":2002,"stateCode":"BA","stateName":"Bahia","countryId":31,"countryCode":"BR","countryName":"Brazil","latitude":"-11.97735000","longitude":"-40.17993000","wikiDataId":"Q1762467"},{"id":10504,"name":"Banzaê","stateId":2002,"stateCode":"BA","stateName":"Bahia","countryId":31,"countryCode":"BR","countryName":"Brazil","latitude":"-10.61578000","longitude":"-38.62688000","wikiDataId":"Q2064780"},{"id":10515,"name":"Barra","stateId":2002,"stateCode":"BA","stateName":"Bahia","countryId":31,"countryCode":"BR","countryName":"Brazil","latitude":"-11.08944000","longitude":"-43.14167000","wikiDataId":"Q2013948"},{"id":10523,"name":"Barra da Estiva","stateId":2002,"stateCode":"BA","stateName":"Bahia","countryId":31,"countryCode":"BR","countryName":"Brazil","latitude":"-13.62611000","longitude":"-41.32694000","wikiDataId":"Q1795377"},{"id":10533,"name":"Barra do Choça","stateId":2002,"stateCode":"BA","stateName":"Bahia","countryId":31,"countryCode":"BR","countryName":"Brazil","latitude":"-15.01024000","longitude":"-40.66731000","wikiDataId":"Q1805676"},{"id":10538,"name":"Barra do Mendes","stateId":2002,"stateCode":"BA","stateName":"Bahia","countryId":31,"countryCode":"BR","countryName":"Brazil","latitude":"-12.16094000","longitude":"-42.03542000","wikiDataId":"Q577720"},{"id":10544,"name":"Barra do Rocha","stateId":2002,"stateCode":"BA","stateName":"Bahia","countryId":31,"countryCode":"BR","countryName":"Brazil","latitude":"-14.07510000","longitude":"-39.59068000","wikiDataId":"Q1750175"},{"id":10551,"name":"Barreiras","stateId":2002,"stateCode":"BA","stateName":"Bahia","countryId":31,"countryCode":"BR","countryName":"Brazil","latitude":"-12.15278000","longitude":"-44.99000000","wikiDataId":"Q31859686"},{"id":10560,"name":"Barro Alto","stateId":2002,"stateCode":"BA","stateName":"Bahia","countryId":31,"countryCode":"BR","countryName":"Brazil","latitude":"-11.76083000","longitude":"-41.91167000","wikiDataId":"Q22048272"},{"id":10563,"name":"Barro Preto","stateId":2002,"stateCode":"BA","stateName":"Bahia","countryId":31,"countryCode":"BR","countryName":"Brazil","latitude":"-14.75795000","longitude":"-39.40711000","wikiDataId":"Q2155729"},{"id":10564,"name":"Barrocas","stateId":2002,"stateCode":"BA","stateName":"Bahia","countryId":31,"countryCode":"BR","countryName":"Brazil","latitude":"-11.60190000","longitude":"-39.12267000","wikiDataId":"Q2155729"},{"id":10592,"name":"Beira Rio","stateId":2002,"stateCode":"BA","stateName":"Bahia","countryId":31,"countryCode":"BR","countryName":"Brazil","latitude":"-12.25438000","longitude":"-42.75529000","wikiDataId":"Q22074198"},{"id":10604,"name":"Belmonte","stateId":2002,"stateCode":"BA","stateName":"Bahia","countryId":31,"countryCode":"BR","countryName":"Brazil","latitude":"-15.86126000","longitude":"-38.87982000","wikiDataId":"Q816112"},{"id":10606,"name":"Belo Campo","stateId":2002,"stateCode":"BA","stateName":"Bahia","countryId":31,"countryCode":"BR","countryName":"Brazil","latitude":"-14.87419000","longitude":"-41.22671000","wikiDataId":"Q816112"},{"id":10654,"name":"Biritinga","stateId":2002,"stateCode":"BA","stateName":"Bahia","countryId":31,"countryCode":"BR","countryName":"Brazil","latitude":"-11.67075000","longitude":"-38.78931000","wikiDataId":"Q518845"},{"id":10663,"name":"Boa Nova","stateId":2002,"stateCode":"BA","stateName":"Bahia","countryId":31,"countryCode":"BR","countryName":"Brazil","latitude":"-14.36412000","longitude":"-40.22378000","wikiDataId":"Q268938"},{"id":10676,"name":"Boa Vista do Tupim","stateId":2002,"stateCode":"BA","stateName":"Bahia","countryId":31,"countryCode":"BR","countryName":"Brazil","latitude":"-12.87313000","longitude":"-40.62823000","wikiDataId":"Q1803204"},{"id":10703,"name":"Bom Jesus da Lapa","stateId":2002,"stateCode":"BA","stateName":"Bahia","countryId":31,"countryCode":"BR","countryName":"Brazil","latitude":"-13.25500000","longitude":"-43.41806000","wikiDataId":"Q891727"},{"id":10705,"name":"Bom Jesus da Serra","stateId":2002,"stateCode":"BA","stateName":"Bahia","countryId":31,"countryCode":"BR","countryName":"Brazil","latitude":"-14.38380000","longitude":"-40.53982000","wikiDataId":"Q891727"},{"id":10735,"name":"Boninal","stateId":2002,"stateCode":"BA","stateName":"Bahia","countryId":31,"countryCode":"BR","countryName":"Brazil","latitude":"-12.80363000","longitude":"-41.68338000","wikiDataId":"Q2089257"},{"id":10739,"name":"Bonito","stateId":2002,"stateCode":"BA","stateName":"Bahia","countryId":31,"countryCode":"BR","countryName":"Brazil","latitude":"-12.00488000","longitude":"-41.31779000","wikiDataId":"Q1808128"},{"id":10747,"name":"Boquira","stateId":2002,"stateCode":"BA","stateName":"Bahia","countryId":31,"countryCode":"BR","countryName":"Brazil","latitude":"-12.82306000","longitude":"-42.73056000","wikiDataId":"Q1772521"},{"id":10760,"name":"Botuporã","stateId":2002,"stateCode":"BA","stateName":"Bahia","countryId":31,"countryCode":"BR","countryName":"Brazil","latitude":"-13.29549000","longitude":"-42.52593000","wikiDataId":"Q1625598"},{"id":10800,"name":"Brejões","stateId":2002,"stateCode":"BA","stateName":"Bahia","countryId":31,"countryCode":"BR","countryName":"Brazil","latitude":"-13.07059000","longitude":"-39.82099000","wikiDataId":"Q1808002"},{"id":10798,"name":"Brejolândia","stateId":2002,"stateCode":"BA","stateName":"Bahia","countryId":31,"countryCode":"BR","countryName":"Brazil","latitude":"-12.41237000","longitude":"-43.92822000","wikiDataId":"Q1808002"},{"id":10808,"name":"Brotas de Macaúbas","stateId":2002,"stateCode":"BA","stateName":"Bahia","countryId":31,"countryCode":"BR","countryName":"Brazil","latitude":"-12.10605000","longitude":"-42.51108000","wikiDataId":"Q1648408"},{"id":10810,"name":"Brumado","stateId":2002,"stateCode":"BA","stateName":"Bahia","countryId":31,"countryCode":"BR","countryName":"Brazil","latitude":"-14.20361000","longitude":"-41.66528000","wikiDataId":"Q1808298"},{"id":10817,"name":"Buerarema","stateId":2002,"stateCode":"BA","stateName":"Bahia","countryId":31,"countryCode":"BR","countryName":"Brazil","latitude":"-14.95944000","longitude":"-39.29972000","wikiDataId":"Q1761955"},{"id":10832,"name":"Buritirama","stateId":2002,"stateCode":"BA","stateName":"Bahia","countryId":31,"countryCode":"BR","countryName":"Brazil","latitude":"-10.57081000","longitude":"-43.68863000","wikiDataId":"Q2064004"},{"id":10844,"name":"Caatiba","stateId":2002,"stateCode":"BA","stateName":"Bahia","countryId":31,"countryCode":"BR","countryName":"Brazil","latitude":"-14.97610000","longitude":"-40.39048000","wikiDataId":"Q279492"},{"id":10846,"name":"Cabaceiras do Paraguaçu","stateId":2002,"stateCode":"BA","stateName":"Bahia","countryId":31,"countryCode":"BR","countryName":"Brazil","latitude":"-12.55423000","longitude":"-39.19596000","wikiDataId":"Q279492"},{"id":10861,"name":"Cachoeira","stateId":2002,"stateCode":"BA","stateName":"Bahia","countryId":31,"countryCode":"BR","countryName":"Brazil","latitude":"-12.60139000","longitude":"-38.96576000","wikiDataId":"Q985576"},{"id":10887,"name":"Caculé","stateId":2002,"stateCode":"BA","stateName":"Bahia","countryId":31,"countryCode":"BR","countryName":"Brazil","latitude":"-14.38829000","longitude":"-42.41516000","wikiDataId":"Q1795313"},{"id":11225,"name":"Caém","stateId":2002,"stateCode":"BA","stateName":"Bahia","countryId":31,"countryCode":"BR","countryName":"Brazil","latitude":"-11.14182000","longitude":"-40.29142000","wikiDataId":"Q1946795"},{"id":10888,"name":"Caetanos","stateId":2002,"stateCode":"BA","stateName":"Bahia","countryId":31,"countryCode":"BR","countryName":"Brazil","latitude":"-14.29234000","longitude":"-41.01004000","wikiDataId":"Q1795313"},{"id":10890,"name":"Caetité","stateId":2002,"stateCode":"BA","stateName":"Bahia","countryId":31,"countryCode":"BR","countryName":"Brazil","latitude":"-13.97883000","longitude":"-42.49334000","wikiDataId":"Q1795371"},{"id":10893,"name":"Cafarnaum","stateId":2002,"stateCode":"BA","stateName":"Bahia","countryId":31,"countryCode":"BR","countryName":"Brazil","latitude":"-11.69361000","longitude":"-41.46833000","wikiDataId":"Q1808307"},{"id":10905,"name":"Cairu","stateId":2002,"stateCode":"BA","stateName":"Bahia","countryId":31,"countryCode":"BR","countryName":"Brazil","latitude":"-13.52662000","longitude":"-38.94814000","wikiDataId":"Q22046952"},{"id":10927,"name":"Caldeirão Grande","stateId":2002,"stateCode":"BA","stateName":"Bahia","countryId":31,"countryCode":"BR","countryName":"Brazil","latitude":"-11.04347000","longitude":"-40.29515000","wikiDataId":"Q283971"},{"id":10934,"name":"Camacan","stateId":2002,"stateCode":"BA","stateName":"Bahia","countryId":31,"countryCode":"BR","countryName":"Brazil","latitude":"-15.42769000","longitude":"-39.50818000","wikiDataId":"Q2088907"},{"id":10943,"name":"Camaçari","stateId":2002,"stateCode":"BA","stateName":"Bahia","countryId":31,"countryCode":"BR","countryName":"Brazil","latitude":"-12.69750000","longitude":"-38.32417000","wikiDataId":"Q1136204"},{"id":10937,"name":"Camamu","stateId":2002,"stateCode":"BA","stateName":"Bahia","countryId":31,"countryCode":"BR","countryName":"Brazil","latitude":"-13.94472000","longitude":"-39.10389000","wikiDataId":"Q1795776"},{"id":10979,"name":"Campo Alegre de Lourdes","stateId":2002,"stateCode":"BA","stateName":"Bahia","countryId":31,"countryCode":"BR","countryName":"Brazil","latitude":"-9.50097000","longitude":"-42.98275000","wikiDataId":"Q2028275"},{"id":10988,"name":"Campo Formoso","stateId":2002,"stateCode":"BA","stateName":"Bahia","countryId":31,"countryCode":"BR","countryName":"Brazil","latitude":"-10.50750000","longitude":"-40.32139000","wikiDataId":"Q1808046"},{"id":11060,"name":"Canápolis","stateId":2002,"stateCode":"BA","stateName":"Bahia","countryId":31,"countryCode":"BR","countryName":"Brazil","latitude":"-13.12516000","longitude":"-44.25095000","wikiDataId":"Q1807050"},{"id":11025,"name":"Canarana","stateId":2002,"stateCode":"BA","stateName":"Bahia","countryId":31,"countryCode":"BR","countryName":"Brazil","latitude":"-11.68472000","longitude":"-41.76889000","wikiDataId":"Q674476"},{"id":11029,"name":"Canavieiras","stateId":2002,"stateCode":"BA","stateName":"Bahia","countryId":31,"countryCode":"BR","countryName":"Brazil","latitude":"-15.67500000","longitude":"-38.94722000","wikiDataId":"Q1772515"},{"id":11032,"name":"Candeal","stateId":2002,"stateCode":"BA","stateName":"Bahia","countryId":31,"countryCode":"BR","countryName":"Brazil","latitude":"-11.89504000","longitude":"-39.20390000","wikiDataId":"Q610966"},{"id":11033,"name":"Candeias","stateId":2002,"stateCode":"BA","stateName":"Bahia","countryId":31,"countryCode":"BR","countryName":"Brazil","latitude":"-12.65569000","longitude":"-38.48700000","wikiDataId":"Q1762379"},{"id":11037,"name":"Candiba","stateId":2002,"stateCode":"BA","stateName":"Bahia","countryId":31,"countryCode":"BR","countryName":"Brazil","latitude":"-14.46972000","longitude":"-42.87386000","wikiDataId":"Q1786799"},{"id":11549,"name":"Cândido Sales","stateId":2002,"stateCode":"BA","stateName":"Bahia","countryId":31,"countryCode":"BR","countryName":"Brazil","latitude":"-15.46082000","longitude":"-41.16353000","wikiDataId":"Q1761075"},{"id":11051,"name":"Cansanção","stateId":2002,"stateCode":"BA","stateName":"Bahia","countryId":31,"countryCode":"BR","countryName":"Brazil","latitude":"-10.73105000","longitude":"-39.47418000","wikiDataId":"Q1799304"},{"id":11057,"name":"Canudos","stateId":2002,"stateCode":"BA","stateName":"Bahia","countryId":31,"countryCode":"BR","countryName":"Brazil","latitude":"-9.87981000","longitude":"-39.14723000","wikiDataId":"Q653656"},{"id":11070,"name":"Capela do Alto Alegre","stateId":2002,"stateCode":"BA","stateName":"Bahia","countryId":31,"countryCode":"BR","countryName":"Brazil","latitude":"-11.61838000","longitude":"-39.83227000","wikiDataId":"Q610390"},{"id":11075,"name":"Capim Grosso","stateId":2002,"stateCode":"BA","stateName":"Bahia","countryId":31,"countryCode":"BR","countryName":"Brazil","latitude":"-11.38111000","longitude":"-40.01278000","wikiDataId":"Q1795362"},{"id":11116,"name":"Caraíbas","stateId":2002,"stateCode":"BA","stateName":"Bahia","countryId":31,"countryCode":"BR","countryName":"Brazil","latitude":"-14.60631000","longitude":"-41.25763000","wikiDataId":"Q1800637"},{"id":11112,"name":"Caravelas","stateId":2002,"stateCode":"BA","stateName":"Bahia","countryId":31,"countryCode":"BR","countryName":"Brazil","latitude":"-17.65842000","longitude":"-39.35989000","wikiDataId":"Q1794236"},{"id":11121,"name":"Cardeal da Silva","stateId":2002,"stateCode":"BA","stateName":"Bahia","countryId":31,"countryCode":"BR","countryName":"Brazil","latitude":"-11.99798000","longitude":"-37.92468000","wikiDataId":"Q2078721"},{"id":11131,"name":"Carinhanha","stateId":2002,"stateCode":"BA","stateName":"Bahia","countryId":31,"countryCode":"BR","countryName":"Brazil","latitude":"-14.30472000","longitude":"-43.76500000","wikiDataId":"Q985608"},{"id":11173,"name":"Casa Nova","stateId":2002,"stateCode":"BA","stateName":"Bahia","countryId":31,"countryCode":"BR","countryName":"Brazil","latitude":"-9.10439000","longitude":"-41.15736000","wikiDataId":"Q1074537"},{"id":11192,"name":"Castro Alves","stateId":2002,"stateCode":"BA","stateName":"Bahia","countryId":31,"countryCode":"BR","countryName":"Brazil","latitude":"-12.74937000","longitude":"-39.37691000","wikiDataId":"Q1764155"},{"id":11204,"name":"Catolândia","stateId":2002,"stateCode":"BA","stateName":"Bahia","countryId":31,"countryCode":"BR","countryName":"Brazil","latitude":"-12.29613000","longitude":"-44.67528000","wikiDataId":"Q2011032"},{"id":11206,"name":"Catu","stateId":2002,"stateCode":"BA","stateName":"Bahia","countryId":31,"countryCode":"BR","countryName":"Brazil","latitude":"-12.35306000","longitude":"-38.37889000","wikiDataId":"Q1762371"},{"id":11209,"name":"Caturama","stateId":2002,"stateCode":"BA","stateName":"Bahia","countryId":31,"countryCode":"BR","countryName":"Brazil","latitude":"-13.18601000","longitude":"-42.30250000","wikiDataId":"Q22059575"},{"id":11238,"name":"Central","stateId":2002,"stateCode":"BA","stateName":"Bahia","countryId":31,"countryCode":"BR","countryName":"Brazil","latitude":"-11.15424000","longitude":"-42.08146000","wikiDataId":"Q2021433"},{"id":11280,"name":"Chorrochó","stateId":2002,"stateCode":"BA","stateName":"Bahia","countryId":31,"countryCode":"BR","countryName":"Brazil","latitude":"-9.30550000","longitude":"-39.15652000","wikiDataId":"Q22059571"},{"id":11552,"name":"Cícero Dantas","stateId":2002,"stateCode":"BA","stateName":"Bahia","countryId":31,"countryCode":"BR","countryName":"Brazil","latitude":"-10.60000000","longitude":"-38.38333000","wikiDataId":"Q1761858"},{"id":11295,"name":"Cipó","stateId":2002,"stateCode":"BA","stateName":"Bahia","countryId":31,"countryCode":"BR","countryName":"Brazil","latitude":"-11.09972000","longitude":"-38.51361000","wikiDataId":"Q1762353"},{"id":11303,"name":"Coaraci","stateId":2002,"stateCode":"BA","stateName":"Bahia","countryId":31,"countryCode":"BR","countryName":"Brazil","latitude":"-14.64083000","longitude":"-39.55111000","wikiDataId":"Q264690"},{"id":11312,"name":"Cocos","stateId":2002,"stateCode":"BA","stateName":"Bahia","countryId":31,"countryCode":"BR","countryName":"Brazil","latitude":"-14.59438000","longitude":"-45.27960000","wikiDataId":"Q511764"},{"id":11348,"name":"Conceição da Feira","stateId":2002,"stateCode":"BA","stateName":"Bahia","countryId":31,"countryCode":"BR","countryName":"Brazil","latitude":"-12.50583000","longitude":"-38.99861000","wikiDataId":"Q1762474"},{"id":11353,"name":"Conceição do Almeida","stateId":2002,"stateCode":"BA","stateName":"Bahia","countryId":31,"countryCode":"BR","countryName":"Brazil","latitude":"-12.77944000","longitude":"-39.17000000","wikiDataId":"Q1772585"},{"id":11357,"name":"Conceição do Coité","stateId":2002,"stateCode":"BA","stateName":"Bahia","countryId":31,"countryCode":"BR","countryName":"Brazil","latitude":"-11.56389000","longitude":"-39.28278000","wikiDataId":"Q1772525"},{"id":11358,"name":"Conceição do Jacuípe","stateId":2002,"stateCode":"BA","stateName":"Bahia","countryId":31,"countryCode":"BR","countryName":"Brazil","latitude":"-12.31667000","longitude":"-38.76667000","wikiDataId":"Q988781"},{"id":11372,"name":"Conde","stateId":2002,"stateCode":"BA","stateName":"Bahia","countryId":31,"countryCode":"BR","countryName":"Brazil","latitude":"-11.81361000","longitude":"-37.61056000","wikiDataId":"Q1003399"},{"id":11373,"name":"Condeúba","stateId":2002,"stateCode":"BA","stateName":"Bahia","countryId":31,"countryCode":"BR","countryName":"Brazil","latitude":"-14.93275000","longitude":"-42.00693000","wikiDataId":"Q1003399"},{"id":11391,"name":"Contendas do Sincorá","stateId":2002,"stateCode":"BA","stateName":"Bahia","countryId":31,"countryCode":"BR","countryName":"Brazil","latitude":"-13.79599000","longitude":"-41.05002000","wikiDataId":"Q271333"},{"id":11397,"name":"Coração de Maria","stateId":2002,"stateCode":"BA","stateName":"Bahia","countryId":31,"countryCode":"BR","countryName":"Brazil","latitude":"-12.23333000","longitude":"-38.75000000","wikiDataId":"Q1762086"},{"id":11400,"name":"Cordeiros","stateId":2002,"stateCode":"BA","stateName":"Bahia","countryId":31,"countryCode":"BR","countryName":"Brazil","latitude":"-14.99846000","longitude":"-41.89749000","wikiDataId":"Q534937"},{"id":11408,"name":"Coribe","stateId":2002,"stateCode":"BA","stateName":"Bahia","countryId":31,"countryCode":"BR","countryName":"Brazil","latitude":"-13.72337000","longitude":"-44.43538000","wikiDataId":"Q2012367"},{"id":11423,"name":"Coronel João Sá","stateId":2002,"stateCode":"BA","stateName":"Bahia","countryId":31,"countryCode":"BR","countryName":"Brazil","latitude":"-10.38878000","longitude":"-37.94281000","wikiDataId":"Q80004"},{"id":11436,"name":"Correntina","stateId":2002,"stateCode":"BA","stateName":"Bahia","countryId":31,"countryCode":"BR","countryName":"Brazil","latitude":"-13.34333000","longitude":"-44.63667000","wikiDataId":"Q1061205"},{"id":11451,"name":"Cotegipe","stateId":2002,"stateCode":"BA","stateName":"Bahia","countryId":31,"countryCode":"BR","countryName":"Brazil","latitude":"-11.58844000","longitude":"-44.17000000","wikiDataId":"Q1024894"},{"id":11463,"name":"Cravolândia","stateId":2002,"stateCode":"BA","stateName":"Bahia","countryId":31,"countryCode":"BR","countryName":"Brazil","latitude":"-13.47018000","longitude":"-39.75493000","wikiDataId":"Q1798797"},{"id":11482,"name":"Crisópolis","stateId":2002,"stateCode":"BA","stateName":"Bahia","countryId":31,"countryCode":"BR","countryName":"Brazil","latitude":"-11.45532000","longitude":"-38.13933000","wikiDataId":"Q1761896"},{"id":11480,"name":"Cristópolis","stateId":2002,"stateCode":"BA","stateName":"Bahia","countryId":31,"countryCode":"BR","countryName":"Brazil","latitude":"-12.21789000","longitude":"-44.24987000","wikiDataId":"Q1761896"},{"id":11491,"name":"Cruz das Almas","stateId":2002,"stateCode":"BA","stateName":"Bahia","countryId":31,"countryCode":"BR","countryName":"Brazil","latitude":"-12.67000000","longitude":"-39.10194000","wikiDataId":"Q1648067"},{"id":11521,"name":"Curaçá","stateId":2002,"stateCode":"BA","stateName":"Bahia","countryId":31,"countryCode":"BR","countryName":"Brazil","latitude":"-8.99028000","longitude":"-39.90944000","wikiDataId":"Q677518"},{"id":11671,"name":"Dário Meira","stateId":2002,"stateCode":"BA","stateName":"Bahia","countryId":31,"countryCode":"BR","countryName":"Brazil","latitude":"-14.42340000","longitude":"-39.95935000","wikiDataId":"Q1756936"},{"id":11591,"name":"Dias d'Ávila","stateId":2002,"stateCode":"BA","stateName":"Bahia","countryId":31,"countryCode":"BR","countryName":"Brazil","latitude":"-12.60625000","longitude":"-38.33717000","wikiDataId":"Q1761912"},{"id":11623,"name":"Dom Basílio","stateId":2002,"stateCode":"BA","stateName":"Bahia","countryId":31,"countryCode":"BR","countryName":"Brazil","latitude":"-13.79717000","longitude":"-41.70877000","wikiDataId":"Q1803648"},{"id":11631,"name":"Dom Macedo Costa","stateId":2002,"stateCode":"BA","stateName":"Bahia","countryId":31,"countryCode":"BR","countryName":"Brazil","latitude":"-12.93379000","longitude":"-39.14621000","wikiDataId":"Q1755986"},{"id":11685,"name":"Elísio Medrado","stateId":2002,"stateCode":"BA","stateName":"Bahia","countryId":31,"countryCode":"BR","countryName":"Brazil","latitude":"-12.95431000","longitude":"-39.50579000","wikiDataId":"Q1750262"},{"id":11696,"name":"Encruzilhada","stateId":2002,"stateCode":"BA","stateName":"Bahia","countryId":31,"countryCode":"BR","countryName":"Brazil","latitude":"-15.56839000","longitude":"-40.90789000","wikiDataId":"Q1795353"},{"id":11705,"name":"Entre Rios","stateId":2002,"stateCode":"BA","stateName":"Bahia","countryId":31,"countryCode":"BR","countryName":"Brazil","latitude":"-11.94194000","longitude":"-38.08444000","wikiDataId":"Q1806968"},{"id":15682,"name":"Érico Cardoso","stateId":2002,"stateCode":"BA","stateName":"Bahia","countryId":31,"countryCode":"BR","countryName":"Brazil","latitude":"-13.43695000","longitude":"-42.10325000","wikiDataId":"Q1793641"},{"id":11737,"name":"Esplanada","stateId":2002,"stateCode":"BA","stateName":"Bahia","countryId":31,"countryCode":"BR","countryName":"Brazil","latitude":"-11.79611000","longitude":"-37.94500000","wikiDataId":"Q1772504"},{"id":11759,"name":"Euclides da Cunha","stateId":2002,"stateCode":"BA","stateName":"Bahia","countryId":31,"countryCode":"BR","countryName":"Brazil","latitude":"-10.50750000","longitude":"-39.01583000","wikiDataId":"Q2013802"},{"id":11763,"name":"Eunápolis","stateId":2002,"stateCode":"BA","stateName":"Bahia","countryId":31,"countryCode":"BR","countryName":"Brazil","latitude":"-16.37750000","longitude":"-39.58028000","wikiDataId":"Q1796277"},{"id":11907,"name":"Fátima","stateId":2002,"stateCode":"BA","stateName":"Bahia","countryId":31,"countryCode":"BR","countryName":"Brazil","latitude":"-10.54600000","longitude":"-38.22367000","wikiDataId":"Q593133"},{"id":11793,"name":"Feira da Mata","stateId":2002,"stateCode":"BA","stateName":"Bahia","countryId":31,"countryCode":"BR","countryName":"Brazil","latitude":"-14.13203000","longitude":"-44.25281000","wikiDataId":"Q1869240"},{"id":11794,"name":"Feira de Santana","stateId":2002,"stateCode":"BA","stateName":"Bahia","countryId":31,"countryCode":"BR","countryName":"Brazil","latitude":"-12.26667000","longitude":"-38.96667000","wikiDataId":"Q194343"},{"id":11821,"name":"Filadélfia","stateId":2002,"stateCode":"BA","stateName":"Bahia","countryId":31,"countryCode":"BR","countryName":"Brazil","latitude":"-10.76635000","longitude":"-40.20555000","wikiDataId":"Q2019006"},{"id":11822,"name":"Firmino Alves","stateId":2002,"stateCode":"BA","stateName":"Bahia","countryId":31,"countryCode":"BR","countryName":"Brazil","latitude":"-14.91360000","longitude":"-39.91192000","wikiDataId":"Q2019006"},{"id":11836,"name":"Floresta Azul","stateId":2002,"stateCode":"BA","stateName":"Bahia","countryId":31,"countryCode":"BR","countryName":"Brazil","latitude":"-14.84450000","longitude":"-39.75503000","wikiDataId":"Q2464842"},{"id":11855,"name":"Formosa do Rio Preto","stateId":2002,"stateCode":"BA","stateName":"Bahia","countryId":31,"countryCode":"BR","countryName":"Brazil","latitude":"-11.04833000","longitude":"-45.19306000","wikiDataId":"Q1762128"},{"id":11918,"name":"Gandu","stateId":2002,"stateCode":"BA","stateName":"Bahia","countryId":31,"countryCode":"BR","countryName":"Brazil","latitude":"-13.74389000","longitude":"-39.48667000","wikiDataId":"Q727944"},{"id":11930,"name":"Gavião","stateId":2002,"stateCode":"BA","stateName":"Bahia","countryId":31,"countryCode":"BR","countryName":"Brazil","latitude":"-11.48891000","longitude":"-39.77412000","wikiDataId":"Q856583"},{"id":11941,"name":"Gentio do Ouro","stateId":2002,"stateCode":"BA","stateName":"Bahia","countryId":31,"countryCode":"BR","countryName":"Brazil","latitude":"-11.36279000","longitude":"-42.54827000","wikiDataId":"Q1649675"},{"id":11950,"name":"Glória","stateId":2002,"stateCode":"BA","stateName":"Bahia","countryId":31,"countryCode":"BR","countryName":"Brazil","latitude":"-9.11097000","longitude":"-38.40655000","wikiDataId":"Q1785990"},{"id":11972,"name":"Gongogi","stateId":2002,"stateCode":"BA","stateName":"Bahia","countryId":31,"countryCode":"BR","countryName":"Brazil","latitude":"-14.29995000","longitude":"-39.60138000","wikiDataId":"Q83189"},{"id":11987,"name":"Governador Mangabeira","stateId":2002,"stateCode":"BA","stateName":"Bahia","countryId":31,"countryCode":"BR","countryName":"Brazil","latitude":"-12.57719000","longitude":"-39.03115000","wikiDataId":"Q1985082"},{"id":12021,"name":"Guajeru","stateId":2002,"stateCode":"BA","stateName":"Bahia","countryId":31,"countryCode":"BR","countryName":"Brazil","latitude":"-14.57881000","longitude":"-42.03986000","wikiDataId":"Q983810"},{"id":12024,"name":"Guanambi","stateId":2002,"stateCode":"BA","stateName":"Bahia","countryId":31,"countryCode":"BR","countryName":"Brazil","latitude":"-14.22333000","longitude":"-42.78139000","wikiDataId":"Q786924"},{"id":12057,"name":"Guaratinga","stateId":2002,"stateCode":"BA","stateName":"Bahia","countryId":31,"countryCode":"BR","countryName":"Brazil","latitude":"-16.58564000","longitude":"-39.78189000","wikiDataId":"Q22042268"},{"id":12095,"name":"Heliópolis","stateId":2002,"stateCode":"BA","stateName":"Bahia","countryId":31,"countryCode":"BR","countryName":"Brazil","latitude":"-10.72863000","longitude":"-38.25490000","wikiDataId":"Q2019055"},{"id":12119,"name":"Iaçu","stateId":2002,"stateCode":"BA","stateName":"Bahia","countryId":31,"countryCode":"BR","countryName":"Brazil","latitude":"-12.76722000","longitude":"-40.21167000","wikiDataId":"Q1762080"},{"id":12131,"name":"Ibiassucê","stateId":2002,"stateCode":"BA","stateName":"Bahia","countryId":31,"countryCode":"BR","countryName":"Brazil","latitude":"-14.20285000","longitude":"-42.30214000","wikiDataId":"Q2028027"},{"id":12134,"name":"Ibicaraí","stateId":2002,"stateCode":"BA","stateName":"Bahia","countryId":31,"countryCode":"BR","countryName":"Brazil","latitude":"-14.86500000","longitude":"-39.58750000","wikiDataId":"Q741470"},{"id":12136,"name":"Ibicoara","stateId":2002,"stateCode":"BA","stateName":"Bahia","countryId":31,"countryCode":"BR","countryName":"Brazil","latitude":"-13.37664000","longitude":"-41.34081000","wikiDataId":"Q741470"},{"id":12138,"name":"Ibicuí","stateId":2002,"stateCode":"BA","stateName":"Bahia","countryId":31,"countryCode":"BR","countryName":"Brazil","latitude":"-14.84167000","longitude":"-39.98667000","wikiDataId":"Q1795367"},{"id":12140,"name":"Ibipeba","stateId":2002,"stateCode":"BA","stateName":"Bahia","countryId":31,"countryCode":"BR","countryName":"Brazil","latitude":"-11.64083000","longitude":"-42.01111000","wikiDataId":"Q1798809"},{"id":12141,"name":"Ibipitanga","stateId":2002,"stateCode":"BA","stateName":"Bahia","countryId":31,"countryCode":"BR","countryName":"Brazil","latitude":"-12.88655000","longitude":"-42.37115000","wikiDataId":"Q1798809"},{"id":12143,"name":"Ibiquera","stateId":2002,"stateCode":"BA","stateName":"Bahia","countryId":31,"countryCode":"BR","countryName":"Brazil","latitude":"-12.57265000","longitude":"-40.84158000","wikiDataId":"Q2006392"},{"id":12149,"name":"Ibirapitanga","stateId":2002,"stateCode":"BA","stateName":"Bahia","countryId":31,"countryCode":"BR","countryName":"Brazil","latitude":"-14.16417000","longitude":"-39.37361000","wikiDataId":"Q1647812"},{"id":12151,"name":"Ibirapuã","stateId":2002,"stateCode":"BA","stateName":"Bahia","countryId":31,"countryCode":"BR","countryName":"Brazil","latitude":"-17.75567000","longitude":"-39.97365000","wikiDataId":"Q1647812"},{"id":12153,"name":"Ibirataia","stateId":2002,"stateCode":"BA","stateName":"Bahia","countryId":31,"countryCode":"BR","countryName":"Brazil","latitude":"-14.06694000","longitude":"-39.64056000","wikiDataId":"Q1772538"},{"id":12158,"name":"Ibitiara","stateId":2002,"stateCode":"BA","stateName":"Bahia","countryId":31,"countryCode":"BR","countryName":"Brazil","latitude":"-12.56582000","longitude":"-42.38990000","wikiDataId":"Q194423"},{"id":12161,"name":"Ibititá","stateId":2002,"stateCode":"BA","stateName":"Bahia","countryId":31,"countryCode":"BR","countryName":"Brazil","latitude":"-11.69354000","longitude":"-41.84148000","wikiDataId":"Q1807726"},{"id":12166,"name":"Ibotirama","stateId":2002,"stateCode":"BA","stateName":"Bahia","countryId":31,"countryCode":"BR","countryName":"Brazil","latitude":"-12.18528000","longitude":"-43.22056000","wikiDataId":"Q1761863"},{"id":12171,"name":"Ichu","stateId":2002,"stateCode":"BA","stateName":"Bahia","countryId":31,"countryCode":"BR","countryName":"Brazil","latitude":"-11.70344000","longitude":"-39.18722000","wikiDataId":"Q2068290"},{"id":12178,"name":"Igaporã","stateId":2002,"stateCode":"BA","stateName":"Bahia","countryId":31,"countryCode":"BR","countryName":"Brazil","latitude":"-13.89064000","longitude":"-42.76046000","wikiDataId":"Q1808097"},{"id":12192,"name":"Igrapiúna","stateId":2002,"stateCode":"BA","stateName":"Bahia","countryId":31,"countryCode":"BR","countryName":"Brazil","latitude":"-13.85607000","longitude":"-39.19363000","wikiDataId":"Q1120318"},{"id":12203,"name":"Iguaí","stateId":2002,"stateCode":"BA","stateName":"Bahia","countryId":31,"countryCode":"BR","countryName":"Brazil","latitude":"-14.75639000","longitude":"-40.08917000","wikiDataId":"Q1762385"},{"id":12214,"name":"Ilhéus","stateId":2002,"stateCode":"BA","stateName":"Bahia","countryId":31,"countryCode":"BR","countryName":"Brazil","latitude":"-14.79364000","longitude":"-39.03949000","wikiDataId":"Q373705"},{"id":12247,"name":"Inhambupe","stateId":2002,"stateCode":"BA","stateName":"Bahia","countryId":31,"countryCode":"BR","countryName":"Brazil","latitude":"-11.78444000","longitude":"-38.35306000","wikiDataId":"Q589992"},{"id":12268,"name":"Ipecaetá","stateId":2002,"stateCode":"BA","stateName":"Bahia","countryId":31,"countryCode":"BR","countryName":"Brazil","latitude":"-12.33777000","longitude":"-39.32835000","wikiDataId":"Q1648200"},{"id":12272,"name":"Ipiaú","stateId":2002,"stateCode":"BA","stateName":"Bahia","countryId":31,"countryCode":"BR","countryName":"Brazil","latitude":"-14.13449000","longitude":"-39.73948000","wikiDataId":"Q1625857"},{"id":12280,"name":"Ipirá","stateId":2002,"stateCode":"BA","stateName":"Bahia","countryId":31,"countryCode":"BR","countryName":"Brazil","latitude":"-12.15833000","longitude":"-39.73722000","wikiDataId":"Q2026825"},{"id":12297,"name":"Ipupiara","stateId":2002,"stateCode":"BA","stateName":"Bahia","countryId":31,"countryCode":"BR","countryName":"Brazil","latitude":"-11.76946000","longitude":"-42.43301000","wikiDataId":"Q946408"},{"id":12304,"name":"Irajuba","stateId":2002,"stateCode":"BA","stateName":"Bahia","countryId":31,"countryCode":"BR","countryName":"Brazil","latitude":"-13.17999000","longitude":"-39.99530000","wikiDataId":"Q733787"},{"id":12305,"name":"Iramaia","stateId":2002,"stateCode":"BA","stateName":"Bahia","countryId":31,"countryCode":"BR","countryName":"Brazil","latitude":"-13.54627000","longitude":"-40.82834000","wikiDataId":"Q733787"},{"id":12310,"name":"Iraquara","stateId":2002,"stateCode":"BA","stateName":"Bahia","countryId":31,"countryCode":"BR","countryName":"Brazil","latitude":"-12.28624000","longitude":"-41.59153000","wikiDataId":"Q1795271"},{"id":12311,"name":"Irará","stateId":2002,"stateCode":"BA","stateName":"Bahia","countryId":31,"countryCode":"BR","countryName":"Brazil","latitude":"-12.05000000","longitude":"-38.76667000","wikiDataId":"Q1648734"},{"id":12317,"name":"Irecê","stateId":2002,"stateCode":"BA","stateName":"Bahia","countryId":31,"countryCode":"BR","countryName":"Brazil","latitude":"-11.30417000","longitude":"-41.85583000","wikiDataId":"Q1762180"},{"id":12328,"name":"Itabela","stateId":2002,"stateCode":"BA","stateName":"Bahia","countryId":31,"countryCode":"BR","countryName":"Brazil","latitude":"-16.71635000","longitude":"-39.57325000","wikiDataId":"Q1802007"},{"id":12329,"name":"Itaberaba","stateId":2002,"stateCode":"BA","stateName":"Bahia","countryId":31,"countryCode":"BR","countryName":"Brazil","latitude":"-12.52750000","longitude":"-40.30694000","wikiDataId":"Q1800730"},{"id":12337,"name":"Itabuna","stateId":2002,"stateCode":"BA","stateName":"Bahia","countryId":31,"countryCode":"BR","countryName":"Brazil","latitude":"-14.78556000","longitude":"-39.28028000","wikiDataId":"Q460750"},{"id":12341,"name":"Itacaré","stateId":2002,"stateCode":"BA","stateName":"Bahia","countryId":31,"countryCode":"BR","countryName":"Brazil","latitude":"-14.27890000","longitude":"-38.99584000","wikiDataId":"Q985513"},{"id":12346,"name":"Itaeté","stateId":2002,"stateCode":"BA","stateName":"Bahia","countryId":31,"countryCode":"BR","countryName":"Brazil","latitude":"-13.08598000","longitude":"-41.02566000","wikiDataId":"Q1757590"},{"id":12347,"name":"Itagi","stateId":2002,"stateCode":"BA","stateName":"Bahia","countryId":31,"countryCode":"BR","countryName":"Brazil","latitude":"-14.16278000","longitude":"-40.00611000","wikiDataId":"Q1795795"},{"id":12348,"name":"Itagibá","stateId":2002,"stateCode":"BA","stateName":"Bahia","countryId":31,"countryCode":"BR","countryName":"Brazil","latitude":"-14.28361000","longitude":"-39.84278000","wikiDataId":"Q782196"},{"id":12349,"name":"Itagimirim","stateId":2002,"stateCode":"BA","stateName":"Bahia","countryId":31,"countryCode":"BR","countryName":"Brazil","latitude":"-16.13473000","longitude":"-39.81646000","wikiDataId":"Q782196"},{"id":12356,"name":"Itaguaçu da Bahia","stateId":2002,"stateCode":"BA","stateName":"Bahia","countryId":31,"countryCode":"BR","countryName":"Brazil","latitude":"-10.64259000","longitude":"-42.21083000","wikiDataId":"Q1793795"},{"id":12369,"name":"Itaju do Colônia","stateId":2002,"stateCode":"BA","stateName":"Bahia","countryId":31,"countryCode":"BR","countryName":"Brazil","latitude":"-15.15505000","longitude":"-39.71598000","wikiDataId":"Q1759769"},{"id":12371,"name":"Itajuípe","stateId":2002,"stateCode":"BA","stateName":"Bahia","countryId":31,"countryCode":"BR","countryName":"Brazil","latitude":"-14.67806000","longitude":"-39.37500000","wikiDataId":"Q1772508"},{"id":12376,"name":"Itamaraju","stateId":2002,"stateCode":"BA","stateName":"Bahia","countryId":31,"countryCode":"BR","countryName":"Brazil","latitude":"-17.03917000","longitude":"-39.53111000","wikiDataId":"Q943536"},{"id":12380,"name":"Itamari","stateId":2002,"stateCode":"BA","stateName":"Bahia","countryId":31,"countryCode":"BR","countryName":"Brazil","latitude":"-13.78590000","longitude":"-39.68416000","wikiDataId":"Q1756622"},{"id":12383,"name":"Itambé","stateId":2002,"stateCode":"BA","stateName":"Bahia","countryId":31,"countryCode":"BR","countryName":"Brazil","latitude":"-15.24500000","longitude":"-40.62444000","wikiDataId":"Q686304"},{"id":12389,"name":"Itanagra","stateId":2002,"stateCode":"BA","stateName":"Bahia","countryId":31,"countryCode":"BR","countryName":"Brazil","latitude":"-12.30982000","longitude":"-38.11328000","wikiDataId":"Q2283708"},{"id":12394,"name":"Itanhém","stateId":2002,"stateCode":"BA","stateName":"Bahia","countryId":31,"countryCode":"BR","countryName":"Brazil","latitude":"-17.16639000","longitude":"-40.33000000","wikiDataId":"Q1795733"},{"id":12402,"name":"Itaparica","stateId":2002,"stateCode":"BA","stateName":"Bahia","countryId":31,"countryCode":"BR","countryName":"Brazil","latitude":"-12.90598000","longitude":"-38.66383000","wikiDataId":"Q1772662"},{"id":12441,"name":"Itapé","stateId":2002,"stateCode":"BA","stateName":"Bahia","countryId":31,"countryCode":"BR","countryName":"Brazil","latitude":"-14.91851000","longitude":"-39.48637000","wikiDataId":"Q1759716"},{"id":12403,"name":"Itapebi","stateId":2002,"stateCode":"BA","stateName":"Bahia","countryId":31,"countryCode":"BR","countryName":"Brazil","latitude":"-15.88751000","longitude":"-39.68792000","wikiDataId":"Q1772662"},{"id":12413,"name":"Itapetinga","stateId":2002,"stateCode":"BA","stateName":"Bahia","countryId":31,"countryCode":"BR","countryName":"Brazil","latitude":"-15.24889000","longitude":"-40.24778000","wikiDataId":"Q921827"},{"id":12418,"name":"Itapicuru","stateId":2002,"stateCode":"BA","stateName":"Bahia","countryId":31,"countryCode":"BR","countryName":"Brazil","latitude":"-11.31667000","longitude":"-38.23333000","wikiDataId":"Q1795161"},{"id":12427,"name":"Itapitanga","stateId":2002,"stateCode":"BA","stateName":"Bahia","countryId":31,"countryCode":"BR","countryName":"Brazil","latitude":"-14.46369000","longitude":"-39.62565000","wikiDataId":"Q1804093"},{"id":12443,"name":"Itaquara","stateId":2002,"stateCode":"BA","stateName":"Bahia","countryId":31,"countryCode":"BR","countryName":"Brazil","latitude":"-13.44720000","longitude":"-39.91030000","wikiDataId":"Q330202"},{"id":12448,"name":"Itarantim","stateId":2002,"stateCode":"BA","stateName":"Bahia","countryId":31,"countryCode":"BR","countryName":"Brazil","latitude":"-15.65972000","longitude":"-40.06556000","wikiDataId":"Q1795784"},{"id":12458,"name":"Itatim","stateId":2002,"stateCode":"BA","stateName":"Bahia","countryId":31,"countryCode":"BR","countryName":"Brazil","latitude":"-12.62835000","longitude":"-39.68234000","wikiDataId":"Q773065"},{"id":12478,"name":"Itiruçu","stateId":2002,"stateCode":"BA","stateName":"Bahia","countryId":31,"countryCode":"BR","countryName":"Brazil","latitude":"-13.53167000","longitude":"-40.15028000","wikiDataId":"Q609737"},{"id":12479,"name":"Itiúba","stateId":2002,"stateCode":"BA","stateName":"Bahia","countryId":31,"countryCode":"BR","countryName":"Brazil","latitude":"-10.79357000","longitude":"-39.80381000","wikiDataId":"Q609737"},{"id":12481,"name":"Itororó","stateId":2002,"stateCode":"BA","stateName":"Bahia","countryId":31,"countryCode":"BR","countryName":"Brazil","latitude":"-15.11694000","longitude":"-40.07028000","wikiDataId":"Q1798854"},{"id":12483,"name":"Ituaçu","stateId":2002,"stateCode":"BA","stateName":"Bahia","countryId":31,"countryCode":"BR","countryName":"Brazil","latitude":"-13.81333000","longitude":"-41.29667000","wikiDataId":"Q1795113"},{"id":12484,"name":"Ituberá","stateId":2002,"stateCode":"BA","stateName":"Bahia","countryId":31,"countryCode":"BR","countryName":"Brazil","latitude":"-13.73538000","longitude":"-39.14785000","wikiDataId":"Q1795108"},{"id":12497,"name":"Iuiu","stateId":2002,"stateCode":"BA","stateName":"Bahia","countryId":31,"countryCode":"BR","countryName":"Brazil","latitude":"-14.65015000","longitude":"-43.64870000","wikiDataId":"Q745307"},{"id":12510,"name":"Jaborandi","stateId":2002,"stateCode":"BA","stateName":"Bahia","countryId":31,"countryCode":"BR","countryName":"Brazil","latitude":"-14.03850000","longitude":"-45.18408000","wikiDataId":"Q271393"},{"id":12517,"name":"Jacaraci","stateId":2002,"stateCode":"BA","stateName":"Bahia","countryId":31,"countryCode":"BR","countryName":"Brazil","latitude":"-14.83523000","longitude":"-42.40112000","wikiDataId":"Q938162"},{"id":12527,"name":"Jacobina","stateId":2002,"stateCode":"BA","stateName":"Bahia","countryId":31,"countryCode":"BR","countryName":"Brazil","latitude":"-11.18143000","longitude":"-40.51372000","wikiDataId":"Q1798719"},{"id":12537,"name":"Jaguaquara","stateId":2002,"stateCode":"BA","stateName":"Bahia","countryId":31,"countryCode":"BR","countryName":"Brazil","latitude":"-13.53056000","longitude":"-39.97083000","wikiDataId":"Q733973"},{"id":12538,"name":"Jaguarari","stateId":2002,"stateCode":"BA","stateName":"Bahia","countryId":31,"countryCode":"BR","countryName":"Brazil","latitude":"-10.26389000","longitude":"-40.19583000","wikiDataId":"Q1070926"},{"id":12545,"name":"Jaguaripe","stateId":2002,"stateCode":"BA","stateName":"Bahia","countryId":31,"countryCode":"BR","countryName":"Brazil","latitude":"-13.12834000","longitude":"-39.01339000","wikiDataId":"Q653619"},{"id":12559,"name":"Jandaíra","stateId":2002,"stateCode":"BA","stateName":"Bahia","countryId":31,"countryCode":"BR","countryName":"Brazil","latitude":"-11.61099000","longitude":"-37.61845000","wikiDataId":"Q1779910"},{"id":12619,"name":"Jequié","stateId":2002,"stateCode":"BA","stateName":"Bahia","countryId":31,"countryCode":"BR","countryName":"Brazil","latitude":"-13.85875000","longitude":"-40.08512000","wikiDataId":"Q630203"},{"id":12620,"name":"Jeremoabo","stateId":2002,"stateCode":"BA","stateName":"Bahia","countryId":31,"countryCode":"BR","countryName":"Brazil","latitude":"-9.92088000","longitude":"-38.72629000","wikiDataId":"Q1761820"},{"id":12632,"name":"Jiquiriçá","stateId":2002,"stateCode":"BA","stateName":"Bahia","countryId":31,"countryCode":"BR","countryName":"Brazil","latitude":"-13.31081000","longitude":"-39.58091000","wikiDataId":"Q983815"},{"id":12633,"name":"Jitaúna","stateId":2002,"stateCode":"BA","stateName":"Bahia","countryId":31,"countryCode":"BR","countryName":"Brazil","latitude":"-14.01274000","longitude":"-39.89833000","wikiDataId":"Q1798820"},{"id":12661,"name":"João Dourado","stateId":2002,"stateCode":"BA","stateName":"Bahia","countryId":31,"countryCode":"BR","countryName":"Brazil","latitude":"-11.14883000","longitude":"-41.40438000","wikiDataId":"Q507247"},{"id":12673,"name":"Juazeiro","stateId":2002,"stateCode":"BA","stateName":"Bahia","countryId":31,"countryCode":"BR","countryName":"Brazil","latitude":"-9.39679000","longitude":"-40.23381000","wikiDataId":"Q1790670"},{"id":12678,"name":"Jucuruçu","stateId":2002,"stateCode":"BA","stateName":"Bahia","countryId":31,"countryCode":"BR","countryName":"Brazil","latitude":"-16.84832000","longitude":"-40.08414000","wikiDataId":"Q1787030"},{"id":12705,"name":"Jussara","stateId":2002,"stateCode":"BA","stateName":"Bahia","countryId":31,"countryCode":"BR","countryName":"Brazil","latitude":"-10.96408000","longitude":"-41.85572000","wikiDataId":"Q1008242"},{"id":12708,"name":"Jussari","stateId":2002,"stateCode":"BA","stateName":"Bahia","countryId":31,"countryCode":"BR","countryName":"Brazil","latitude":"-15.15451000","longitude":"-39.51559000","wikiDataId":"Q338795"},{"id":12709,"name":"Jussiape","stateId":2002,"stateCode":"BA","stateName":"Bahia","countryId":31,"countryCode":"BR","countryName":"Brazil","latitude":"-13.48810000","longitude":"-41.62335000","wikiDataId":"Q935612"},{"id":12724,"name":"Lafaiete Coutinho","stateId":2002,"stateCode":"BA","stateName":"Bahia","countryId":31,"countryCode":"BR","countryName":"Brazil","latitude":"-13.62029000","longitude":"-40.20444000","wikiDataId":"Q1798712"},{"id":12742,"name":"Lagoa Real","stateId":2002,"stateCode":"BA","stateName":"Bahia","countryId":31,"countryCode":"BR","countryName":"Brazil","latitude":"-14.10985000","longitude":"-42.21697000","wikiDataId":"Q526249"},{"id":12773,"name":"Laje","stateId":2002,"stateCode":"BA","stateName":"Bahia","countryId":31,"countryCode":"BR","countryName":"Brazil","latitude":"-10.18708000","longitude":"-40.97076000","wikiDataId":"Q22040135"},{"id":12783,"name":"Lajedão","stateId":2002,"stateCode":"BA","stateName":"Bahia","countryId":31,"countryCode":"BR","countryName":"Brazil","latitude":"-17.57112000","longitude":"-40.31123000","wikiDataId":"Q2078213"},{"id":12780,"name":"Lajedinho","stateId":2002,"stateCode":"BA","stateName":"Bahia","countryId":31,"countryCode":"BR","countryName":"Brazil","latitude":"-12.42698000","longitude":"-41.15097000","wikiDataId":"Q1012550"},{"id":12782,"name":"Lajedo do Tabocal","stateId":2002,"stateCode":"BA","stateName":"Bahia","countryId":31,"countryCode":"BR","countryName":"Brazil","latitude":"-13.37125000","longitude":"-40.23004000","wikiDataId":"Q2078213"},{"id":12787,"name":"Lamarão","stateId":2002,"stateCode":"BA","stateName":"Bahia","countryId":31,"countryCode":"BR","countryName":"Brazil","latitude":"-11.77625000","longitude":"-38.90341000","wikiDataId":"Q641281"},{"id":12793,"name":"Lapão","stateId":2002,"stateCode":"BA","stateName":"Bahia","countryId":31,"countryCode":"BR","countryName":"Brazil","latitude":"-11.38333000","longitude":"-41.83194000","wikiDataId":"Q1761847"},{"id":12806,"name":"Lauro de Freitas","stateId":2002,"stateCode":"BA","stateName":"Bahia","countryId":31,"countryCode":"BR","countryName":"Brazil","latitude":"-12.89444000","longitude":"-38.32722000","wikiDataId":"Q905164"},{"id":12817,"name":"Lençóis","stateId":2002,"stateCode":"BA","stateName":"Bahia","countryId":31,"countryCode":"BR","countryName":"Brazil","latitude":"-12.47259000","longitude":"-41.30815000","wikiDataId":"Q582880"},{"id":12825,"name":"Licínio de Almeida","stateId":2002,"stateCode":"BA","stateName":"Bahia","countryId":31,"countryCode":"BR","countryName":"Brazil","latitude":"-14.70644000","longitude":"-42.50442000","wikiDataId":"Q22062417"},{"id":12843,"name":"Livramento de Nossa Senhora","stateId":2002,"stateCode":"BA","stateName":"Bahia","countryId":31,"countryCode":"BR","countryName":"Brazil","latitude":"-13.80680000","longitude":"-41.99709000","wikiDataId":"Q1793460"},{"id":12844,"name":"Livramento do Brumado","stateId":2002,"stateCode":"BA","stateName":"Bahia","countryId":31,"countryCode":"BR","countryName":"Brazil","latitude":"-13.65145000","longitude":"-41.84564000","wikiDataId":"Q22040445"},{"id":12881,"name":"Luís Eduardo Magalhães","stateId":2002,"stateCode":"BA","stateName":"Bahia","countryId":31,"countryCode":"BR","countryName":"Brazil","latitude":"-12.23208000","longitude":"-46.11460000","wikiDataId":"Q1808537"},{"id":12884,"name":"Macajuba","stateId":2002,"stateCode":"BA","stateName":"Bahia","countryId":31,"countryCode":"BR","countryName":"Brazil","latitude":"-12.14371000","longitude":"-40.30199000","wikiDataId":"Q386631"},{"id":12888,"name":"Macarani","stateId":2002,"stateCode":"BA","stateName":"Bahia","countryId":31,"countryCode":"BR","countryName":"Brazil","latitude":"-15.55700000","longitude":"-40.39049000","wikiDataId":"Q1794428"},{"id":12894,"name":"Macaúbas","stateId":2002,"stateCode":"BA","stateName":"Bahia","countryId":31,"countryCode":"BR","countryName":"Brazil","latitude":"-13.01944000","longitude":"-42.69861000","wikiDataId":"Q776627"},{"id":12904,"name":"Macururé","stateId":2002,"stateCode":"BA","stateName":"Bahia","countryId":31,"countryCode":"BR","countryName":"Brazil","latitude":"-9.28091000","longitude":"-38.91463000","wikiDataId":"Q1815712"},{"id":12907,"name":"Madre de Deus","stateId":2002,"stateCode":"BA","stateName":"Bahia","countryId":31,"countryCode":"BR","countryName":"Brazil","latitude":"-12.74083000","longitude":"-38.62083000","wikiDataId":"Q985510"},{"id":12909,"name":"Maetinga","stateId":2002,"stateCode":"BA","stateName":"Bahia","countryId":31,"countryCode":"BR","countryName":"Brazil","latitude":"-14.66530000","longitude":"-41.49055000","wikiDataId":"Q985510"},{"id":12915,"name":"Maiquinique","stateId":2002,"stateCode":"BA","stateName":"Bahia","countryId":31,"countryCode":"BR","countryName":"Brazil","latitude":"-15.69897000","longitude":"-40.26411000","wikiDataId":"Q2008546"},{"id":12916,"name":"Mairi","stateId":2002,"stateCode":"BA","stateName":"Bahia","countryId":31,"countryCode":"BR","countryName":"Brazil","latitude":"-11.71139000","longitude":"-40.14889000","wikiDataId":"Q1795253"},{"id":12925,"name":"Malhada","stateId":2002,"stateCode":"BA","stateName":"Bahia","countryId":31,"countryCode":"BR","countryName":"Brazil","latitude":"-14.19145000","longitude":"-43.63151000","wikiDataId":"Q1755703"},{"id":12926,"name":"Malhada de Pedras","stateId":2002,"stateCode":"BA","stateName":"Bahia","countryId":31,"countryCode":"BR","countryName":"Brazil","latitude":"-14.27766000","longitude":"-41.89207000","wikiDataId":"Q1755703"},{"id":12956,"name":"Manoel Vitorino","stateId":2002,"stateCode":"BA","stateName":"Bahia","countryId":31,"countryCode":"BR","countryName":"Brazil","latitude":"-14.00487000","longitude":"-40.48008000","wikiDataId":"Q1750110"},{"id":12957,"name":"Mansidão","stateId":2002,"stateCode":"BA","stateName":"Bahia","countryId":31,"countryCode":"BR","countryName":"Brazil","latitude":"-11.20780000","longitude":"-44.14109000","wikiDataId":"Q1750110"},{"id":12972,"name":"Maracás","stateId":2002,"stateCode":"BA","stateName":"Bahia","countryId":31,"countryCode":"BR","countryName":"Brazil","latitude":"-13.44111000","longitude":"-40.43083000","wikiDataId":"Q1795100"},{"id":12974,"name":"Maragogipe","stateId":2002,"stateCode":"BA","stateName":"Bahia","countryId":31,"countryCode":"BR","countryName":"Brazil","latitude":"-12.77778000","longitude":"-38.91944000","wikiDataId":"Q1761467"},{"id":12989,"name":"Maraú","stateId":2002,"stateCode":"BA","stateName":"Bahia","countryId":31,"countryCode":"BR","countryName":"Brazil","latitude":"-14.10395000","longitude":"-39.01490000","wikiDataId":"Q2028783"},{"id":12994,"name":"Marcionílio Souza","stateId":2002,"stateCode":"BA","stateName":"Bahia","countryId":31,"countryCode":"BR","countryName":"Brazil","latitude":"-13.11581000","longitude":"-40.62915000","wikiDataId":"Q2012355"},