[{"id":66449,"name":"Ampara","stateId":2808,"stateCode":"5","stateName":"Eastern Province","countryId":208,"countryCode":"LK","countryName":"Sri Lanka","latitude":"7.29754000","longitude":"81.68202000","wikiDataId":"Q696444"},{"id":66450,"name":"Ampara District","stateId":2808,"stateCode":"5","stateName":"Eastern Province","countryId":208,"countryCode":"LK","countryName":"Sri Lanka","latitude":"7.08330000","longitude":"81.75000000","wikiDataId":"Q474395"},{"id":66456,"name":"Batticaloa","stateId":2808,"stateCode":"5","stateName":"Eastern Province","countryId":208,"countryCode":"LK","countryName":"Sri Lanka","latitude":"7.71020000","longitude":"81.69240000","wikiDataId":"Q810963"},{"id":66457,"name":"Batticaloa District","stateId":2808,"stateCode":"5","stateName":"Eastern Province","countryId":208,"countryCode":"LK","countryName":"Sri Lanka","latitude":"7.75000000","longitude":"81.49970000","wikiDataId":"Q810960"},{"id":66467,"name":"Eravur Town","stateId":2808,"stateCode":"5","stateName":"Eastern Province","countryId":208,"countryCode":"LK","countryName":"Sri Lanka","latitude":"7.77820000","longitude":"81.60380000","wikiDataId":"Q24462"},{"id":66486,"name":"Kalmunai","stateId":2808,"stateCode":"5","stateName":"Eastern Province","countryId":208,"countryCode":"LK","countryName":"Sri Lanka","latitude":"7.40902000","longitude":"81.83472000","wikiDataId":"Q1101382"},{"id":66534,"name":"Trincomalee","stateId":2808,"stateCode":"5","stateName":"Eastern Province","countryId":208,"countryCode":"LK","countryName":"Sri Lanka","latitude":"8.57780000","longitude":"81.22890000","wikiDataId":"Q323873"},{"id":66535,"name":"Trincomalee District","stateId":2808,"stateCode":"5","stateName":"Eastern Province","countryId":208,"countryCode":"LK","countryName":"Sri Lanka","latitude":"8.58333000","longitude":"81.08333000","wikiDataId":"Q1493318"},{"id":66537,"name":"Vakarai","stateId":2808,"stateCode":"5","stateName":"Eastern Province","countryId":208,"countryCode":"LK","countryName":"Sri Lanka","latitude":"8.13333000","longitude":"81.43333000","wikiDataId":"Q7908969"}]