[{"id":81147,"name":"Adlay","stateId":1314,"stateCode":"13","stateName":"Caraga","countryId":174,"countryCode":"PH","countryName":"Philippines","latitude":"9.40972000","longitude":"125.89750000","wikiDataId":"Q31461855"},{"id":81153,"name":"Agay","stateId":1314,"stateCode":"13","stateName":"Caraga","countryId":174,"countryCode":"PH","countryName":"Philippines","latitude":"9.05361000","longitude":"125.58667000","wikiDataId":"Q31462038"},{"id":81200,"name":"Alegria","stateId":1314,"stateCode":"13","stateName":"Caraga","countryId":174,"countryCode":"PH","countryName":"Philippines","latitude":"9.46694000","longitude":"125.57722000","wikiDataId":"Q155706"},{"id":81235,"name":"Alubijid","stateId":1314,"stateCode":"13","stateName":"Caraga","countryId":174,"countryCode":"PH","countryName":"Philippines","latitude":"8.96278000","longitude":"125.42583000","wikiDataId":"Q195623"},{"id":81240,"name":"Amaga","stateId":1314,"stateCode":"13","stateName":"Caraga","countryId":174,"countryCode":"PH","countryName":"Philippines","latitude":"8.53083000","longitude":"126.07028000","wikiDataId":"Q31465217"},{"id":81280,"name":"Anticala","stateId":1314,"stateCode":"13","stateName":"Caraga","countryId":174,"countryCode":"PH","countryName":"Philippines","latitude":"9.00444000","longitude":"125.64528000","wikiDataId":"Q31467207"},{"id":81308,"name":"Aras-asan","stateId":1314,"stateCode":"13","stateName":"Caraga","countryId":174,"countryCode":"PH","countryName":"Philippines","latitude":"8.88781000","longitude":"126.31120000","wikiDataId":"Q31468241"},{"id":81336,"name":"Aurora","stateId":1314,"stateCode":"13","stateName":"Caraga","countryId":174,"countryCode":"PH","countryName":"Philippines","latitude":"8.59306000","longitude":"125.83750000","wikiDataId":"Q31796096"},{"id":81364,"name":"Bacolod","stateId":1314,"stateCode":"13","stateName":"Caraga","countryId":174,"countryCode":"PH","countryName":"Philippines","latitude":"8.93167000","longitude":"126.28944000","wikiDataId":"Q31473676"},{"id":81373,"name":"Bacuag","stateId":1314,"stateCode":"13","stateName":"Caraga","countryId":174,"countryCode":"PH","countryName":"Philippines","latitude":"9.60806000","longitude":"125.63889000","wikiDataId":"Q155720"},{"id":81415,"name":"Bah-Bah","stateId":1314,"stateCode":"13","stateName":"Caraga","countryId":174,"countryCode":"PH","countryName":"Philippines","latitude":"8.60722000","longitude":"125.91444000","wikiDataId":"Q31476198"},{"id":81442,"name":"Balangbalang","stateId":1314,"stateCode":"13","stateName":"Caraga","countryId":174,"countryCode":"PH","countryName":"Philippines","latitude":"9.05694000","longitude":"125.62278000","wikiDataId":"Q31478228"},{"id":81521,"name":"Bancasi","stateId":1314,"stateCode":"13","stateName":"Caraga","countryId":174,"countryCode":"PH","countryName":"Philippines","latitude":"8.96667000","longitude":"125.46667000","wikiDataId":"Q31483028"},{"id":81533,"name":"Bangonay","stateId":1314,"stateCode":"13","stateName":"Caraga","countryId":174,"countryCode":"PH","countryName":"Philippines","latitude":"9.31444000","longitude":"125.55389000","wikiDataId":"Q31483691"},{"id":81571,"name":"Barcelona","stateId":1314,"stateCode":"13","stateName":"Caraga","countryId":174,"countryCode":"PH","countryName":"Philippines","latitude":"8.15917000","longitude":"126.43417000","wikiDataId":"Q31486383"},{"id":81579,"name":"Barobo","stateId":1314,"stateCode":"13","stateName":"Caraga","countryId":174,"countryCode":"PH","countryName":"Philippines","latitude":"8.53528000","longitude":"126.12139000","wikiDataId":"Q155471"},{"id":81591,"name":"Basa","stateId":1314,"stateCode":"13","stateName":"Caraga","countryId":174,"countryCode":"PH","countryName":"Philippines","latitude":"8.07222000","longitude":"126.06417000","wikiDataId":"Q31488101"},{"id":81592,"name":"Basag","stateId":1314,"stateCode":"13","stateName":"Caraga","countryId":174,"countryCode":"PH","countryName":"Philippines","latitude":"8.92548000","longitude":"125.62167000","wikiDataId":"Q31488101"},{"id":81605,"name":"Basilisa","stateId":1314,"stateCode":"13","stateName":"Caraga","countryId":174,"countryCode":"PH","countryName":"Philippines","latitude":"10.00000000","longitude":"125.50000000","wikiDataId":"Q314298"},{"id":81653,"name":"Bayabas","stateId":1314,"stateCode":"13","stateName":"Caraga","countryId":174,"countryCode":"PH","countryName":"Philippines","latitude":"8.96972000","longitude":"126.28611000","wikiDataId":"Q155499"},{"id":81668,"name":"Bayugan","stateId":1314,"stateCode":"13","stateName":"Caraga","countryId":174,"countryCode":"PH","countryName":"Philippines","latitude":"8.75611000","longitude":"125.76750000","wikiDataId":"Q31492996"},{"id":81695,"name":"Bigaan","stateId":1314,"stateCode":"13","stateName":"Caraga","countryId":174,"countryCode":"PH","countryName":"Philippines","latitude":"8.31722000","longitude":"126.28111000","wikiDataId":"Q31500778"},{"id":81734,"name":"Binucayan","stateId":1314,"stateCode":"13","stateName":"Caraga","countryId":174,"countryCode":"PH","countryName":"Philippines","latitude":"8.25000000","longitude":"125.71667000","wikiDataId":"Q31503087"},{"id":81737,"name":"Bislig","stateId":1314,"stateCode":"13","stateName":"Caraga","countryId":174,"countryCode":"PH","countryName":"Philippines","latitude":"8.21528000","longitude":"126.31639000","wikiDataId":"Q866414"},{"id":81797,"name":"Borbon","stateId":1314,"stateCode":"13","stateName":"Caraga","countryId":174,"countryCode":"PH","countryName":"Philippines","latitude":"8.48417000","longitude":"125.89306000","wikiDataId":"Q31510041"},{"id":81831,"name":"Buenavista","stateId":1314,"stateCode":"13","stateName":"Caraga","countryId":174,"countryCode":"PH","countryName":"Philippines","latitude":"8.97694000","longitude":"125.40889000","wikiDataId":"Q627390"},{"id":81892,"name":"Bunawan","stateId":1314,"stateCode":"13","stateName":"Caraga","countryId":174,"countryCode":"PH","countryName":"Philippines","latitude":"8.16722000","longitude":"125.99083000","wikiDataId":"Q627049"},{"id":81908,"name":"Burgos","stateId":1314,"stateCode":"13","stateName":"Caraga","countryId":174,"countryCode":"PH","countryName":"Philippines","latitude":"9.26639000","longitude":"126.18833000","wikiDataId":"Q31519225"},{"id":81925,"name":"Butuan","stateId":1314,"stateCode":"13","stateName":"Caraga","countryId":174,"countryCode":"PH","countryName":"Philippines","latitude":"8.94917000","longitude":"125.54361000","wikiDataId":"Q31520802"},{"id":81937,"name":"Cabadbaran","stateId":1314,"stateCode":"13","stateName":"Caraga","countryId":174,"countryCode":"PH","countryName":"Philippines","latitude":"9.12261000","longitude":"125.53549000","wikiDataId":"Q1692"},{"id":81997,"name":"Cagdianao","stateId":1314,"stateCode":"13","stateName":"Caraga","countryId":174,"countryCode":"PH","countryName":"Philippines","latitude":"9.92111000","longitude":"125.66917000","wikiDataId":"Q314318"},{"id":82000,"name":"Cagwait","stateId":1314,"stateCode":"13","stateName":"Caraga","countryId":174,"countryCode":"PH","countryName":"Philippines","latitude":"8.91861000","longitude":"126.30111000","wikiDataId":"Q155524"},{"id":82016,"name":"Calamba","stateId":1314,"stateCode":"13","stateName":"Caraga","countryId":174,"countryCode":"PH","countryName":"Philippines","latitude":"9.10361000","longitude":"125.59417000","wikiDataId":"Q31526775"},{"id":82060,"name":"Caloc-an","stateId":1314,"stateCode":"13","stateName":"Caraga","countryId":174,"countryCode":"PH","countryName":"Philippines","latitude":"9.04694000","longitude":"125.53056000","wikiDataId":"Q31528605"},{"id":82126,"name":"Cantapoy","stateId":1314,"stateCode":"13","stateName":"Caraga","countryId":174,"countryCode":"PH","countryName":"Philippines","latitude":"9.49056000","longitude":"125.43639000","wikiDataId":"Q31532558"},{"id":82128,"name":"Cantilan","stateId":1314,"stateCode":"13","stateName":"Caraga","countryId":174,"countryCode":"PH","countryName":"Philippines","latitude":"9.33361000","longitude":"125.97750000","wikiDataId":"Q155536"},{"id":82134,"name":"Capalayan","stateId":1314,"stateCode":"13","stateName":"Caraga","countryId":174,"countryCode":"PH","countryName":"Philippines","latitude":"9.74056000","longitude":"125.54444000","wikiDataId":"Q31796697"},{"id":82169,"name":"Carmen","stateId":1314,"stateCode":"13","stateName":"Caraga","countryId":174,"countryCode":"PH","countryName":"Philippines","latitude":"9.22639000","longitude":"126.01722000","wikiDataId":"Q155548"},{"id":82181,"name":"Carrascal","stateId":1314,"stateCode":"13","stateName":"Caraga","countryId":174,"countryCode":"PH","countryName":"Philippines","latitude":"9.37028000","longitude":"125.94917000","wikiDataId":"Q155558"},{"id":82224,"name":"Causwagan","stateId":1314,"stateCode":"13","stateName":"Caraga","countryId":174,"countryCode":"PH","countryName":"Philippines","latitude":"8.44750000","longitude":"125.84028000","wikiDataId":"Q31538266"},{"id":82248,"name":"Claver","stateId":1314,"stateCode":"13","stateName":"Caraga","countryId":174,"countryCode":"PH","countryName":"Philippines","latitude":"9.57250000","longitude":"125.73306000","wikiDataId":"Q155748"},{"id":82264,"name":"Comagascas","stateId":1314,"stateCode":"13","stateName":"Caraga","countryId":174,"countryCode":"PH","countryName":"Philippines","latitude":"9.13972000","longitude":"125.55972000","wikiDataId":"Q31550282"},{"id":82299,"name":"Cortes","stateId":1314,"stateCode":"13","stateName":"Caraga","countryId":174,"countryCode":"PH","countryName":"Philippines","latitude":"9.27972000","longitude":"126.19111000","wikiDataId":"Q155568"},{"id":82308,"name":"Cuevas","stateId":1314,"stateCode":"13","stateName":"Caraga","countryId":174,"countryCode":"PH","countryName":"Philippines","latitude":"8.01917000","longitude":"126.09417000","wikiDataId":"Q31556905"},{"id":82316,"name":"Culit","stateId":1314,"stateCode":"13","stateName":"Caraga","countryId":174,"countryCode":"PH","countryName":"Philippines","latitude":"8.94722000","longitude":"125.35694000","wikiDataId":"Q31557218"},{"id":82375,"name":"Dapa","stateId":1314,"stateCode":"13","stateName":"Caraga","countryId":174,"countryCode":"PH","countryName":"Philippines","latitude":"9.75944000","longitude":"126.05306000","wikiDataId":"Q155763"},{"id":82405,"name":"Del Carmen Surigao del Norte","stateId":1314,"stateCode":"13","stateName":"Caraga","countryId":174,"countryCode":"PH","countryName":"Philippines","latitude":"9.86944000","longitude":"125.96972000","wikiDataId":"Q28735"},{"id":82410,"name":"Del Pilar","stateId":1314,"stateCode":"13","stateName":"Caraga","countryId":174,"countryCode":"PH","countryName":"Philippines","latitude":"9.15194000","longitude":"125.58472000","wikiDataId":"Q31564646"},{"id":82433,"name":"Dinagat","stateId":1314,"stateCode":"13","stateName":"Caraga","countryId":174,"countryCode":"PH","countryName":"Philippines","latitude":"9.95611000","longitude":"125.59333000","wikiDataId":"Q314336"},{"id":82434,"name":"Dinagat Islands","stateId":1314,"stateCode":"13","stateName":"Caraga","countryId":174,"countryCode":"PH","countryName":"Philippines","latitude":"10.12301000","longitude":"125.55725000","wikiDataId":"Q13807"},{"id":82519,"name":"Esperanza","stateId":1314,"stateCode":"13","stateName":"Caraga","countryId":174,"countryCode":"PH","countryName":"Philippines","latitude":"8.67694000","longitude":"125.64694000","wikiDataId":"Q627077"},{"id":82560,"name":"Gamut","stateId":1314,"stateCode":"13","stateName":"Caraga","countryId":174,"countryCode":"PH","countryName":"Philippines","latitude":"8.53153000","longitude":"126.24117000","wikiDataId":"Q31588458"},{"id":82576,"name":"General Luna","stateId":1314,"stateCode":"13","stateName":"Caraga","countryId":174,"countryCode":"PH","countryName":"Philippines","latitude":"9.78417000","longitude":"126.15889000","wikiDataId":"Q155784"},{"id":82591,"name":"Gigaquit","stateId":1314,"stateCode":"13","stateName":"Caraga","countryId":174,"countryCode":"PH","countryName":"Philippines","latitude":"9.59444000","longitude":"125.69750000","wikiDataId":"Q155795"},{"id":82612,"name":"Guadalupe","stateId":1314,"stateCode":"13","stateName":"Caraga","countryId":174,"countryCode":"PH","countryName":"Philippines","latitude":"8.58278000","longitude":"125.70806000","wikiDataId":"Q31811343"},{"id":82628,"name":"Guinabsan","stateId":1314,"stateCode":"13","stateName":"Caraga","countryId":174,"countryCode":"PH","countryName":"Philippines","latitude":"8.89750000","longitude":"125.41611000","wikiDataId":"Q31811362"},{"id":82693,"name":"Hinatuan","stateId":1314,"stateCode":"13","stateName":"Caraga","countryId":174,"countryCode":"PH","countryName":"Philippines","latitude":"8.37222000","longitude":"126.33417000","wikiDataId":"Q155576"},{"id":82758,"name":"Ipil","stateId":1314,"stateCode":"13","stateName":"Caraga","countryId":174,"countryCode":"PH","countryName":"Philippines","latitude":"9.79070000","longitude":"125.43860000","wikiDataId":"Q31811509"},{"id":82778,"name":"Jabonga","stateId":1314,"stateCode":"13","stateName":"Caraga","countryId":174,"countryCode":"PH","countryName":"Philippines","latitude":"9.34306000","longitude":"125.51556000","wikiDataId":"Q627461"},{"id":82784,"name":"Jagupit","stateId":1314,"stateCode":"13","stateName":"Caraga","countryId":174,"countryCode":"PH","countryName":"Philippines","latitude":"9.24222000","longitude":"125.55806000","wikiDataId":"Q31811530"},{"id":82801,"name":"Javier","stateId":1314,"stateCode":"13","stateName":"Caraga","countryId":174,"countryCode":"PH","countryName":"Philippines","latitude":"8.48889000","longitude":"126.08500000","wikiDataId":"Q31811547"},{"id":82885,"name":"Kauswagan","stateId":1314,"stateCode":"13","stateName":"Caraga","countryId":174,"countryCode":"PH","countryName":"Philippines","latitude":"8.51667000","longitude":"125.75000000","wikiDataId":"Q31811628"},{"id":82904,"name":"Kinabhangan","stateId":1314,"stateCode":"13","stateName":"Caraga","countryId":174,"countryCode":"PH","countryName":"Philippines","latitude":"8.96917000","longitude":"125.35750000","wikiDataId":"Q31811645"},{"id":82918,"name":"Kitcharao","stateId":1314,"stateCode":"13","stateName":"Caraga","countryId":174,"countryCode":"PH","countryName":"Philippines","latitude":"9.45500000","longitude":"125.57306000","wikiDataId":"Q627495"},{"id":82945,"name":"La Paz","stateId":1314,"stateCode":"13","stateName":"Caraga","countryId":174,"countryCode":"PH","countryName":"Philippines","latitude":"8.27083000","longitude":"125.79972000","wikiDataId":"Q627107"},{"id":82955,"name":"La Union","stateId":1314,"stateCode":"13","stateName":"Caraga","countryId":174,"countryCode":"PH","countryName":"Philippines","latitude":"9.08556000","longitude":"125.53583000","wikiDataId":"Q31811714"},{"id":83025,"name":"Lanuza","stateId":1314,"stateCode":"13","stateName":"Caraga","countryId":174,"countryCode":"PH","countryName":"Philippines","latitude":"9.23417000","longitude":"126.06444000","wikiDataId":"Q155582"},{"id":83034,"name":"Lapinigan","stateId":1314,"stateCode":"13","stateName":"Caraga","countryId":174,"countryCode":"PH","countryName":"Philippines","latitude":"8.42056000","longitude":"125.98250000","wikiDataId":"Q31811799"},{"id":83074,"name":"Lianga","stateId":1314,"stateCode":"13","stateName":"Caraga","countryId":174,"countryCode":"PH","countryName":"Philippines","latitude":"8.63361000","longitude":"126.09472000","wikiDataId":"Q155590"},{"id":83081,"name":"Libas","stateId":1314,"stateCode":"13","stateName":"Caraga","countryId":174,"countryCode":"PH","countryName":"Philippines","latitude":"9.88333000","longitude":"125.98333000","wikiDataId":"Q31811843"},{"id":83083,"name":"Libertad","stateId":1314,"stateCode":"13","stateName":"Caraga","countryId":174,"countryCode":"PH","countryName":"Philippines","latitude":"8.94417000","longitude":"125.50194000","wikiDataId":"Q31811852"},{"id":83091,"name":"Libjo","stateId":1314,"stateCode":"13","stateName":"Caraga","countryId":174,"countryCode":"PH","countryName":"Philippines","latitude":"10.19778000","longitude":"125.53528000","wikiDataId":"Q314345"},{"id":83140,"name":"Lingig","stateId":1314,"stateCode":"13","stateName":"Caraga","countryId":174,"countryCode":"PH","countryName":"Philippines","latitude":"8.03889000","longitude":"126.41250000","wikiDataId":"Q155598"},{"id":83164,"name":"Lombocan","stateId":1314,"stateCode":"13","stateName":"Caraga","countryId":174,"countryCode":"PH","countryName":"Philippines","latitude":"9.00767000","longitude":"125.50558000","wikiDataId":"Q31811933"},{"id":83182,"name":"Loreto","stateId":1314,"stateCode":"13","stateName":"Caraga","countryId":174,"countryCode":"PH","countryName":"Philippines","latitude":"8.18694000","longitude":"125.85306000","wikiDataId":"Q627120"},{"id":83183,"name":"Los Angeles","stateId":1314,"stateCode":"13","stateName":"Caraga","countryId":174,"countryCode":"PH","countryName":"Philippines","latitude":"9.01250000","longitude":"125.60806000","wikiDataId":"Q31811955"},{"id":83184,"name":"Los Arcos","stateId":1314,"stateCode":"13","stateName":"Caraga","countryId":174,"countryCode":"PH","countryName":"Philippines","latitude":"8.63278000","longitude":"125.98556000","wikiDataId":"Q31811956"},{"id":83189,"name":"Loyola","stateId":1314,"stateCode":"13","stateName":"Caraga","countryId":174,"countryCode":"PH","countryName":"Philippines","latitude":"8.33492000","longitude":"126.33366000","wikiDataId":"Q31811962"},{"id":83230,"name":"Luna","stateId":1314,"stateCode":"13","stateName":"Caraga","countryId":174,"countryCode":"PH","countryName":"Philippines","latitude":"9.73700000","longitude":"125.49760000","wikiDataId":"Q31812000"},{"id":83265,"name":"Mabahin","stateId":1314,"stateCode":"13","stateName":"Caraga","countryId":174,"countryCode":"PH","countryName":"Philippines","latitude":"9.18556000","longitude":"126.17056000","wikiDataId":"Q31812034"},{"id":83286,"name":"Mabua","stateId":1314,"stateCode":"13","stateName":"Caraga","countryId":174,"countryCode":"PH","countryName":"Philippines","latitude":"9.80390000","longitude":"125.44090000","wikiDataId":"Q31812050"},{"id":83313,"name":"Madrid","stateId":1314,"stateCode":"13","stateName":"Caraga","countryId":174,"countryCode":"PH","countryName":"Philippines","latitude":"9.26211000","longitude":"125.96437000","wikiDataId":"Q155605"},{"id":83319,"name":"Magallanes","stateId":1314,"stateCode":"13","stateName":"Caraga","countryId":174,"countryCode":"PH","countryName":"Philippines","latitude":"9.02000000","longitude":"125.51722000","wikiDataId":"Q627572"},{"id":83370,"name":"Mainit","stateId":1314,"stateCode":"13","stateName":"Caraga","countryId":174,"countryCode":"PH","countryName":"Philippines","latitude":"9.53500000","longitude":"125.52306000","wikiDataId":"Q155808"},{"id":83433,"name":"Malimono","stateId":1314,"stateCode":"13","stateName":"Caraga","countryId":174,"countryCode":"PH","countryName":"Philippines","latitude":"9.61806000","longitude":"125.40222000","wikiDataId":"Q155819"},{"id":83492,"name":"Manapa","stateId":1314,"stateCode":"13","stateName":"Caraga","countryId":174,"countryCode":"PH","countryName":"Philippines","latitude":"8.97778000","longitude":"125.43944000","wikiDataId":"Q31812226"},{"id":83582,"name":"Marihatag","stateId":1314,"stateCode":"13","stateName":"Caraga","countryId":174,"countryCode":"PH","countryName":"Philippines","latitude":"8.80590000","longitude":"126.29660000","wikiDataId":"Q155611"},{"id":83612,"name":"Matabao","stateId":1314,"stateCode":"13","stateName":"Caraga","countryId":174,"countryCode":"PH","countryName":"Philippines","latitude":"8.95722000","longitude":"125.39944000","wikiDataId":"Q31812333"},{"id":83624,"name":"Mati","stateId":1314,"stateCode":"13","stateName":"Caraga","countryId":174,"countryCode":"PH","countryName":"Philippines","latitude":"9.73580000","longitude":"125.46800000","wikiDataId":"Q31812345"},{"id":83649,"name":"Maygatasan","stateId":1314,"stateCode":"13","stateName":"Caraga","countryId":174,"countryCode":"PH","countryName":"Philippines","latitude":"8.70944000","longitude":"125.71833000","wikiDataId":"Q31812374"},{"id":83783,"name":"Nasipit","stateId":1314,"stateCode":"13","stateName":"Caraga","countryId":174,"countryCode":"PH","countryName":"Philippines","latitude":"8.96917000","longitude":"125.29472000","wikiDataId":"Q627604"},{"id":83986,"name":"Panikian","stateId":1314,"stateCode":"13","stateName":"Caraga","countryId":174,"countryCode":"PH","countryName":"Philippines","latitude":"9.32935000","longitude":"125.93380000","wikiDataId":"Q31462171"},{"id":84018,"name":"Parang","stateId":1314,"stateCode":"13","stateName":"Caraga","countryId":174,"countryCode":"PH","countryName":"Philippines","latitude":"9.28149000","longitude":"125.94208000","wikiDataId":"Q31463267"},{"id":84043,"name":"Patin-ay","stateId":1314,"stateCode":"13","stateName":"Caraga","countryId":174,"countryCode":"PH","countryName":"Philippines","latitude":"8.55056000","longitude":"125.93722000","wikiDataId":"Q31464293"},{"id":84092,"name":"Pilar","stateId":1314,"stateCode":"13","stateName":"Caraga","countryId":174,"countryCode":"PH","countryName":"Philippines","latitude":"9.86500000","longitude":"126.09944000","wikiDataId":"Q155830"},{"id":84128,"name":"Placer","stateId":1314,"stateCode":"13","stateName":"Caraga","countryId":174,"countryCode":"PH","countryName":"Philippines","latitude":"9.65417000","longitude":"125.60250000","wikiDataId":"Q31471792"},{"id":84178,"name":"Prosperidad","stateId":1314,"stateCode":"13","stateName":"Caraga","countryId":174,"countryCode":"PH","countryName":"Philippines","latitude":"8.58000000","longitude":"125.89639000","wikiDataId":"Q627144"},{"id":84182,"name":"Province of Agusan del Norte","stateId":1314,"stateCode":"13","stateName":"Caraga","countryId":174,"countryCode":"PH","countryName":"Philippines","latitude":"8.99360000","longitude":"125.57098000","wikiDataId":"Q13714"},{"id":84183,"name":"Province of Agusan del Sur","stateId":1314,"stateCode":"13","stateName":"Caraga","countryId":174,"countryCode":"PH","countryName":"Philippines","latitude":"8.50000000","longitude":"125.83333000","wikiDataId":"Q13721"},{"id":84246,"name":"Province of Surigao del Norte","stateId":1314,"stateCode":"13","stateName":"Caraga","countryId":174,"countryCode":"PH","countryName":"Philippines","latitude":"9.66303000","longitude":"125.52704000","wikiDataId":"Q13889"},{"id":84247,"name":"Province of Surigao del Sur","stateId":1314,"stateCode":"13","stateName":"Caraga","countryId":174,"countryCode":"PH","countryName":"Philippines","latitude":"8.80908000","longitude":"126.12854000","wikiDataId":"Q13891"},{"id":84280,"name":"Punta","stateId":1314,"stateCode":"13","stateName":"Caraga","countryId":174,"countryCode":"PH","countryName":"Philippines","latitude":"8.98972000","longitude":"125.34000000","wikiDataId":"Q31480360"},{"id":84345,"name":"Rizal","stateId":1314,"stateCode":"13","stateName":"Caraga","countryId":174,"countryCode":"PH","countryName":"Philippines","latitude":"8.92917000","longitude":"125.39861000","wikiDataId":"Q31490427"},{"id":84421,"name":"Salvacion","stateId":1314,"stateCode":"13","stateName":"Caraga","countryId":174,"countryCode":"PH","countryName":"Philippines","latitude":"7.99954000","longitude":"126.12480000","wikiDataId":"Q31500524"},{"id":84455,"name":"San Benito","stateId":1314,"stateCode":"13","stateName":"Caraga","countryId":174,"countryCode":"PH","countryName":"Philippines","latitude":"9.95778000","longitude":"126.00694000","wikiDataId":"Q155849"},{"id":84486,"name":"San Francisco","stateId":1314,"stateCode":"13","stateName":"Caraga","countryId":174,"countryCode":"PH","countryName":"Philippines","latitude":"8.53556000","longitude":"125.95000000","wikiDataId":"Q627190"},{"id":84503,"name":"San Isidro","stateId":1314,"stateCode":"13","stateName":"Caraga","countryId":174,"countryCode":"PH","countryName":"Philippines","latitude":"9.93694000","longitude":"126.08861000","wikiDataId":"Q155876"},{"id":84538,"name":"San Luis","stateId":1314,"stateCode":"13","stateName":"Caraga","countryId":174,"countryCode":"PH","countryName":"Philippines","latitude":"8.47806000","longitude":"125.74389000","wikiDataId":"Q627210"},{"id":84566,"name":"San Miguel","stateId":1314,"stateCode":"13","stateName":"Caraga","countryId":174,"countryCode":"PH","countryName":"Philippines","latitude":"8.96889000","longitude":"125.94500000","wikiDataId":"Q155625"},{"id":84634,"name":"Sanghan","stateId":1314,"stateCode":"13","stateName":"Caraga","countryId":174,"countryCode":"PH","countryName":"Philippines","latitude":"9.08556000","longitude":"125.57278000","wikiDataId":"Q31509883"},{"id":84640,"name":"Santa Ana","stateId":1314,"stateCode":"13","stateName":"Caraga","countryId":174,"countryCode":"PH","countryName":"Philippines","latitude":"9.19278000","longitude":"125.56444000","wikiDataId":"Q31510107"},{"id":84674,"name":"Santa Josefa","stateId":1314,"stateCode":"13","stateName":"Caraga","countryId":174,"countryCode":"PH","countryName":"Philippines","latitude":"7.99111000","longitude":"126.03000000","wikiDataId":"Q627231"},{"id":84684,"name":"Santa Maria","stateId":1314,"stateCode":"13","stateName":"Caraga","countryId":174,"countryCode":"PH","countryName":"Philippines","latitude":"8.03333000","longitude":"126.16250000","wikiDataId":"Q31511448"},{"id":84691,"name":"Santa Monica","stateId":1314,"stateCode":"13","stateName":"Caraga","countryId":174,"countryCode":"PH","countryName":"Philippines","latitude":"10.02000000","longitude":"126.03833000","wikiDataId":"Q28958"},{"id":84730,"name":"Santo Tomas","stateId":1314,"stateCode":"13","stateName":"Caraga","countryId":174,"countryCode":"PH","countryName":"Philippines","latitude":"8.18583000","longitude":"125.80389000","wikiDataId":"Q314486"},{"id":84768,"name":"Sibagat","stateId":1314,"stateCode":"13","stateName":"Caraga","countryId":174,"countryCode":"PH","countryName":"Philippines","latitude":"8.82250000","longitude":"125.69750000","wikiDataId":"Q31518319"},{"id":84820,"name":"Sinubong","stateId":1314,"stateCode":"13","stateName":"Caraga","countryId":174,"countryCode":"PH","countryName":"Philippines","latitude":"8.06840000","longitude":"125.93080000","wikiDataId":"Q31521133"},{"id":84832,"name":"Sison","stateId":1314,"stateCode":"13","stateName":"Caraga","countryId":174,"countryCode":"PH","countryName":"Philippines","latitude":"9.66028000","longitude":"125.52861000","wikiDataId":"Q155905"},{"id":84835,"name":"Socorro","stateId":1314,"stateCode":"13","stateName":"Caraga","countryId":174,"countryCode":"PH","countryName":"Philippines","latitude":"9.62139000","longitude":"125.96667000","wikiDataId":"Q107612"},{"id":84882,"name":"Surigao","stateId":1314,"stateCode":"13","stateName":"Caraga","countryId":174,"countryCode":"PH","countryName":"Philippines","latitude":"9.78900000","longitude":"125.49500000","wikiDataId":"Q173986"},{"id":84927,"name":"Tagana-an","stateId":1314,"stateCode":"13","stateName":"Caraga","countryId":174,"countryCode":"PH","countryName":"Philippines","latitude":"9.69722000","longitude":"125.58556000","wikiDataId":"Q31541883"},{"id":84936,"name":"Tagbina","stateId":1314,"stateCode":"13","stateName":"Caraga","countryId":174,"countryCode":"PH","countryName":"Philippines","latitude":"8.45194000","longitude":"126.17139000","wikiDataId":"Q155633"},{"id":84940,"name":"Tagcatong","stateId":1314,"stateCode":"13","stateName":"Caraga","countryId":174,"countryCode":"PH","countryName":"Philippines","latitude":"9.00222000","longitude":"125.25694000","wikiDataId":"Q31542280"},{"id":84944,"name":"Tago","stateId":1314,"stateCode":"13","stateName":"Caraga","countryId":174,"countryCode":"PH","countryName":"Philippines","latitude":"9.02111000","longitude":"126.23167000","wikiDataId":"Q155648"},{"id":84961,"name":"Talacogon","stateId":1314,"stateCode":"13","stateName":"Caraga","countryId":174,"countryCode":"PH","countryName":"Philippines","latitude":"8.45611000","longitude":"125.78417000","wikiDataId":"Q31543149"},{"id":84975,"name":"Taligaman","stateId":1314,"stateCode":"13","stateName":"Caraga","countryId":174,"countryCode":"PH","countryName":"Philippines","latitude":"8.90444000","longitude":"125.65583000","wikiDataId":"Q31543623"},{"id":84982,"name":"Talisay","stateId":1314,"stateCode":"13","stateName":"Caraga","countryId":174,"countryCode":"PH","countryName":"Philippines","latitude":"9.81889000","longitude":"125.61556000","wikiDataId":"Q316500"},{"id":85031,"name":"Tandag","stateId":1314,"stateCode":"13","stateName":"Caraga","countryId":174,"countryCode":"PH","countryName":"Philippines","latitude":"9.07833000","longitude":"126.19861000","wikiDataId":"Q155674"},{"id":85099,"name":"Tidman","stateId":1314,"stateCode":"13","stateName":"Caraga","countryId":174,"countryCode":"PH","countryName":"Philippines","latitude":"8.29861000","longitude":"126.33889000","wikiDataId":"Q31555326"},{"id":85101,"name":"Tigao","stateId":1314,"stateCode":"13","stateName":"Caraga","countryId":174,"countryCode":"PH","countryName":"Philippines","latitude":"9.20889000","longitude":"126.17611000","wikiDataId":"Q31555536"},{"id":85178,"name":"Trento","stateId":1314,"stateCode":"13","stateName":"Caraga","countryId":174,"countryCode":"PH","countryName":"Philippines","latitude":"8.04583000","longitude":"126.06361000","wikiDataId":"Q31560282"},{"id":85181,"name":"Tubajon","stateId":1314,"stateCode":"13","stateName":"Caraga","countryId":174,"countryCode":"PH","countryName":"Philippines","latitude":"10.33167000","longitude":"125.56194000","wikiDataId":"Q314374"},{"id":85188,"name":"Tubay","stateId":1314,"stateCode":"13","stateName":"Caraga","countryId":174,"countryCode":"PH","countryName":"Philippines","latitude":"9.16694000","longitude":"125.52389000","wikiDataId":"Q176975"},{"id":85194,"name":"Tubod","stateId":1314,"stateCode":"13","stateName":"Caraga","countryId":174,"countryCode":"PH","countryName":"Philippines","latitude":"9.56250000","longitude":"125.57083000","wikiDataId":"Q155946"},{"id":85226,"name":"Tungao","stateId":1314,"stateCode":"13","stateName":"Caraga","countryId":174,"countryCode":"PH","countryName":"Philippines","latitude":"8.78368000","longitude":"125.59587000","wikiDataId":"Q213455"},{"id":85254,"name":"Unidad","stateId":1314,"stateCode":"13","stateName":"Caraga","countryId":174,"countryCode":"PH","countryName":"Philippines","latitude":"8.53556000","longitude":"126.22865000","wikiDataId":"Q31567927"},{"id":85259,"name":"Union","stateId":1314,"stateCode":"13","stateName":"Caraga","countryId":174,"countryCode":"PH","countryName":"Philippines","latitude":"9.75667000","longitude":"126.11028000","wikiDataId":"Q31568006"},{"id":85282,"name":"Veruela","stateId":1314,"stateCode":"13","stateName":"Caraga","countryId":174,"countryCode":"PH","countryName":"Philippines","latitude":"8.07310000","longitude":"125.95580000","wikiDataId":"Q627349"}]