[{"id":110974,"name":"Aberdeen","stateId":1430,"stateCode":"MS","stateName":"Mississippi","countryId":233,"countryCode":"US","countryName":"United States","latitude":"33.82511000","longitude":"-88.54366000","wikiDataId":"Q1065452"},{"id":110996,"name":"Ackerman","stateId":1430,"stateCode":"MS","stateName":"Mississippi","countryId":233,"countryCode":"US","countryName":"United States","latitude":"33.31012000","longitude":"-89.17284000","wikiDataId":"Q2310766"},{"id":111018,"name":"Adams County","stateId":1430,"stateCode":"MS","stateName":"Mississippi","countryId":233,"countryCode":"US","countryName":"United States","latitude":"31.48294000","longitude":"-91.35350000","wikiDataId":"Q108788"},{"id":111134,"name":"Alcorn County","stateId":1430,"stateCode":"MS","stateName":"Mississippi","countryId":233,"countryCode":"US","countryName":"United States","latitude":"34.88077000","longitude":"-88.58026000","wikiDataId":"Q111286"},{"id":111289,"name":"Amite County","stateId":1430,"stateCode":"MS","stateName":"Mississippi","countryId":233,"countryCode":"US","countryName":"United States","latitude":"31.17440000","longitude":"-90.80443000","wikiDataId":"Q112456"},{"id":111294,"name":"Amory","stateId":1430,"stateCode":"MS","stateName":"Mississippi","countryId":233,"countryCode":"US","countryName":"United States","latitude":"33.98428000","longitude":"-88.48810000","wikiDataId":"Q867503"},{"id":111489,"name":"Arnold Line","stateId":1430,"stateCode":"MS","stateName":"Mississippi","countryId":233,"countryCode":"US","countryName":"United States","latitude":"31.33517000","longitude":"-89.37340000","wikiDataId":"Q16086588"},{"id":111530,"name":"Ashland","stateId":1430,"stateCode":"MS","stateName":"Mississippi","countryId":233,"countryCode":"US","countryName":"United States","latitude":"34.83287000","longitude":"-89.17590000","wikiDataId":"Q1838992"},{"id":111607,"name":"Attala County","stateId":1430,"stateCode":"MS","stateName":"Mississippi","countryId":233,"countryCode":"US","countryName":"United States","latitude":"33.08629000","longitude":"-89.58155000","wikiDataId":"Q483862"},{"id":111766,"name":"Baldwyn","stateId":1430,"stateCode":"MS","stateName":"Mississippi","countryId":233,"countryCode":"US","countryName":"United States","latitude":"34.50954000","longitude":"-88.63533000","wikiDataId":"Q2190653"},{"id":111894,"name":"Batesville","stateId":1430,"stateCode":"MS","stateName":"Mississippi","countryId":233,"countryCode":"US","countryName":"United States","latitude":"34.31150000","longitude":"-89.94426000","wikiDataId":"Q810776"},{"id":111933,"name":"Bay Saint Louis","stateId":1430,"stateCode":"MS","stateName":"Mississippi","countryId":233,"countryCode":"US","countryName":"United States","latitude":"30.30881000","longitude":"-89.33005000","wikiDataId":"Q1778775"},{"id":111935,"name":"Bay Springs","stateId":1430,"stateCode":"MS","stateName":"Mississippi","countryId":233,"countryCode":"US","countryName":"United States","latitude":"31.97904000","longitude":"-89.28728000","wikiDataId":"Q2085212"},{"id":112041,"name":"Beechwood","stateId":1430,"stateCode":"MS","stateName":"Mississippi","countryId":233,"countryCode":"US","countryName":"United States","latitude":"32.32765000","longitude":"-90.82677000","wikiDataId":"Q8245600"},{"id":112135,"name":"Belmont","stateId":1430,"stateCode":"MS","stateName":"Mississippi","countryId":233,"countryCode":"US","countryName":"United States","latitude":"34.50982000","longitude":"-88.20921000","wikiDataId":"Q2276225"},{"id":112158,"name":"Belzoni","stateId":1430,"stateCode":"MS","stateName":"Mississippi","countryId":233,"countryCode":"US","countryName":"United States","latitude":"33.18429000","longitude":"-90.48926000","wikiDataId":"Q792601"},{"id":112201,"name":"Benton County","stateId":1430,"stateCode":"MS","stateName":"Mississippi","countryId":233,"countryCode":"US","countryName":"United States","latitude":"34.81729000","longitude":"-89.18848000","wikiDataId":"Q110655"},{"id":112347,"name":"Biloxi","stateId":1430,"stateCode":"MS","stateName":"Mississippi","countryId":233,"countryCode":"US","countryName":"United States","latitude":"30.39603000","longitude":"-88.88531000","wikiDataId":"Q490720"},{"id":112521,"name":"Bolivar County","stateId":1430,"stateCode":"MS","stateName":"Mississippi","countryId":233,"countryCode":"US","countryName":"United States","latitude":"33.79554000","longitude":"-90.88040000","wikiDataId":"Q115356"},{"id":112564,"name":"Booneville","stateId":1430,"stateCode":"MS","stateName":"Mississippi","countryId":233,"countryCode":"US","countryName":"United States","latitude":"34.65815000","longitude":"-88.56672000","wikiDataId":"Q2018726"},{"id":112689,"name":"Brandon","stateId":1430,"stateCode":"MS","stateName":"Mississippi","countryId":233,"countryCode":"US","countryName":"United States","latitude":"32.27320000","longitude":"-89.98592000","wikiDataId":"Q1998371"},{"id":112857,"name":"Brookhaven","stateId":1430,"stateCode":"MS","stateName":"Mississippi","countryId":233,"countryCode":"US","countryName":"United States","latitude":"31.57906000","longitude":"-90.44065000","wikiDataId":"Q585790"},{"id":112892,"name":"Brooksville","stateId":1430,"stateCode":"MS","stateName":"Mississippi","countryId":233,"countryCode":"US","countryName":"United States","latitude":"33.23457000","longitude":"-88.58227000","wikiDataId":"Q892252"},{"id":112942,"name":"Bruce","stateId":1430,"stateCode":"MS","stateName":"Mississippi","countryId":233,"countryCode":"US","countryName":"United States","latitude":"33.99206000","longitude":"-89.34896000","wikiDataId":"Q2303910"},{"id":112995,"name":"Bude","stateId":1430,"stateCode":"MS","stateName":"Mississippi","countryId":233,"countryCode":"US","countryName":"United States","latitude":"31.46295000","longitude":"-90.85010000","wikiDataId":"Q782881"},{"id":113135,"name":"Byhalia","stateId":1430,"stateCode":"MS","stateName":"Mississippi","countryId":233,"countryCode":"US","countryName":"United States","latitude":"34.87232000","longitude":"-89.69064000","wikiDataId":"Q892509"},{"id":113139,"name":"Byram","stateId":1430,"stateCode":"MS","stateName":"Mississippi","countryId":233,"countryCode":"US","countryName":"United States","latitude":"32.17932000","longitude":"-90.24537000","wikiDataId":"Q867166"},{"id":113188,"name":"Caledonia","stateId":1430,"stateCode":"MS","stateName":"Mississippi","countryId":233,"countryCode":"US","countryName":"United States","latitude":"33.68289000","longitude":"-88.32448000","wikiDataId":"Q2103349"},{"id":113199,"name":"Calhoun City","stateId":1430,"stateCode":"MS","stateName":"Mississippi","countryId":233,"countryCode":"US","countryName":"United States","latitude":"33.85539000","longitude":"-89.31146000","wikiDataId":"Q867145"},{"id":113205,"name":"Calhoun County","stateId":1430,"stateCode":"MS","stateName":"Mississippi","countryId":233,"countryCode":"US","countryName":"United States","latitude":"33.93645000","longitude":"-89.33645000","wikiDataId":"Q109512"},{"id":113340,"name":"Canton","stateId":1430,"stateCode":"MS","stateName":"Mississippi","countryId":233,"countryCode":"US","countryName":"United States","latitude":"32.61264000","longitude":"-90.03675000","wikiDataId":"Q1998325"},{"id":113445,"name":"Carriere","stateId":1430,"stateCode":"MS","stateName":"Mississippi","countryId":233,"countryCode":"US","countryName":"United States","latitude":"30.61686000","longitude":"-89.65256000","wikiDataId":"Q5046378"},{"id":113455,"name":"Carroll County","stateId":1430,"stateCode":"MS","stateName":"Mississippi","countryId":233,"countryCode":"US","countryName":"United States","latitude":"33.44853000","longitude":"-89.92020000","wikiDataId":"Q112499"},{"id":113468,"name":"Carrollton","stateId":1430,"stateCode":"MS","stateName":"Mississippi","countryId":233,"countryCode":"US","countryName":"United States","latitude":"33.50818000","longitude":"-89.92036000","wikiDataId":"Q2276201"},{"id":113492,"name":"Carthage","stateId":1430,"stateCode":"MS","stateName":"Mississippi","countryId":233,"countryCode":"US","countryName":"United States","latitude":"32.73264000","longitude":"-89.53618000","wikiDataId":"Q961393"},{"id":113694,"name":"Centreville","stateId":1430,"stateCode":"MS","stateName":"Mississippi","countryId":233,"countryCode":"US","countryName":"United States","latitude":"31.08962000","longitude":"-91.06844000","wikiDataId":"Q2303326"},{"id":113764,"name":"Charleston","stateId":1430,"stateCode":"MS","stateName":"Mississippi","countryId":233,"countryCode":"US","countryName":"United States","latitude":"34.00678000","longitude":"-90.05676000","wikiDataId":"Q2276137"},{"id":113939,"name":"Chickasaw County","stateId":1430,"stateCode":"MS","stateName":"Mississippi","countryId":233,"countryCode":"US","countryName":"United States","latitude":"33.92080000","longitude":"-88.94786000","wikiDataId":"Q156445"},{"id":113987,"name":"Choctaw County","stateId":1430,"stateCode":"MS","stateName":"Mississippi","countryId":233,"countryCode":"US","countryName":"United States","latitude":"33.34731000","longitude":"-89.24838000","wikiDataId":"Q130083"},{"id":114093,"name":"Claiborne County","stateId":1430,"stateCode":"MS","stateName":"Mississippi","countryId":233,"countryCode":"US","countryName":"United States","latitude":"31.97369000","longitude":"-90.91181000","wikiDataId":"Q492488"},{"id":114136,"name":"Clarke County","stateId":1430,"stateCode":"MS","stateName":"Mississippi","countryId":233,"countryCode":"US","countryName":"United States","latitude":"32.04140000","longitude":"-88.68940000","wikiDataId":"Q115349"},{"id":114145,"name":"Clarksdale","stateId":1430,"stateCode":"MS","stateName":"Mississippi","countryId":233,"countryCode":"US","countryName":"United States","latitude":"34.20011000","longitude":"-90.57093000","wikiDataId":"Q990145"},{"id":114182,"name":"Clay County","stateId":1430,"stateCode":"MS","stateName":"Mississippi","countryId":233,"countryCode":"US","countryName":"United States","latitude":"33.65567000","longitude":"-88.78157000","wikiDataId":"Q111291"},{"id":114228,"name":"Cleary","stateId":1430,"stateCode":"MS","stateName":"Mississippi","countryId":233,"countryCode":"US","countryName":"United States","latitude":"32.16543000","longitude":"-90.18064000","wikiDataId":"Q175799"},{"id":114243,"name":"Cleveland","stateId":1430,"stateCode":"MS","stateName":"Mississippi","countryId":233,"countryCode":"US","countryName":"United States","latitude":"33.74400000","longitude":"-90.72482000","wikiDataId":"Q222472"},{"id":114274,"name":"Clinton","stateId":1430,"stateCode":"MS","stateName":"Mississippi","countryId":233,"countryCode":"US","countryName":"United States","latitude":"32.34153000","longitude":"-90.32176000","wikiDataId":"Q540861"},{"id":114325,"name":"Coahoma County","stateId":1430,"stateCode":"MS","stateName":"Mississippi","countryId":233,"countryCode":"US","countryName":"United States","latitude":"34.22917000","longitude":"-90.60269000","wikiDataId":"Q156575"},{"id":114393,"name":"Coldwater","stateId":1430,"stateCode":"MS","stateName":"Mississippi","countryId":233,"countryCode":"US","countryName":"United States","latitude":"34.69177000","longitude":"-89.97731000","wikiDataId":"Q892656"},{"id":114431,"name":"Collins","stateId":1430,"stateCode":"MS","stateName":"Mississippi","countryId":233,"countryCode":"US","countryName":"United States","latitude":"31.64544000","longitude":"-89.55535000","wikiDataId":"Q2076243"},{"id":114435,"name":"Collinsville","stateId":1430,"stateCode":"MS","stateName":"Mississippi","countryId":233,"countryCode":"US","countryName":"United States","latitude":"32.49792000","longitude":"-88.84588000","wikiDataId":"Q2634302"},{"id":114469,"name":"Columbia","stateId":1430,"stateCode":"MS","stateName":"Mississippi","countryId":233,"countryCode":"US","countryName":"United States","latitude":"31.25184000","longitude":"-89.83758000","wikiDataId":"Q2076280"},{"id":114494,"name":"Columbus","stateId":1430,"stateCode":"MS","stateName":"Mississippi","countryId":233,"countryCode":"US","countryName":"United States","latitude":"33.49567000","longitude":"-88.42726000","wikiDataId":"Q985648"},{"id":114501,"name":"Columbus Air Force Base","stateId":1430,"stateCode":"MS","stateName":"Mississippi","countryId":233,"countryCode":"US","countryName":"United States","latitude":"33.63239000","longitude":"-88.45153000","wikiDataId":"Q2463946"},{"id":114527,"name":"Como","stateId":1430,"stateCode":"MS","stateName":"Mississippi","countryId":233,"countryCode":"US","countryName":"United States","latitude":"34.51066000","longitude":"-89.93981000","wikiDataId":"Q1950328"},{"id":114551,"name":"Conehatta","stateId":1430,"stateCode":"MS","stateName":"Mississippi","countryId":233,"countryCode":"US","countryName":"United States","latitude":"32.45125000","longitude":"-89.28534000","wikiDataId":"Q1900826"},{"id":114617,"name":"Copiah County","stateId":1430,"stateCode":"MS","stateName":"Mississippi","countryId":233,"countryCode":"US","countryName":"United States","latitude":"31.86924000","longitude":"-90.44880000","wikiDataId":"Q485420"},{"id":114643,"name":"Corinth","stateId":1430,"stateCode":"MS","stateName":"Mississippi","countryId":233,"countryCode":"US","countryName":"United States","latitude":"34.93425000","longitude":"-88.52227000","wikiDataId":"Q1992093"},{"id":114743,"name":"Covington County","stateId":1430,"stateCode":"MS","stateName":"Mississippi","countryId":233,"countryCode":"US","countryName":"United States","latitude":"31.63322000","longitude":"-89.55263000","wikiDataId":"Q486064"},{"id":114884,"name":"Crystal Springs","stateId":1430,"stateCode":"MS","stateName":"Mississippi","countryId":233,"countryCode":"US","countryName":"United States","latitude":"31.98738000","longitude":"-90.35704000","wikiDataId":"Q2076340"},{"id":114961,"name":"D'Iberville","stateId":1430,"stateCode":"MS","stateName":"Mississippi","countryId":233,"countryCode":"US","countryName":"United States","latitude":"30.42631000","longitude":"-88.89086000","wikiDataId":"Q979265"},{"id":115106,"name":"De Kalb","stateId":1430,"stateCode":"MS","stateName":"Mississippi","countryId":233,"countryCode":"US","countryName":"United States","latitude":"32.76763000","longitude":"-88.65088000","wikiDataId":"Q2256329"},{"id":115111,"name":"De Lisle","stateId":1430,"stateCode":"MS","stateName":"Mississippi","countryId":233,"countryCode":"US","countryName":"United States","latitude":"30.37936000","longitude":"-89.26449000","wikiDataId":"Q2880140"},{"id":115119,"name":"De Soto County","stateId":1430,"stateCode":"MS","stateName":"Mississippi","countryId":233,"countryCode":"US","countryName":"United States","latitude":"34.87540000","longitude":"-89.99178000","wikiDataId":"Q339724"},{"id":115153,"name":"Decatur","stateId":1430,"stateCode":"MS","stateName":"Mississippi","countryId":233,"countryCode":"US","countryName":"United States","latitude":"32.43903000","longitude":"-89.10839000","wikiDataId":"Q2303135"},{"id":115263,"name":"Derma","stateId":1430,"stateCode":"MS","stateName":"Mississippi","countryId":233,"countryCode":"US","countryName":"United States","latitude":"33.85567000","longitude":"-89.28452000","wikiDataId":"Q762124"},{"id":115317,"name":"Diamondhead","stateId":1430,"stateCode":"MS","stateName":"Mississippi","countryId":233,"countryCode":"US","countryName":"United States","latitude":"30.39464000","longitude":"-89.36394000","wikiDataId":"Q2468977"},{"id":115473,"name":"Drew","stateId":1430,"stateCode":"MS","stateName":"Mississippi","countryId":233,"countryCode":"US","countryName":"United States","latitude":"33.80956000","longitude":"-90.52648000","wikiDataId":"Q892472"},{"id":115504,"name":"Duck Hill","stateId":1430,"stateCode":"MS","stateName":"Mississippi","countryId":233,"countryCode":"US","countryName":"United States","latitude":"33.63318000","longitude":"-89.71119000","wikiDataId":"Q1952672"},{"id":115566,"name":"Durant","stateId":1430,"stateCode":"MS","stateName":"Mississippi","countryId":233,"countryCode":"US","countryName":"United States","latitude":"33.07513000","longitude":"-89.85453000","wikiDataId":"Q798425"},{"id":115886,"name":"Edwards","stateId":1430,"stateCode":"MS","stateName":"Mississippi","countryId":233,"countryCode":"US","countryName":"United States","latitude":"32.33015000","longitude":"-90.60565000","wikiDataId":"Q1925376"},{"id":116035,"name":"Ellisville","stateId":1430,"stateCode":"MS","stateName":"Mississippi","countryId":233,"countryCode":"US","countryName":"United States","latitude":"31.60405000","longitude":"-89.19561000","wikiDataId":"Q528086"},{"id":116182,"name":"Escatawpa","stateId":1430,"stateCode":"MS","stateName":"Mississippi","countryId":233,"countryCode":"US","countryName":"United States","latitude":"30.44048000","longitude":"-88.54363000","wikiDataId":"Q546226"},{"id":116231,"name":"Eupora","stateId":1430,"stateCode":"MS","stateName":"Mississippi","countryId":233,"countryCode":"US","countryName":"United States","latitude":"33.54068000","longitude":"-89.26701000","wikiDataId":"Q578038"},{"id":116414,"name":"Farmington","stateId":1430,"stateCode":"MS","stateName":"Mississippi","countryId":233,"countryCode":"US","countryName":"United States","latitude":"34.93009000","longitude":"-88.45227000","wikiDataId":"Q892650"},{"id":116440,"name":"Fayette","stateId":1430,"stateCode":"MS","stateName":"Mississippi","countryId":233,"countryCode":"US","countryName":"United States","latitude":"31.71155000","longitude":"-91.06066000","wikiDataId":"Q2005247"},{"id":116571,"name":"Flora","stateId":1430,"stateCode":"MS","stateName":"Mississippi","countryId":233,"countryCode":"US","countryName":"United States","latitude":"32.54320000","longitude":"-90.30926000","wikiDataId":"Q2424998"},{"id":116579,"name":"Florence","stateId":1430,"stateCode":"MS","stateName":"Mississippi","countryId":233,"countryCode":"US","countryName":"United States","latitude":"32.15348000","longitude":"-90.13120000","wikiDataId":"Q2303273"},{"id":116604,"name":"Flowood","stateId":1430,"stateCode":"MS","stateName":"Mississippi","countryId":233,"countryCode":"US","countryName":"United States","latitude":"32.30959000","longitude":"-90.13898000","wikiDataId":"Q2160623"},{"id":116643,"name":"Forest","stateId":1430,"stateCode":"MS","stateName":"Mississippi","countryId":233,"countryCode":"US","countryName":"United States","latitude":"32.36459000","longitude":"-89.47423000","wikiDataId":"Q938229"},{"id":116680,"name":"Forrest County","stateId":1430,"stateCode":"MS","stateName":"Mississippi","countryId":233,"countryCode":"US","countryName":"United States","latitude":"31.18887000","longitude":"-89.25786000","wikiDataId":"Q491221"},{"id":116852,"name":"Franklin County","stateId":1430,"stateCode":"MS","stateName":"Mississippi","countryId":233,"countryCode":"US","countryName":"United States","latitude":"31.47715000","longitude":"-90.89785000","wikiDataId":"Q130006"},{"id":116942,"name":"Friars Point","stateId":1430,"stateCode":"MS","stateName":"Mississippi","countryId":233,"countryCode":"US","countryName":"United States","latitude":"34.37088000","longitude":"-90.63834000","wikiDataId":"Q2113775"},{"id":116988,"name":"Fulton","stateId":1430,"stateCode":"MS","stateName":"Mississippi","countryId":233,"countryCode":"US","countryName":"United States","latitude":"34.27399000","longitude":"-88.40921000","wikiDataId":"Q1811625"},{"id":117126,"name":"Gautier","stateId":1430,"stateCode":"MS","stateName":"Mississippi","countryId":233,"countryCode":"US","countryName":"United States","latitude":"30.38575000","longitude":"-88.61169000","wikiDataId":"Q1778760"},{"id":117153,"name":"George County","stateId":1430,"stateCode":"MS","stateName":"Mississippi","countryId":233,"countryCode":"US","countryName":"United States","latitude":"30.86261000","longitude":"-88.64403000","wikiDataId":"Q485445"},{"id":117281,"name":"Glendale","stateId":1430,"stateCode":"MS","stateName":"Mississippi","countryId":233,"countryCode":"US","countryName":"United States","latitude":"31.36462000","longitude":"-89.30617000","wikiDataId":"Q3797385"},{"id":117388,"name":"Goodman","stateId":1430,"stateCode":"MS","stateName":"Mississippi","countryId":233,"countryCode":"US","countryName":"United States","latitude":"32.97013000","longitude":"-89.91231000","wikiDataId":"Q2412249"},{"id":117637,"name":"Greene County","stateId":1430,"stateCode":"MS","stateName":"Mississippi","countryId":233,"countryCode":"US","countryName":"United States","latitude":"31.21422000","longitude":"-88.63916000","wikiDataId":"Q485402"},{"id":117686,"name":"Greenville","stateId":1430,"stateCode":"MS","stateName":"Mississippi","countryId":233,"countryCode":"US","countryName":"United States","latitude":"33.40898000","longitude":"-91.05978000","wikiDataId":"Q988112"},{"id":117705,"name":"Greenwood","stateId":1430,"stateCode":"MS","stateName":"Mississippi","countryId":233,"countryCode":"US","countryName":"United States","latitude":"33.51623000","longitude":"-90.17953000","wikiDataId":"Q986376"},{"id":117720,"name":"Grenada","stateId":1430,"stateCode":"MS","stateName":"Mississippi","countryId":233,"countryCode":"US","countryName":"United States","latitude":"33.76900000","longitude":"-89.80842000","wikiDataId":"Q985543"},{"id":117721,"name":"Grenada County","stateId":1430,"stateCode":"MS","stateName":"Mississippi","countryId":233,"countryCode":"US","countryName":"United States","latitude":"33.76995000","longitude":"-89.80201000","wikiDataId":"Q490869"},{"id":117793,"name":"Gulf Hills","stateId":1430,"stateCode":"MS","stateName":"Mississippi","countryId":233,"countryCode":"US","countryName":"United States","latitude":"30.43048000","longitude":"-88.84225000","wikiDataId":"Q2709529"},{"id":117794,"name":"Gulf Park Estates","stateId":1430,"stateCode":"MS","stateName":"Mississippi","countryId":233,"countryCode":"US","countryName":"United States","latitude":"30.39187000","longitude":"-88.76114000","wikiDataId":"Q1834992"},{"id":117797,"name":"Gulfport","stateId":1430,"stateCode":"MS","stateName":"Mississippi","countryId":233,"countryCode":"US","countryName":"United States","latitude":"30.36742000","longitude":"-89.09282000","wikiDataId":"Q490587"},{"id":117807,"name":"Guntown","stateId":1430,"stateCode":"MS","stateName":"Mississippi","countryId":233,"countryCode":"US","countryName":"United States","latitude":"34.44316000","longitude":"-88.65978000","wikiDataId":"Q1986233"},{"id":117953,"name":"Hancock County","stateId":1430,"stateCode":"MS","stateName":"Mississippi","countryId":233,"countryCode":"US","countryName":"United States","latitude":"30.39378000","longitude":"-89.47456000","wikiDataId":"Q485441"},{"id":118064,"name":"Harrison County","stateId":1430,"stateCode":"MS","stateName":"Mississippi","countryId":233,"countryCode":"US","countryName":"United States","latitude":"30.41605000","longitude":"-89.08164000","wikiDataId":"Q485434"},{"id":118140,"name":"Hattiesburg","stateId":1430,"stateCode":"MS","stateName":"Mississippi","countryId":233,"countryCode":"US","countryName":"United States","latitude":"31.32712000","longitude":"-89.29034000","wikiDataId":"Q384464"},{"id":118212,"name":"Hazlehurst","stateId":1430,"stateCode":"MS","stateName":"Mississippi","countryId":233,"countryCode":"US","countryName":"United States","latitude":"31.86044000","longitude":"-90.39593000","wikiDataId":"Q1012303"},{"id":118249,"name":"Helena","stateId":1430,"stateCode":"MS","stateName":"Mississippi","countryId":233,"countryCode":"US","countryName":"United States","latitude":"30.49464000","longitude":"-88.49585000","wikiDataId":"Q974777"},{"id":118333,"name":"Hernando","stateId":1430,"stateCode":"MS","stateName":"Mississippi","countryId":233,"countryCode":"US","countryName":"United States","latitude":"34.82399000","longitude":"-89.99370000","wikiDataId":"Q2273128"},{"id":118368,"name":"Hickory Hills","stateId":1430,"stateCode":"MS","stateName":"Mississippi","countryId":233,"countryCode":"US","countryName":"United States","latitude":"30.45687000","longitude":"-88.63919000","wikiDataId":"Q1988344"},{"id":118381,"name":"Hide-A-Way Lake","stateId":1430,"stateCode":"MS","stateName":"Mississippi","countryId":233,"countryCode":"US","countryName":"United States","latitude":"30.56492000","longitude":"-89.64020000","wikiDataId":"Q1818463"},{"id":118448,"name":"Hillsboro","stateId":1430,"stateCode":"MS","stateName":"Mississippi","countryId":233,"countryCode":"US","countryName":"United States","latitude":"32.45931000","longitude":"-89.51146000","wikiDataId":"Q13624545"},{"id":118479,"name":"Hinds County","stateId":1430,"stateCode":"MS","stateName":"Mississippi","countryId":233,"countryCode":"US","countryName":"United States","latitude":"32.26670000","longitude":"-90.44282000","wikiDataId":"Q486538"},{"id":118541,"name":"Hollandale","stateId":1430,"stateCode":"MS","stateName":"Mississippi","countryId":233,"countryCode":"US","countryName":"United States","latitude":"33.16901000","longitude":"-90.85399000","wikiDataId":"Q867985"},{"id":118563,"name":"Holly Springs","stateId":1430,"stateCode":"MS","stateName":"Mississippi","countryId":233,"countryCode":"US","countryName":"United States","latitude":"34.76760000","longitude":"-89.44869000","wikiDataId":"Q2273202"},{"id":118572,"name":"Holmes County","stateId":1430,"stateCode":"MS","stateName":"Mississippi","countryId":233,"countryCode":"US","countryName":"United States","latitude":"33.12351000","longitude":"-90.09205000","wikiDataId":"Q485426"},{"id":118666,"name":"Horn Lake","stateId":1430,"stateCode":"MS","stateName":"Mississippi","countryId":233,"countryCode":"US","countryName":"United States","latitude":"34.95537000","longitude":"-90.03481000","wikiDataId":"Q600761"},{"id":118698,"name":"Houston","stateId":1430,"stateCode":"MS","stateName":"Mississippi","countryId":233,"countryCode":"US","countryName":"United States","latitude":"33.89845000","longitude":"-88.99923000","wikiDataId":"Q1004374"},{"id":118784,"name":"Humphreys County","stateId":1430,"stateCode":"MS","stateName":"Mississippi","countryId":233,"countryCode":"US","countryName":"United States","latitude":"33.12870000","longitude":"-90.52662000","wikiDataId":"Q130009"},{"id":118819,"name":"Hurley","stateId":1430,"stateCode":"MS","stateName":"Mississippi","countryId":233,"countryCode":"US","countryName":"United States","latitude":"30.66103000","longitude":"-88.49418000","wikiDataId":"Q762729"},{"id":118925,"name":"Indianola","stateId":1430,"stateCode":"MS","stateName":"Mississippi","countryId":233,"countryCode":"US","countryName":"United States","latitude":"33.45095000","longitude":"-90.65509000","wikiDataId":"Q867711"},{"id":119037,"name":"Issaquena County","stateId":1430,"stateCode":"MS","stateName":"Mississippi","countryId":233,"countryCode":"US","countryName":"United States","latitude":"32.74139000","longitude":"-90.98921000","wikiDataId":"Q490839"},{"id":119042,"name":"Itawamba County","stateId":1430,"stateCode":"MS","stateName":"Mississippi","countryId":233,"countryCode":"US","countryName":"United States","latitude":"34.27999000","longitude":"-88.36132000","wikiDataId":"Q490852"},{"id":119045,"name":"Itta Bena","stateId":1430,"stateCode":"MS","stateName":"Mississippi","countryId":233,"countryCode":"US","countryName":"United States","latitude":"33.49512000","longitude":"-90.31981000","wikiDataId":"Q867490"},{"id":119046,"name":"Iuka","stateId":1430,"stateCode":"MS","stateName":"Mississippi","countryId":233,"countryCode":"US","countryName":"United States","latitude":"34.81176000","longitude":"-88.19004000","wikiDataId":"Q1012278"},{"id":119065,"name":"Jackson","stateId":1430,"stateCode":"MS","stateName":"Mississippi","countryId":233,"countryCode":"US","countryName":"United States","latitude":"32.29876000","longitude":"-90.18481000","wikiDataId":"Q28198"},{"id":119084,"name":"Jackson County","stateId":1430,"stateCode":"MS","stateName":"Mississippi","countryId":233,"countryCode":"US","countryName":"United States","latitude":"30.46289000","longitude":"-88.62284000","wikiDataId":"Q485378"},{"id":119148,"name":"Jasper County","stateId":1430,"stateCode":"MS","stateName":"Mississippi","countryId":233,"countryCode":"US","countryName":"United States","latitude":"32.01911000","longitude":"-89.11886000","wikiDataId":"Q490843"},{"id":119184,"name":"Jefferson County","stateId":1430,"stateCode":"MS","stateName":"Mississippi","countryId":233,"countryCode":"US","countryName":"United States","latitude":"31.73421000","longitude":"-91.03718000","wikiDataId":"Q490884"},{"id":119199,"name":"Jefferson Davis County","stateId":1430,"stateCode":"MS","stateName":"Mississippi","countryId":233,"countryCode":"US","countryName":"United States","latitude":"31.56964000","longitude":"-89.82300000","wikiDataId":"Q491285"},{"id":119293,"name":"Jones County","stateId":1430,"stateCode":"MS","stateName":"Mississippi","countryId":233,"countryCode":"US","countryName":"United States","latitude":"31.62256000","longitude":"-89.16879000","wikiDataId":"Q130008"},{"id":119306,"name":"Jonestown","stateId":1430,"stateCode":"MS","stateName":"Mississippi","countryId":233,"countryCode":"US","countryName":"United States","latitude":"34.31955000","longitude":"-90.45565000","wikiDataId":"Q867125"},{"id":119410,"name":"Kearney Park","stateId":1430,"stateCode":"MS","stateName":"Mississippi","countryId":233,"countryCode":"US","countryName":"United States","latitude":"32.58903000","longitude":"-90.31537000","wikiDataId":"Q2837006"},{"id":119437,"name":"Kemper County","stateId":1430,"stateCode":"MS","stateName":"Mississippi","countryId":233,"countryCode":"US","countryName":"United States","latitude":"32.75456000","longitude":"-88.64116000","wikiDataId":"Q490864"},{"id":119564,"name":"Kiln","stateId":1430,"stateCode":"MS","stateName":"Mississippi","countryId":233,"countryCode":"US","countryName":"United States","latitude":"30.40908000","longitude":"-89.43505000","wikiDataId":"Q2131161"},{"id":119709,"name":"Kosciusko","stateId":1430,"stateCode":"MS","stateName":"Mississippi","countryId":233,"countryCode":"US","countryName":"United States","latitude":"33.05800000","longitude":"-89.58956000","wikiDataId":"Q2005238"},{"id":119841,"name":"Lafayette County","stateId":1430,"stateCode":"MS","stateName":"Mississippi","countryId":233,"countryCode":"US","countryName":"United States","latitude":"34.35675000","longitude":"-89.48492000","wikiDataId":"Q485383"},{"id":120063,"name":"Lamar County","stateId":1430,"stateCode":"MS","stateName":"Mississippi","countryId":233,"countryCode":"US","countryName":"United States","latitude":"31.20587000","longitude":"-89.50869000","wikiDataId":"Q490896"},{"id":120067,"name":"Lambert","stateId":1430,"stateCode":"MS","stateName":"Mississippi","countryId":233,"countryCode":"US","countryName":"United States","latitude":"34.20178000","longitude":"-90.28343000","wikiDataId":"Q867826"},{"id":120172,"name":"Latimer","stateId":1430,"stateCode":"MS","stateName":"Mississippi","countryId":233,"countryCode":"US","countryName":"United States","latitude":"30.53464000","longitude":"-88.86670000","wikiDataId":"Q2709543"},{"id":120180,"name":"Lauderdale County","stateId":1430,"stateCode":"MS","stateName":"Mississippi","countryId":233,"countryCode":"US","countryName":"United States","latitude":"32.40429000","longitude":"-88.66254000","wikiDataId":"Q485388"},{"id":120190,"name":"Laurel","stateId":1430,"stateCode":"MS","stateName":"Mississippi","countryId":233,"countryCode":"US","countryName":"United States","latitude":"31.69405000","longitude":"-89.13061000","wikiDataId":"Q934987"},{"id":120235,"name":"Lawrence County","stateId":1430,"stateCode":"MS","stateName":"Mississippi","countryId":233,"countryCode":"US","countryName":"United States","latitude":"31.55020000","longitude":"-90.10699000","wikiDataId":"Q491236"},{"id":120275,"name":"Leake County","stateId":1430,"stateCode":"MS","stateName":"Mississippi","countryId":233,"countryCode":"US","countryName":"United States","latitude":"32.75353000","longitude":"-89.52406000","wikiDataId":"Q490835"},{"id":120276,"name":"Leakesville","stateId":1430,"stateCode":"MS","stateName":"Mississippi","countryId":233,"countryCode":"US","countryName":"United States","latitude":"31.15574000","longitude":"-88.55780000","wikiDataId":"Q2085128"},{"id":120311,"name":"Lee County","stateId":1430,"stateCode":"MS","stateName":"Mississippi","countryId":233,"countryCode":"US","countryName":"United States","latitude":"34.28989000","longitude":"-88.68042000","wikiDataId":"Q491267"},{"id":120331,"name":"Leflore County","stateId":1430,"stateCode":"MS","stateName":"Mississippi","countryId":233,"countryCode":"US","countryName":"United States","latitude":"33.55052000","longitude":"-90.30106000","wikiDataId":"Q497607"},{"id":120349,"name":"Leland","stateId":1430,"stateCode":"MS","stateName":"Mississippi","countryId":233,"countryCode":"US","countryName":"United States","latitude":"33.40539000","longitude":"-90.89760000","wikiDataId":"Q867485"},{"id":120441,"name":"Lexington","stateId":1430,"stateCode":"MS","stateName":"Mississippi","countryId":233,"countryCode":"US","countryName":"United States","latitude":"33.11318000","longitude":"-90.05314000","wikiDataId":"Q943862"},{"id":120463,"name":"Liberty","stateId":1430,"stateCode":"MS","stateName":"Mississippi","countryId":233,"countryCode":"US","countryName":"United States","latitude":"31.15823000","longitude":"-90.81232000","wikiDataId":"Q944375"},{"id":120521,"name":"Lincoln County","stateId":1430,"stateCode":"MS","stateName":"Mississippi","countryId":233,"countryCode":"US","countryName":"United States","latitude":"31.53239000","longitude":"-90.45400000","wikiDataId":"Q485896"},{"id":120735,"name":"Long Beach","stateId":1430,"stateCode":"MS","stateName":"Mississippi","countryId":233,"countryCode":"US","countryName":"United States","latitude":"30.35048000","longitude":"-89.15282000","wikiDataId":"Q601477"},{"id":120814,"name":"Louisville","stateId":1430,"stateCode":"MS","stateName":"Mississippi","countryId":233,"countryCode":"US","countryName":"United States","latitude":"33.12374000","longitude":"-89.05506000","wikiDataId":"Q2073632"},{"id":120848,"name":"Lowndes County","stateId":1430,"stateCode":"MS","stateName":"Mississippi","countryId":233,"countryCode":"US","countryName":"United States","latitude":"33.47291000","longitude":"-88.44331000","wikiDataId":"Q490879"},{"id":120864,"name":"Lucedale","stateId":1430,"stateCode":"MS","stateName":"Mississippi","countryId":233,"countryCode":"US","countryName":"United States","latitude":"30.92519000","longitude":"-88.59002000","wikiDataId":"Q1822215"},{"id":120879,"name":"Lumberton","stateId":1430,"stateCode":"MS","stateName":"Mississippi","countryId":233,"countryCode":"US","countryName":"United States","latitude":"31.00129000","longitude":"-89.45229000","wikiDataId":"Q2113917"},{"id":120908,"name":"Lyman","stateId":1430,"stateCode":"MS","stateName":"Mississippi","countryId":233,"countryCode":"US","countryName":"United States","latitude":"30.49474000","longitude":"-89.12561000","wikiDataId":"Q2710262"},{"id":120914,"name":"Lynchburg","stateId":1430,"stateCode":"MS","stateName":"Mississippi","countryId":233,"countryCode":"US","countryName":"United States","latitude":"34.96232000","longitude":"-90.09593000","wikiDataId":"Q544819"},{"id":120966,"name":"Macon","stateId":1430,"stateCode":"MS","stateName":"Mississippi","countryId":233,"countryCode":"US","countryName":"United States","latitude":"33.10540000","longitude":"-88.56088000","wikiDataId":"Q2005266"},{"id":120989,"name":"Madison","stateId":1430,"stateCode":"MS","stateName":"Mississippi","countryId":233,"countryCode":"US","countryName":"United States","latitude":"32.46181000","longitude":"-90.11536000","wikiDataId":"Q979251"},{"id":121009,"name":"Madison County","stateId":1430,"stateCode":"MS","stateName":"Mississippi","countryId":233,"countryCode":"US","countryName":"United States","latitude":"32.63466000","longitude":"-90.03376000","wikiDataId":"Q491190"},{"id":121032,"name":"Magee","stateId":1430,"stateCode":"MS","stateName":"Mississippi","countryId":233,"countryCode":"US","countryName":"United States","latitude":"31.87377000","longitude":"-89.73369000","wikiDataId":"Q798802"},{"id":121036,"name":"Magnolia","stateId":1430,"stateCode":"MS","stateName":"Mississippi","countryId":233,"countryCode":"US","countryName":"United States","latitude":"31.14323000","longitude":"-90.45871000","wikiDataId":"Q2195934"},{"id":121153,"name":"Mantachie","stateId":1430,"stateCode":"MS","stateName":"Mississippi","countryId":233,"countryCode":"US","countryName":"United States","latitude":"34.32427000","longitude":"-88.49116000","wikiDataId":"Q669839"},{"id":121237,"name":"Marion","stateId":1430,"stateCode":"MS","stateName":"Mississippi","countryId":233,"countryCode":"US","countryName":"United States","latitude":"32.41736000","longitude":"-88.64782000","wikiDataId":"Q2425281"},{"id":121256,"name":"Marion County","stateId":1430,"stateCode":"MS","stateName":"Mississippi","countryId":233,"countryCode":"US","countryName":"United States","latitude":"31.23082000","longitude":"-89.82244000","wikiDataId":"Q490848"},{"id":121272,"name":"Marks","stateId":1430,"stateCode":"MS","stateName":"Mississippi","countryId":233,"countryCode":"US","countryName":"United States","latitude":"34.25683000","longitude":"-90.27298000","wikiDataId":"Q1845607"},{"id":121313,"name":"Marshall County","stateId":1430,"stateCode":"MS","stateName":"Mississippi","countryId":233,"countryCode":"US","countryName":"United States","latitude":"34.76225000","longitude":"-89.50305000","wikiDataId":"Q842902"},{"id":121434,"name":"Mayersville","stateId":1430,"stateCode":"MS","stateName":"Mississippi","countryId":233,"countryCode":"US","countryName":"United States","latitude":"32.90207000","longitude":"-91.05122000","wikiDataId":"Q2387079"},{"id":121474,"name":"McComb","stateId":1430,"stateCode":"MS","stateName":"Mississippi","countryId":233,"countryCode":"US","countryName":"United States","latitude":"31.24379000","longitude":"-90.45315000","wikiDataId":"Q846178"},{"id":121574,"name":"Meadville","stateId":1430,"stateCode":"MS","stateName":"Mississippi","countryId":233,"countryCode":"US","countryName":"United States","latitude":"31.47239000","longitude":"-90.89677000","wikiDataId":"Q924597"},{"id":121650,"name":"Mendenhall","stateId":1430,"stateCode":"MS","stateName":"Mississippi","countryId":233,"countryCode":"US","countryName":"United States","latitude":"31.96182000","longitude":"-89.87008000","wikiDataId":"Q593000"},{"id":121690,"name":"Meridian","stateId":1430,"stateCode":"MS","stateName":"Mississippi","countryId":233,"countryCode":"US","countryName":"United States","latitude":"32.36431000","longitude":"-88.70366000","wikiDataId":"Q118152"},{"id":121697,"name":"Meridian Station","stateId":1430,"stateCode":"MS","stateName":"Mississippi","countryId":233,"countryCode":"US","countryName":"United States","latitude":"32.55049000","longitude":"-88.61849000","wikiDataId":"Q2644229"},{"id":121732,"name":"Metcalfe","stateId":1430,"stateCode":"MS","stateName":"Mississippi","countryId":233,"countryCode":"US","countryName":"United States","latitude":"33.45400000","longitude":"-91.00733000","wikiDataId":"Q798646"},{"id":121830,"name":"Mikoma","stateId":1430,"stateCode":"MS","stateName":"Mississippi","countryId":233,"countryCode":"US","countryName":"United States","latitude":"33.95039000","longitude":"-90.28398000","wikiDataId":"Q1274891"},{"id":122075,"name":"Monroe County","stateId":1430,"stateCode":"MS","stateName":"Mississippi","countryId":233,"countryCode":"US","countryName":"United States","latitude":"33.89224000","longitude":"-88.48047000","wikiDataId":"Q491276"},{"id":122147,"name":"Montgomery County","stateId":1430,"stateCode":"MS","stateName":"Mississippi","countryId":233,"countryCode":"US","countryName":"United States","latitude":"33.49410000","longitude":"-89.61640000","wikiDataId":"Q490859"},{"id":122163,"name":"Monticello","stateId":1430,"stateCode":"MS","stateName":"Mississippi","countryId":233,"countryCode":"US","countryName":"United States","latitude":"31.55378000","longitude":"-90.10731000","wikiDataId":"Q2073653"},{"id":122211,"name":"Moorhead","stateId":1430,"stateCode":"MS","stateName":"Mississippi","countryId":233,"countryCode":"US","countryName":"United States","latitude":"33.45012000","longitude":"-90.50564000","wikiDataId":"Q867186"},{"id":122252,"name":"Morgantown","stateId":1430,"stateCode":"MS","stateName":"Mississippi","countryId":233,"countryCode":"US","countryName":"United States","latitude":"31.57267000","longitude":"-91.34761000","wikiDataId":"Q3612521"},{"id":122291,"name":"Morton","stateId":1430,"stateCode":"MS","stateName":"Mississippi","countryId":233,"countryCode":"US","countryName":"United States","latitude":"32.35376000","longitude":"-89.65452000","wikiDataId":"Q1949544"},{"id":122309,"name":"Moss Point","stateId":1430,"stateCode":"MS","stateName":"Mississippi","countryId":233,"countryCode":"US","countryName":"United States","latitude":"30.41159000","longitude":"-88.53446000","wikiDataId":"Q867104"},{"id":122319,"name":"Mound Bayou","stateId":1430,"stateCode":"MS","stateName":"Mississippi","countryId":233,"countryCode":"US","countryName":"United States","latitude":"33.87817000","longitude":"-90.72732000","wikiDataId":"Q867508"},{"id":122587,"name":"Natchez","stateId":1430,"stateCode":"MS","stateName":"Mississippi","countryId":233,"countryCode":"US","countryName":"United States","latitude":"31.56017000","longitude":"-91.40329000","wikiDataId":"Q944044"},{"id":122621,"name":"Nellieburg","stateId":1430,"stateCode":"MS","stateName":"Mississippi","countryId":233,"countryCode":"US","countryName":"United States","latitude":"32.40681000","longitude":"-88.77727000","wikiDataId":"Q960384"},{"id":122641,"name":"Neshoba County","stateId":1430,"stateCode":"MS","stateName":"Mississippi","countryId":233,"countryCode":"US","countryName":"United States","latitude":"32.75350000","longitude":"-89.11757000","wikiDataId":"Q426398"},{"id":122646,"name":"Nettleton","stateId":1430,"stateCode":"MS","stateName":"Mississippi","countryId":233,"countryCode":"US","countryName":"United States","latitude":"34.08900000","longitude":"-88.62227000","wikiDataId":"Q867516"},{"id":122655,"name":"New Albany","stateId":1430,"stateCode":"MS","stateName":"Mississippi","countryId":233,"countryCode":"US","countryName":"United States","latitude":"34.49427000","longitude":"-89.00784000","wikiDataId":"Q1779875"},{"id":122657,"name":"New Augusta","stateId":1430,"stateCode":"MS","stateName":"Mississippi","countryId":233,"countryCode":"US","countryName":"United States","latitude":"31.20263000","longitude":"-89.03668000","wikiDataId":"Q2272527"},{"id":122724,"name":"New Hope","stateId":1430,"stateCode":"MS","stateName":"Mississippi","countryId":233,"countryCode":"US","countryName":"United States","latitude":"33.46817000","longitude":"-88.32670000","wikiDataId":"Q2705428"},{"id":122860,"name":"Newton","stateId":1430,"stateCode":"MS","stateName":"Mississippi","countryId":233,"countryCode":"US","countryName":"United States","latitude":"32.32126000","longitude":"-89.16339000","wikiDataId":"Q2554527"},{"id":122871,"name":"Newton County","stateId":1430,"stateCode":"MS","stateName":"Mississippi","countryId":233,"countryCode":"US","countryName":"United States","latitude":"32.40023000","longitude":"-89.11881000","wikiDataId":"Q204761"},{"id":122893,"name":"Nicholson","stateId":1430,"stateCode":"MS","stateName":"Mississippi","countryId":233,"countryCode":"US","countryName":"United States","latitude":"30.47714000","longitude":"-89.69367000","wikiDataId":"Q3797246"},{"id":123116,"name":"North Tunica","stateId":1430,"stateCode":"MS","stateName":"Mississippi","countryId":233,"countryCode":"US","countryName":"United States","latitude":"34.70093000","longitude":"-90.37815000","wikiDataId":"Q2710253"},{"id":123212,"name":"Noxubee County","stateId":1430,"stateCode":"MS","stateName":"Mississippi","countryId":233,"countryCode":"US","countryName":"United States","latitude":"33.11011000","longitude":"-88.56982000","wikiDataId":"Q490215"},{"id":123337,"name":"Ocean Springs","stateId":1430,"stateCode":"MS","stateName":"Mississippi","countryId":233,"countryCode":"US","countryName":"United States","latitude":"30.41131000","longitude":"-88.82781000","wikiDataId":"Q1769542"},{"id":123409,"name":"Okolona","stateId":1430,"stateCode":"MS","stateName":"Mississippi","countryId":233,"countryCode":"US","countryName":"United States","latitude":"34.00178000","longitude":"-88.75533000","wikiDataId":"Q1951592"},{"id":123410,"name":"Oktibbeha County","stateId":1430,"stateCode":"MS","stateName":"Mississippi","countryId":233,"countryCode":"US","countryName":"United States","latitude":"33.42495000","longitude":"-88.87930000","wikiDataId":"Q497615"},{"id":123439,"name":"Olive Branch","stateId":1430,"stateCode":"MS","stateName":"Mississippi","countryId":233,"countryCode":"US","countryName":"United States","latitude":"34.96176000","longitude":"-89.82953000","wikiDataId":"Q867475"},{"id":123678,"name":"Oxford","stateId":1430,"stateCode":"MS","stateName":"Mississippi","countryId":233,"countryCode":"US","countryName":"United States","latitude":"34.36650000","longitude":"-89.51925000","wikiDataId":"Q983822"},{"id":123803,"name":"Panola County","stateId":1430,"stateCode":"MS","stateName":"Mississippi","countryId":233,"countryCode":"US","countryName":"United States","latitude":"34.36394000","longitude":"-89.95057000","wikiDataId":"Q490272"},{"id":123900,"name":"Pascagoula","stateId":1430,"stateCode":"MS","stateName":"Mississippi","countryId":233,"countryCode":"US","countryName":"United States","latitude":"30.36576000","longitude":"-88.55613000","wikiDataId":"Q913225"},{"id":123906,"name":"Pass Christian","stateId":1430,"stateCode":"MS","stateName":"Mississippi","countryId":233,"countryCode":"US","countryName":"United States","latitude":"30.31575000","longitude":"-89.24754000","wikiDataId":"Q867480"},{"id":123963,"name":"Pearl","stateId":1430,"stateCode":"MS","stateName":"Mississippi","countryId":233,"countryCode":"US","countryName":"United States","latitude":"32.27459000","longitude":"-90.13203000","wikiDataId":"Q1998349"},{"id":123967,"name":"Pearl River","stateId":1430,"stateCode":"MS","stateName":"Mississippi","countryId":233,"countryCode":"US","countryName":"United States","latitude":"32.78347000","longitude":"-89.22784000","wikiDataId":"Q1851252"},{"id":123969,"name":"Pearl River County","stateId":1430,"stateCode":"MS","stateName":"Mississippi","countryId":233,"countryCode":"US","countryName":"United States","latitude":"30.76858000","longitude":"-89.58978000","wikiDataId":"Q485392"},{"id":123971,"name":"Pearlington","stateId":1430,"stateCode":"MS","stateName":"Mississippi","countryId":233,"countryCode":"US","countryName":"United States","latitude":"30.24658000","longitude":"-89.61117000","wikiDataId":"Q2193281"},{"id":123987,"name":"Pelahatchie","stateId":1430,"stateCode":"MS","stateName":"Mississippi","countryId":233,"countryCode":"US","countryName":"United States","latitude":"32.31292000","longitude":"-89.79841000","wikiDataId":"Q867524"},{"id":124080,"name":"Perry County","stateId":1430,"stateCode":"MS","stateName":"Mississippi","countryId":233,"countryCode":"US","countryName":"United States","latitude":"31.17202000","longitude":"-88.99233000","wikiDataId":"Q490219"},{"id":124100,"name":"Petal","stateId":1430,"stateCode":"MS","stateName":"Mississippi","countryId":233,"countryCode":"US","countryName":"United States","latitude":"31.34656000","longitude":"-89.26006000","wikiDataId":"Q892242"},{"id":124125,"name":"Philadelphia","stateId":1430,"stateCode":"MS","stateName":"Mississippi","countryId":233,"countryCode":"US","countryName":"United States","latitude":"32.77152000","longitude":"-89.11673000","wikiDataId":"Q935334"},{"id":124153,"name":"Picayune","stateId":1430,"stateCode":"MS","stateName":"Mississippi","countryId":233,"countryCode":"US","countryName":"United States","latitude":"30.52556000","longitude":"-89.67788000","wikiDataId":"Q892694"},{"id":124154,"name":"Pickens","stateId":1430,"stateCode":"MS","stateName":"Mississippi","countryId":233,"countryCode":"US","countryName":"United States","latitude":"32.88374000","longitude":"-89.97147000","wikiDataId":"Q892389"},{"id":124192,"name":"Pike County","stateId":1430,"stateCode":"MS","stateName":"Mississippi","countryId":233,"countryCode":"US","countryName":"United States","latitude":"31.17491000","longitude":"-90.40416000","wikiDataId":"Q485035"},{"id":124290,"name":"Pittsboro","stateId":1430,"stateCode":"MS","stateName":"Mississippi","countryId":233,"countryCode":"US","countryName":"United States","latitude":"33.94039000","longitude":"-89.33757000","wikiDataId":"Q951753"},{"id":124348,"name":"Plantersville","stateId":1430,"stateCode":"MS","stateName":"Mississippi","countryId":233,"countryCode":"US","countryName":"United States","latitude":"34.21344000","longitude":"-88.66450000","wikiDataId":"Q2088706"},{"id":124476,"name":"Pontotoc","stateId":1430,"stateCode":"MS","stateName":"Mississippi","countryId":233,"countryCode":"US","countryName":"United States","latitude":"34.24788000","longitude":"-88.99867000","wikiDataId":"Q985208"},{"id":124477,"name":"Pontotoc County","stateId":1430,"stateCode":"MS","stateName":"Mississippi","countryId":233,"countryCode":"US","countryName":"United States","latitude":"34.22544000","longitude":"-89.03741000","wikiDataId":"Q490259"},{"id":124487,"name":"Poplarville","stateId":1430,"stateCode":"MS","stateName":"Mississippi","countryId":233,"countryCode":"US","countryName":"United States","latitude":"30.84019000","longitude":"-89.53423000","wikiDataId":"Q1023052"},{"id":124507,"name":"Port Gibson","stateId":1430,"stateCode":"MS","stateName":"Mississippi","countryId":233,"countryCode":"US","countryName":"United States","latitude":"31.96099000","longitude":"-90.98399000","wikiDataId":"Q2005276"},{"id":124640,"name":"Prentiss","stateId":1430,"stateCode":"MS","stateName":"Mississippi","countryId":233,"countryCode":"US","countryName":"United States","latitude":"31.59850000","longitude":"-89.86702000","wikiDataId":"Q539466"},{"id":124641,"name":"Prentiss County","stateId":1430,"stateCode":"MS","stateName":"Mississippi","countryId":233,"countryCode":"US","countryName":"United States","latitude":"34.61829000","longitude":"-88.52010000","wikiDataId":"Q497489"},{"id":124758,"name":"Purvis","stateId":1430,"stateCode":"MS","stateName":"Mississippi","countryId":233,"countryCode":"US","countryName":"United States","latitude":"31.14324000","longitude":"-89.40979000","wikiDataId":"Q2273168"},{"id":124806,"name":"Quitman","stateId":1430,"stateCode":"MS","stateName":"Mississippi","countryId":233,"countryCode":"US","countryName":"United States","latitude":"32.04015000","longitude":"-88.72810000","wikiDataId":"Q2073708"},{"id":124809,"name":"Quitman County","stateId":1430,"stateCode":"MS","stateName":"Mississippi","countryId":233,"countryCode":"US","countryName":"United States","latitude":"34.25141000","longitude":"-90.28912000","wikiDataId":"Q490266"},{"id":124830,"name":"Raleigh","stateId":1430,"stateCode":"MS","stateName":"Mississippi","countryId":233,"countryCode":"US","countryName":"United States","latitude":"32.03349000","longitude":"-89.52229000","wikiDataId":"Q2073563"},{"id":124885,"name":"Rankin County","stateId":1430,"stateCode":"MS","stateName":"Mississippi","countryId":233,"countryCode":"US","countryName":"United States","latitude":"32.26412000","longitude":"-89.94580000","wikiDataId":"Q490210"},{"id":124914,"name":"Rawls Springs","stateId":1430,"stateCode":"MS","stateName":"Mississippi","countryId":233,"countryCode":"US","countryName":"United States","latitude":"31.38073000","longitude":"-89.37145000","wikiDataId":"Q9066768"},{"id":124917,"name":"Raymond","stateId":1430,"stateCode":"MS","stateName":"Mississippi","countryId":233,"countryCode":"US","countryName":"United States","latitude":"32.25931000","longitude":"-90.42260000","wikiDataId":"Q1779125"},{"id":125069,"name":"Richland","stateId":1430,"stateCode":"MS","stateName":"Mississippi","countryId":233,"countryCode":"US","countryName":"United States","latitude":"32.23904000","longitude":"-90.15842000","wikiDataId":"Q625828"},{"id":125107,"name":"Richton","stateId":1430,"stateCode":"MS","stateName":"Mississippi","countryId":233,"countryCode":"US","countryName":"United States","latitude":"31.34934000","longitude":"-88.94005000","wikiDataId":"Q945338"},{"id":125123,"name":"Ridgeland","stateId":1430,"stateCode":"MS","stateName":"Mississippi","countryId":233,"countryCode":"US","countryName":"United States","latitude":"32.42848000","longitude":"-90.13231000","wikiDataId":"Q892431"},{"id":125162,"name":"Ripley","stateId":1430,"stateCode":"MS","stateName":"Mississippi","countryId":233,"countryCode":"US","countryName":"United States","latitude":"34.72982000","longitude":"-88.95062000","wikiDataId":"Q1924440"},{"id":125365,"name":"Rolling Fork","stateId":1430,"stateCode":"MS","stateName":"Mississippi","countryId":233,"countryCode":"US","countryName":"United States","latitude":"32.90652000","longitude":"-90.87816000","wikiDataId":"Q772856"},{"id":125417,"name":"Rosedale","stateId":1430,"stateCode":"MS","stateName":"Mississippi","countryId":233,"countryCode":"US","countryName":"United States","latitude":"33.85344000","longitude":"-91.02789000","wikiDataId":"Q2065882"},{"id":125506,"name":"Ruleville","stateId":1430,"stateCode":"MS","stateName":"Mississippi","countryId":233,"countryCode":"US","countryName":"United States","latitude":"33.72595000","longitude":"-90.55148000","wikiDataId":"Q112733"},{"id":125686,"name":"Saint Martin","stateId":1430,"stateCode":"MS","stateName":"Mississippi","countryId":233,"countryCode":"US","countryName":"United States","latitude":"30.43798000","longitude":"-88.86809000","wikiDataId":"Q2708896"},{"id":125769,"name":"Saltillo","stateId":1430,"stateCode":"MS","stateName":"Mississippi","countryId":233,"countryCode":"US","countryName":"United States","latitude":"34.37649000","longitude":"-88.68172000","wikiDataId":"Q2303231"},{"id":125948,"name":"Sardis","stateId":1430,"stateCode":"MS","stateName":"Mississippi","countryId":233,"countryCode":"US","countryName":"United States","latitude":"34.43705000","longitude":"-89.91592000","wikiDataId":"Q1018253"},{"id":125958,"name":"Saucier","stateId":1430,"stateCode":"MS","stateName":"Mississippi","countryId":233,"countryCode":"US","countryName":"United States","latitude":"30.63575000","longitude":"-89.13504000","wikiDataId":"Q2348732"},{"id":126048,"name":"Scott County","stateId":1430,"stateCode":"MS","stateName":"Mississippi","countryId":233,"countryCode":"US","countryName":"United States","latitude":"32.40638000","longitude":"-89.53764000","wikiDataId":"Q485250"},{"id":126153,"name":"Senatobia","stateId":1430,"stateCode":"MS","stateName":"Mississippi","countryId":233,"countryCode":"US","countryName":"United States","latitude":"34.61760000","longitude":"-89.96870000","wikiDataId":"Q2073595"},{"id":126219,"name":"Shannon","stateId":1430,"stateCode":"MS","stateName":"Mississippi","countryId":233,"countryCode":"US","countryName":"United States","latitude":"34.11622000","longitude":"-88.71172000","wikiDataId":"Q2424972"},{"id":126226,"name":"Sharkey County","stateId":1430,"stateCode":"MS","stateName":"Mississippi","countryId":233,"countryCode":"US","countryName":"United States","latitude":"32.87972000","longitude":"-90.81321000","wikiDataId":"Q497992"},{"id":126227,"name":"Sharon","stateId":1430,"stateCode":"MS","stateName":"Mississippi","countryId":233,"countryCode":"US","countryName":"United States","latitude":"31.78960000","longitude":"-89.09867000","wikiDataId":"Q497992"},{"id":126245,"name":"Shaw","stateId":1430,"stateCode":"MS","stateName":"Mississippi","countryId":233,"countryCode":"US","countryName":"United States","latitude":"33.60211000","longitude":"-90.77458000","wikiDataId":"Q592155"},{"id":126269,"name":"Shelby","stateId":1430,"stateCode":"MS","stateName":"Mississippi","countryId":233,"countryCode":"US","countryName":"United States","latitude":"33.95094000","longitude":"-90.76788000","wikiDataId":"Q2273179"},{"id":126450,"name":"Simpson County","stateId":1430,"stateCode":"MS","stateName":"Mississippi","countryId":233,"countryCode":"US","countryName":"United States","latitude":"31.91317000","longitude":"-89.91949000","wikiDataId":"Q490488"},{"id":126513,"name":"Smith County","stateId":1430,"stateCode":"MS","stateName":"Mississippi","countryId":233,"countryCode":"US","countryName":"United States","latitude":"32.01769000","longitude":"-89.50668000","wikiDataId":"Q484681"},{"id":126760,"name":"Southaven","stateId":1430,"stateCode":"MS","stateName":"Mississippi","countryId":233,"countryCode":"US","countryName":"United States","latitude":"34.98898000","longitude":"-90.01259000","wikiDataId":"Q768007"},{"id":126989,"name":"Starkville","stateId":1430,"stateCode":"MS","stateName":"Mississippi","countryId":233,"countryCode":"US","countryName":"United States","latitude":"33.45049000","longitude":"-88.81961000","wikiDataId":"Q770470"},{"id":127082,"name":"Stone County","stateId":1430,"stateCode":"MS","stateName":"Mississippi","countryId":233,"countryCode":"US","countryName":"United States","latitude":"30.78995000","longitude":"-89.11771000","wikiDataId":"Q490255"},{"id":127092,"name":"Stonewall","stateId":1430,"stateCode":"MS","stateName":"Mississippi","countryId":233,"countryCode":"US","countryName":"United States","latitude":"32.13181000","longitude":"-88.79338000","wikiDataId":"Q945938"},{"id":127211,"name":"Summit","stateId":1430,"stateCode":"MS","stateName":"Mississippi","countryId":233,"countryCode":"US","countryName":"United States","latitude":"31.28379000","longitude":"-90.46843000","wikiDataId":"Q2105278"},{"id":127226,"name":"Sumrall","stateId":1430,"stateCode":"MS","stateName":"Mississippi","countryId":233,"countryCode":"US","countryName":"United States","latitude":"31.41739000","longitude":"-89.54229000","wikiDataId":"Q2113784"},{"id":127251,"name":"Sunflower","stateId":1430,"stateCode":"MS","stateName":"Mississippi","countryId":233,"countryCode":"US","countryName":"United States","latitude":"33.54290000","longitude":"-90.53703000","wikiDataId":"Q627234"},{"id":127252,"name":"Sunflower County","stateId":1430,"stateCode":"MS","stateName":"Mississippi","countryId":233,"countryCode":"US","countryName":"United States","latitude":"33.60231000","longitude":"-90.58862000","wikiDataId":"Q484659"},{"id":127392,"name":"Tallahatchie County","stateId":1430,"stateCode":"MS","stateName":"Mississippi","countryId":233,"countryCode":"US","countryName":"United States","latitude":"33.95047000","longitude":"-90.17326000","wikiDataId":"Q490251"},{"id":127438,"name":"Tate County","stateId":1430,"stateCode":"MS","stateName":"Mississippi","countryId":233,"countryCode":"US","countryName":"United States","latitude":"34.65032000","longitude":"-89.94478000","wikiDataId":"Q486526"},{"id":127464,"name":"Taylorsville","stateId":1430,"stateCode":"MS","stateName":"Mississippi","countryId":233,"countryCode":"US","countryName":"United States","latitude":"31.82960000","longitude":"-89.42812000","wikiDataId":"Q2425124"},{"id":127472,"name":"Tchula","stateId":1430,"stateCode":"MS","stateName":"Mississippi","countryId":233,"countryCode":"US","countryName":"United States","latitude":"33.18290000","longitude":"-90.22286000","wikiDataId":"Q953392"},{"id":127530,"name":"Terry","stateId":1430,"stateCode":"MS","stateName":"Mississippi","countryId":233,"countryCode":"US","countryName":"United States","latitude":"32.09626000","longitude":"-90.29426000","wikiDataId":"Q2120746"},{"id":127672,"name":"Tippah County","stateId":1430,"stateCode":"MS","stateName":"Mississippi","countryId":233,"countryCode":"US","countryName":"United States","latitude":"34.76840000","longitude":"-88.90890000","wikiDataId":"Q484648"},{"id":127683,"name":"Tishomingo County","stateId":1430,"stateCode":"MS","stateName":"Mississippi","countryId":233,"countryCode":"US","countryName":"United States","latitude":"34.74043000","longitude":"-88.23932000","wikiDataId":"Q112834"},{"id":127891,"name":"Tunica","stateId":1430,"stateCode":"MS","stateName":"Mississippi","countryId":233,"countryCode":"US","countryName":"United States","latitude":"34.68455000","longitude":"-90.38288000","wikiDataId":"Q658447"},{"id":127892,"name":"Tunica County","stateId":1430,"stateCode":"MS","stateName":"Mississippi","countryId":233,"countryCode":"US","countryName":"United States","latitude":"34.65194000","longitude":"-90.37551000","wikiDataId":"Q484668"},{"id":127893,"name":"Tunica Resorts","stateId":1430,"stateCode":"MS","stateName":"Mississippi","countryId":233,"countryCode":"US","countryName":"United States","latitude":"34.83613000","longitude":"-90.34723000","wikiDataId":"Q3472009"},{"id":127897,"name":"Tupelo","stateId":1430,"stateCode":"MS","stateName":"Mississippi","countryId":233,"countryCode":"US","countryName":"United States","latitude":"34.25807000","longitude":"-88.70464000","wikiDataId":"Q667727"},{"id":127919,"name":"Tutwiler","stateId":1430,"stateCode":"MS","stateName":"Mississippi","countryId":233,"countryCode":"US","countryName":"United States","latitude":"34.01483000","longitude":"-90.43176000","wikiDataId":"Q1800261"},{"id":127944,"name":"Tylertown","stateId":1430,"stateCode":"MS","stateName":"Mississippi","countryId":233,"countryCode":"US","countryName":"United States","latitude":"31.11601000","longitude":"-90.14203000","wikiDataId":"Q2107971"},{"id":127972,"name":"Union","stateId":1430,"stateCode":"MS","stateName":"Mississippi","countryId":233,"countryCode":"US","countryName":"United States","latitude":"32.57153000","longitude":"-89.12145000","wikiDataId":"Q2301085"},{"id":127994,"name":"Union County","stateId":1430,"stateCode":"MS","stateName":"Mississippi","countryId":233,"countryCode":"US","countryName":"United States","latitude":"34.49047000","longitude":"-89.00386000","wikiDataId":"Q115344"},{"id":128024,"name":"University","stateId":1430,"stateCode":"MS","stateName":"Mississippi","countryId":233,"countryCode":"US","countryName":"United States","latitude":"34.36594000","longitude":"-89.52536000","wikiDataId":"Q3612349"},{"id":128143,"name":"Vancleave","stateId":1430,"stateCode":"MS","stateName":"Mississippi","countryId":233,"countryCode":"US","countryName":"United States","latitude":"30.54047000","longitude":"-88.68752000","wikiDataId":"Q2207723"},{"id":128154,"name":"Vardaman","stateId":1430,"stateCode":"MS","stateName":"Mississippi","countryId":233,"countryCode":"US","countryName":"United States","latitude":"33.87567000","longitude":"-89.17729000","wikiDataId":"Q2300967"},{"id":128201,"name":"Verona","stateId":1430,"stateCode":"MS","stateName":"Mississippi","countryId":233,"countryCode":"US","countryName":"United States","latitude":"34.19427000","longitude":"-88.71977000","wikiDataId":"Q867136"},{"id":128215,"name":"Vicksburg","stateId":1430,"stateCode":"MS","stateName":"Mississippi","countryId":233,"countryCode":"US","countryName":"United States","latitude":"32.35265000","longitude":"-90.87788000","wikiDataId":"Q493787"},{"id":128319,"name":"Wade","stateId":1430,"stateCode":"MS","stateName":"Mississippi","countryId":233,"countryCode":"US","countryName":"United States","latitude":"30.64242000","longitude":"-88.56974000","wikiDataId":"Q2533899"},{"id":128412,"name":"Walls","stateId":1430,"stateCode":"MS","stateName":"Mississippi","countryId":233,"countryCode":"US","countryName":"United States","latitude":"34.95824000","longitude":"-90.15256000","wikiDataId":"Q269472"},{"id":128418,"name":"Walnut Grove","stateId":1430,"stateCode":"MS","stateName":"Mississippi","countryId":233,"countryCode":"US","countryName":"United States","latitude":"32.59042000","longitude":"-89.45840000","wikiDataId":"Q1965755"},{"id":128430,"name":"Walthall","stateId":1430,"stateCode":"MS","stateName":"Mississippi","countryId":233,"countryCode":"US","countryName":"United States","latitude":"33.60734000","longitude":"-89.27729000","wikiDataId":"Q945878"},{"id":128431,"name":"Walthall County","stateId":1430,"stateCode":"MS","stateName":"Mississippi","countryId":233,"countryCode":"US","countryName":"United States","latitude":"31.14842000","longitude":"-90.10614000","wikiDataId":"Q115419"},{"id":128489,"name":"Warren County","stateId":1430,"stateCode":"MS","stateName":"Mississippi","countryId":233,"countryCode":"US","countryName":"United States","latitude":"32.35723000","longitude":"-90.85201000","wikiDataId":"Q156411"},{"id":128562,"name":"Washington County","stateId":1430,"stateCode":"MS","stateName":"Mississippi","countryId":233,"countryCode":"US","countryName":"United States","latitude":"33.28370000","longitude":"-90.94745000","wikiDataId":"Q484643"},{"id":128600,"name":"Water Valley","stateId":1430,"stateCode":"MS","stateName":"Mississippi","countryId":233,"countryCode":"US","countryName":"United States","latitude":"34.15150000","longitude":"-89.63147000","wikiDataId":"Q2273194"},{"id":128664,"name":"Waveland","stateId":1430,"stateCode":"MS","stateName":"Mississippi","countryId":233,"countryCode":"US","countryName":"United States","latitude":"30.28686000","longitude":"-89.37616000","wikiDataId":"Q1003689"},{"id":128694,"name":"Wayne County","stateId":1430,"stateCode":"MS","stateName":"Mississippi","countryId":233,"countryCode":"US","countryName":"United States","latitude":"31.64078000","longitude":"-88.69580000","wikiDataId":"Q266493"},{"id":128706,"name":"Waynesboro","stateId":1430,"stateCode":"MS","stateName":"Mississippi","countryId":233,"countryCode":"US","countryName":"United States","latitude":"31.67488000","longitude":"-88.64615000","wikiDataId":"Q540346"},{"id":128739,"name":"Webster County","stateId":1430,"stateCode":"MS","stateName":"Mississippi","countryId":233,"countryCode":"US","countryName":"United States","latitude":"33.61307000","longitude":"-89.28482000","wikiDataId":"Q486435"},{"id":128814,"name":"Wesson","stateId":1430,"stateCode":"MS","stateName":"Mississippi","countryId":233,"countryCode":"US","countryName":"United States","latitude":"31.70128000","longitude":"-90.39759000","wikiDataId":"Q2301147"},{"id":128882,"name":"West Gulfport","stateId":1430,"stateCode":"MS","stateName":"Mississippi","countryId":233,"countryCode":"US","countryName":"United States","latitude":"30.40409000","longitude":"-89.09420000","wikiDataId":"Q1183648"},{"id":128886,"name":"West Hattiesburg","stateId":1430,"stateCode":"MS","stateName":"Mississippi","countryId":233,"countryCode":"US","countryName":"United States","latitude":"31.31906000","longitude":"-89.37506000","wikiDataId":"Q608830"},{"id":128959,"name":"West Point","stateId":1430,"stateCode":"MS","stateName":"Mississippi","countryId":233,"countryCode":"US","countryName":"United States","latitude":"33.60762000","longitude":"-88.65033000","wikiDataId":"Q1994673"},{"id":129223,"name":"Wiggins","stateId":1430,"stateCode":"MS","stateName":"Mississippi","countryId":233,"countryCode":"US","countryName":"United States","latitude":"30.85824000","longitude":"-89.13533000","wikiDataId":"Q2273139"},{"id":129251,"name":"Wilkinson County","stateId":1430,"stateCode":"MS","stateName":"Mississippi","countryId":233,"countryCode":"US","countryName":"United States","latitude":"31.16107000","longitude":"-91.31092000","wikiDataId":"Q486513"},{"id":129422,"name":"Winona","stateId":1430,"stateCode":"MS","stateName":"Mississippi","countryId":233,"countryCode":"US","countryName":"United States","latitude":"33.48207000","longitude":"-89.72814000","wikiDataId":"Q732407"},{"id":129435,"name":"Winston County","stateId":1430,"stateCode":"MS","stateName":"Mississippi","countryId":233,"countryCode":"US","countryName":"United States","latitude":"33.08849000","longitude":"-89.03443000","wikiDataId":"Q486522"},{"id":129571,"name":"Woodville","stateId":1430,"stateCode":"MS","stateName":"Mississippi","countryId":233,"countryCode":"US","countryName":"United States","latitude":"31.10462000","longitude":"-91.29956000","wikiDataId":"Q2301021"},{"id":129656,"name":"Yalobusha County","stateId":1430,"stateCode":"MS","stateName":"Mississippi","countryId":233,"countryCode":"US","countryName":"United States","latitude":"34.02821000","longitude":"-89.70763000","wikiDataId":"Q486480"},{"id":129673,"name":"Yazoo City","stateId":1430,"stateCode":"MS","stateName":"Mississippi","countryId":233,"countryCode":"US","countryName":"United States","latitude":"32.85513000","longitude":"-90.40565000","wikiDataId":"Q983832"},{"id":129674,"name":"Yazoo County","stateId":1430,"stateCode":"MS","stateName":"Mississippi","countryId":233,"countryCode":"US","countryName":"United States","latitude":"32.78031000","longitude":"-90.39642000","wikiDataId":"Q486466"}]