[{"id":107133,"name":"Alpu","stateId":2164,"stateCode":"26","stateName":"Eskişehir","countryId":225,"countryCode":"TR","countryName":"Turkey","latitude":"39.76903000","longitude":"30.96060000","wikiDataId":"Q2670757"},{"id":107339,"name":"Beylikova","stateId":2164,"stateCode":"26","stateName":"Eskişehir","countryId":225,"countryCode":"TR","countryName":"Turkey","latitude":"39.68694000","longitude":"31.20556000","wikiDataId":"Q794351"},{"id":108827,"name":"Çifteler","stateId":2164,"stateCode":"26","stateName":"Eskişehir","countryId":225,"countryCode":"TR","countryName":"Turkey","latitude":"39.38306000","longitude":"31.03917000","wikiDataId":"Q1911051"},{"id":107748,"name":"Günyüzü","stateId":2164,"stateCode":"26","stateName":"Eskişehir","countryId":225,"countryCode":"TR","countryName":"Turkey","latitude":"39.39410000","longitude":"31.81400000","wikiDataId":"Q1919824"},{"id":107786,"name":"Han","stateId":2164,"stateCode":"26","stateName":"Eskişehir","countryId":225,"countryCode":"TR","countryName":"Turkey","latitude":"39.15917000","longitude":"30.86139000","wikiDataId":"Q2417071"},{"id":108906,"name":"İnönü","stateId":2164,"stateCode":"26","stateName":"Eskişehir","countryId":225,"countryCode":"TR","countryName":"Turkey","latitude":"39.81534000","longitude":"30.14549000","wikiDataId":"Q2833269"},{"id":108138,"name":"Mahmudiye","stateId":2164,"stateCode":"26","stateName":"Eskişehir","countryId":225,"countryCode":"TR","countryName":"Turkey","latitude":"39.50724000","longitude":"30.99247000","wikiDataId":"Q214670"},{"id":108208,"name":"Mihalgazi","stateId":2164,"stateCode":"26","stateName":"Eskişehir","countryId":225,"countryCode":"TR","countryName":"Turkey","latitude":"40.02621000","longitude":"30.57707000","wikiDataId":"Q743601"},{"id":108210,"name":"Mihalıççık","stateId":2164,"stateCode":"26","stateName":"Eskişehir","countryId":225,"countryCode":"TR","countryName":"Turkey","latitude":"39.87564000","longitude":"31.50091000","wikiDataId":"Q377962"},{"id":108260,"name":"Odunpazarı","stateId":2164,"stateCode":"26","stateName":"Eskişehir","countryId":225,"countryCode":"TR","countryName":"Turkey","latitude":"39.76699000","longitude":"30.54113000","wikiDataId":"Q130470"},{"id":108398,"name":"Sarıcakaya","stateId":2164,"stateCode":"26","stateName":"Eskişehir","countryId":225,"countryCode":"TR","countryName":"Turkey","latitude":"40.04671000","longitude":"30.61994000","wikiDataId":"Q3056019"},{"id":108453,"name":"Seyitgazi","stateId":2164,"stateCode":"26","stateName":"Eskişehir","countryId":225,"countryCode":"TR","countryName":"Turkey","latitude":"39.44472000","longitude":"30.69472000","wikiDataId":"Q532164"},{"id":108481,"name":"Sivrihisar","stateId":2164,"stateCode":"26","stateName":"Eskişehir","countryId":225,"countryCode":"TR","countryName":"Turkey","latitude":"39.45037000","longitude":"31.53409000","wikiDataId":"Q928543"},{"id":108566,"name":"Tepebaşı","stateId":2164,"stateCode":"26","stateName":"Eskişehir","countryId":225,"countryCode":"TR","countryName":"Turkey","latitude":"39.78430000","longitude":"30.50206000","wikiDataId":"Q3906371"}]