[{"id":2764,"name":"Barima-Waini","countryId":94,"countryCode":"GY","countryName":"Guyana","stateCode":"BA","type":null,"latitude":"7.48824190","longitude":"-59.65644940"},{"id":2760,"name":"Cuyuni-Mazaruni","countryId":94,"countryCode":"GY","countryName":"Guyana","stateCode":"CU","type":null,"latitude":"6.46421410","longitude":"-60.21107520"},{"id":2767,"name":"Demerara-Mahaica","countryId":94,"countryCode":"GY","countryName":"Guyana","stateCode":"DE","type":null,"latitude":"6.54642600","longitude":"-58.09820460"},{"id":2766,"name":"East Berbice-Corentyne","countryId":94,"countryCode":"GY","countryName":"Guyana","stateCode":"EB","type":null,"latitude":"2.74779220","longitude":"-57.46272590"},{"id":2768,"name":"Essequibo Islands-West Demerara","countryId":94,"countryCode":"GY","countryName":"Guyana","stateCode":"ES","type":null,"latitude":"6.57201320","longitude":"-58.46299970"},{"id":2762,"name":"Mahaica-Berbice","countryId":94,"countryCode":"GY","countryName":"Guyana","stateCode":"MA","type":null,"latitude":"6.23849600","longitude":"-57.91625550"},{"id":2765,"name":"Pomeroon-Supenaam","countryId":94,"countryCode":"GY","countryName":"Guyana","stateCode":"PM","type":null,"latitude":"7.12941660","longitude":"-58.92062950"},{"id":2761,"name":"Potaro-Siparuni","countryId":94,"countryCode":"GY","countryName":"Guyana","stateCode":"PT","type":null,"latitude":"4.78558530","longitude":"-59.28799770"},{"id":2763,"name":"Upper Demerara-Berbice","countryId":94,"countryCode":"GY","countryName":"Guyana","stateCode":"UD","type":null,"latitude":"5.30648790","longitude":"-58.18929210"},{"id":2769,"name":"Upper Takutu-Upper Essequibo","countryId":94,"countryCode":"GY","countryName":"Guyana","stateCode":"UT","type":null,"latitude":"2.92395950","longitude":"-58.73736340"}]