[{"id":107145,"name":"Altınova","stateId":2218,"stateCode":"77","stateName":"Yalova","countryId":225,"countryCode":"TR","countryName":"Turkey","latitude":"40.69495000","longitude":"29.50986000","wikiDataId":"Q3233272"},{"id":107187,"name":"Armutlu","stateId":2218,"stateCode":"77","stateName":"Yalova","countryId":225,"countryCode":"TR","countryName":"Turkey","latitude":"40.52919000","longitude":"28.83871000","wikiDataId":"Q689620"},{"id":108831,"name":"Çiftlikköy","stateId":2218,"stateCode":"77","stateName":"Yalova","countryId":225,"countryCode":"TR","countryName":"Turkey","latitude":"40.66028000","longitude":"29.32361000","wikiDataId":"Q272835"},{"id":108856,"name":"Çınarcık","stateId":2218,"stateCode":"77","stateName":"Yalova","countryId":225,"countryCode":"TR","countryName":"Turkey","latitude":"40.64538000","longitude":"29.12450000","wikiDataId":"Q272992"},{"id":108665,"name":"Merkez","stateId":2218,"stateCode":"77","stateName":"Yalova","countryId":225,"countryCode":"TR","countryName":"Turkey","latitude":"40.65501000","longitude":"29.27693000","wikiDataId":"Q2577943"},{"id":108572,"name":"Termal","stateId":2218,"stateCode":"77","stateName":"Yalova","countryId":225,"countryCode":"TR","countryName":"Turkey","latitude":"40.61381000","longitude":"29.18049000","wikiDataId":"Q2665536"}]