[{"id":54424,"name":"Brodarica","stateId":730,"stateCode":"15","stateName":"Šibenik-Knin","countryId":55,"countryCode":"HR","countryName":"Croatia","latitude":"43.68000000","longitude":"15.91972000","wikiDataId":"Q283566"},{"id":54468,"name":"Drniš","stateId":730,"stateCode":"15","stateName":"Šibenik-Knin","countryId":55,"countryCode":"HR","countryName":"Croatia","latitude":"43.86250000","longitude":"16.15556000","wikiDataId":"Q398131"},{"id":54512,"name":"Grad Drniš","stateId":730,"stateCode":"15","stateName":"Šibenik-Knin","countryId":55,"countryCode":"HR","countryName":"Croatia","latitude":"43.83333000","longitude":"16.16667000","wikiDataId":"Q319276"},{"id":54572,"name":"Grad Šibenik","stateId":730,"stateCode":"15","stateName":"Šibenik-Knin","countryId":55,"countryCode":"HR","countryName":"Croatia","latitude":"43.73576000","longitude":"15.89602000","wikiDataId":"Q3549"},{"id":54646,"name":"Kistanje","stateId":730,"stateCode":"15","stateName":"Šibenik-Knin","countryId":55,"countryCode":"HR","countryName":"Croatia","latitude":"43.98278000","longitude":"15.96500000","wikiDataId":"Q1269951"},{"id":54652,"name":"Knin","stateId":730,"stateCode":"15","stateName":"Šibenik-Knin","countryId":55,"countryCode":"HR","countryName":"Croatia","latitude":"44.04063000","longitude":"16.19662000","wikiDataId":"Q208514"},{"id":54745,"name":"Murter","stateId":730,"stateCode":"15","stateName":"Šibenik-Knin","countryId":55,"countryCode":"HR","countryName":"Croatia","latitude":"43.82043000","longitude":"15.58988000","wikiDataId":"Q326952"},{"id":54746,"name":"Murter-Kornati","stateId":730,"stateCode":"15","stateName":"Šibenik-Knin","countryId":55,"countryCode":"HR","countryName":"Croatia","latitude":"43.80959000","longitude":"15.60024000","wikiDataId":"Q326952"},{"id":54808,"name":"Pirovac","stateId":730,"stateCode":"15","stateName":"Šibenik-Knin","countryId":55,"countryCode":"HR","countryName":"Croatia","latitude":"43.81917000","longitude":"15.67278000","wikiDataId":"Q600410"},{"id":54839,"name":"Primošten","stateId":730,"stateCode":"15","stateName":"Šibenik-Knin","countryId":55,"countryCode":"HR","countryName":"Croatia","latitude":"43.58632000","longitude":"15.92302000","wikiDataId":"Q837474"},{"id":54843,"name":"Promina","stateId":730,"stateCode":"15","stateName":"Šibenik-Knin","countryId":55,"countryCode":"HR","countryName":"Croatia","latitude":"43.95798000","longitude":"16.09737000","wikiDataId":"Q178965"},{"id":54864,"name":"Rogoznica","stateId":730,"stateCode":"15","stateName":"Šibenik-Knin","countryId":55,"countryCode":"HR","countryName":"Croatia","latitude":"43.52472000","longitude":"15.97000000","wikiDataId":"Q1013147"},{"id":54865,"name":"Rogoznica Općina","stateId":730,"stateCode":"15","stateName":"Šibenik-Knin","countryId":55,"countryCode":"HR","countryName":"Croatia","latitude":"43.53620000","longitude":"15.97086000","wikiDataId":"Q1013147"},{"id":55030,"name":"Šibenik","stateId":730,"stateCode":"15","stateName":"Šibenik-Knin","countryId":55,"countryCode":"HR","countryName":"Croatia","latitude":"43.72722000","longitude":"15.90583000","wikiDataId":"Q955681"},{"id":54894,"name":"Skradin","stateId":730,"stateCode":"15","stateName":"Šibenik-Knin","countryId":55,"countryCode":"HR","countryName":"Croatia","latitude":"43.82028000","longitude":"15.92361000","wikiDataId":"Q400036"},{"id":54936,"name":"Tisno","stateId":730,"stateCode":"15","stateName":"Šibenik-Knin","countryId":55,"countryCode":"HR","countryName":"Croatia","latitude":"43.80417000","longitude":"15.64333000","wikiDataId":"Q930516"},{"id":54940,"name":"Tribunj","stateId":730,"stateCode":"15","stateName":"Šibenik-Knin","countryId":55,"countryCode":"HR","countryName":"Croatia","latitude":"43.75547000","longitude":"15.74444000","wikiDataId":"Q607058"},{"id":54981,"name":"Vodice","stateId":730,"stateCode":"15","stateName":"Šibenik-Knin","countryId":55,"countryCode":"HR","countryName":"Croatia","latitude":"43.76083000","longitude":"15.78278000","wikiDataId":"Q750427"}]