[{"id":472,"name":"Bosnian Podrinje Canton","countryId":28,"countryCode":"BA","countryName":"Bosnia and Herzegovina","stateCode":"05","type":null,"latitude":"43.68749000","longitude":"18.82443940"},{"id":460,"name":"Brƒçko District","countryId":28,"countryCode":"BA","countryName":"Bosnia and Herzegovina","stateCode":"BRC","type":null,"latitude":"44.84059440","longitude":"18.74215300"},{"id":471,"name":"Canton 10","countryId":28,"countryCode":"BA","countryName":"Bosnia and Herzegovina","stateCode":"10","type":null,"latitude":"43.95341550","longitude":"16.94251870"},{"id":462,"name":"Central Bosnia Canton","countryId":28,"countryCode":"BA","countryName":"Bosnia and Herzegovina","stateCode":"06","type":null,"latitude":"44.13818560","longitude":"17.68667140"},{"id":467,"name":"Federation of Bosnia and Herzegovina","countryId":28,"countryCode":"BA","countryName":"Bosnia and Herzegovina","stateCode":"BIH","type":null,"latitude":"43.88748970","longitude":"17.84279300"},{"id":463,"name":"Herzegovina-Neretva Canton","countryId":28,"countryCode":"BA","countryName":"Bosnia and Herzegovina","stateCode":"07","type":null,"latitude":"43.52651590","longitude":"17.76362100"},{"id":464,"name":"Posavina Canton","countryId":28,"countryCode":"BA","countryName":"Bosnia and Herzegovina","stateCode":"02","type":null,"latitude":"45.07520940","longitude":"18.37763040"},{"id":470,"name":"Republika Srpska","countryId":28,"countryCode":"BA","countryName":"Bosnia and Herzegovina","stateCode":"SRP","type":null,"latitude":"44.72801860","longitude":"17.31481360"},{"id":466,"name":"Sarajevo Canton","countryId":28,"countryCode":"BA","countryName":"Bosnia and Herzegovina","stateCode":"09","type":null,"latitude":"43.85125640","longitude":"18.29534420"},{"id":461,"name":"Tuzla Canton","countryId":28,"countryCode":"BA","countryName":"Bosnia and Herzegovina","stateCode":"03","type":null,"latitude":"44.53434630","longitude":"18.69727970"},{"id":465,"name":"Una-Sana Canton","countryId":28,"countryCode":"BA","countryName":"Bosnia and Herzegovina","stateCode":"01","type":null,"latitude":"44.65031160","longitude":"16.31716290"},{"id":469,"name":"West Herzegovina Canton","countryId":28,"countryCode":"BA","countryName":"Bosnia and Herzegovina","stateCode":"08","type":null,"latitude":"43.43692440","longitude":"17.38488310"},{"id":468,"name":"Zenica-Doboj Canton","countryId":28,"countryCode":"BA","countryName":"Bosnia and Herzegovina","stateCode":"04","type":null,"latitude":"44.21271090","longitude":"18.16046250"}]