[{"id":55309,"name":"Bük","stateId":1039,"stateCode":"VA","stateName":"Vas County","countryId":99,"countryCode":"HU","countryName":"Hungary","latitude":"47.38486000","longitude":"16.75065000","wikiDataId":"Q855513"},{"id":55318,"name":"Celldömölk","stateId":1039,"stateCode":"VA","stateName":"Vas County","countryId":99,"countryCode":"HU","countryName":"Hungary","latitude":"47.25713000","longitude":"17.15027000","wikiDataId":"Q843035"},{"id":55319,"name":"Celldömölki Járás","stateId":1039,"stateCode":"VA","stateName":"Vas County","countryId":99,"countryCode":"HU","countryName":"Hungary","latitude":"47.25001000","longitude":"17.13209000","wikiDataId":"Q3031098"},{"id":55332,"name":"Csepreg","stateId":1039,"stateCode":"VA","stateName":"Vas County","countryId":99,"countryCode":"HU","countryName":"Hungary","latitude":"47.40098000","longitude":"16.70881000","wikiDataId":"Q520019"},{"id":55447,"name":"Gencsapáti","stateId":1039,"stateCode":"VA","stateName":"Vas County","countryId":99,"countryCode":"HU","countryName":"Hungary","latitude":"47.28496000","longitude":"16.59575000","wikiDataId":"Q543263"},{"id":55534,"name":"Ják","stateId":1039,"stateCode":"VA","stateName":"Vas County","countryId":99,"countryCode":"HU","countryName":"Hungary","latitude":"47.14249000","longitude":"16.58148000","wikiDataId":"Q50045"},{"id":55538,"name":"Jánosháza","stateId":1039,"stateCode":"VA","stateName":"Vas County","countryId":99,"countryCode":"HU","countryName":"Hungary","latitude":"47.11937000","longitude":"17.16503000","wikiDataId":"Q1070861"},{"id":55647,"name":"Körmend","stateId":1039,"stateCode":"VA","stateName":"Vas County","countryId":99,"countryCode":"HU","countryName":"Hungary","latitude":"47.01096000","longitude":"16.60596000","wikiDataId":"Q830411"},{"id":55648,"name":"Körmendi Járás","stateId":1039,"stateCode":"VA","stateName":"Vas County","countryId":99,"countryCode":"HU","countryName":"Hungary","latitude":"46.92164000","longitude":"16.53291000","wikiDataId":"Q536394"},{"id":55651,"name":"Kőszeg","stateId":1039,"stateCode":"VA","stateName":"Vas County","countryId":99,"countryCode":"HU","countryName":"Hungary","latitude":"47.38922000","longitude":"16.54100000","wikiDataId":"Q613813"},{"id":55652,"name":"Kőszegi Járás","stateId":1039,"stateCode":"VA","stateName":"Vas County","countryId":99,"countryCode":"HU","countryName":"Hungary","latitude":"47.37500000","longitude":"16.65650000","wikiDataId":"Q831516"},{"id":55876,"name":"Répcelak","stateId":1039,"stateCode":"VA","stateName":"Vas County","countryId":99,"countryCode":"HU","countryName":"Hungary","latitude":"47.42105000","longitude":"17.01795000","wikiDataId":"Q287306"},{"id":55990,"name":"Sárvár","stateId":1039,"stateCode":"VA","stateName":"Vas County","countryId":99,"countryCode":"HU","countryName":"Hungary","latitude":"47.25395000","longitude":"16.93525000","wikiDataId":"Q843043"},{"id":55991,"name":"Sárvári Járás","stateId":1039,"stateCode":"VA","stateName":"Vas County","countryId":99,"countryCode":"HU","countryName":"Hungary","latitude":"47.23868000","longitude":"16.93299000","wikiDataId":"Q831501"},{"id":55938,"name":"Szentgotthárd","stateId":1039,"stateCode":"VA","stateName":"Vas County","countryId":99,"countryCode":"HU","countryName":"Hungary","latitude":"46.95261000","longitude":"16.27358000","wikiDataId":"Q604516"},{"id":55939,"name":"Szentgotthárdi Járás","stateId":1039,"stateCode":"VA","stateName":"Vas County","countryId":99,"countryCode":"HU","countryName":"Hungary","latitude":"46.93674000","longitude":"16.30362000","wikiDataId":"Q830857"},{"id":55966,"name":"Szombathely","stateId":1039,"stateCode":"VA","stateName":"Vas County","countryId":99,"countryCode":"HU","countryName":"Hungary","latitude":"47.23088000","longitude":"16.62155000","wikiDataId":"Q42007"},{"id":55967,"name":"Szombathelyi Járás","stateId":1039,"stateCode":"VA","stateName":"Vas County","countryId":99,"countryCode":"HU","countryName":"Hungary","latitude":"47.21037000","longitude":"16.63954000","wikiDataId":"Q830871"},{"id":56070,"name":"Táplánszentkereszt","stateId":1039,"stateCode":"VA","stateName":"Vas County","countryId":99,"countryCode":"HU","countryName":"Hungary","latitude":"47.19496000","longitude":"16.69613000","wikiDataId":"Q602807"},{"id":56092,"name":"Vasvár","stateId":1039,"stateCode":"VA","stateName":"Vas County","countryId":99,"countryCode":"HU","countryName":"Hungary","latitude":"47.04928000","longitude":"16.79954000","wikiDataId":"Q843031"},{"id":56093,"name":"Vasvári Járás","stateId":1039,"stateCode":"VA","stateName":"Vas County","countryId":99,"countryCode":"HU","countryName":"Hungary","latitude":"47.03487000","longitude":"16.85939000","wikiDataId":"Q774552"},{"id":56116,"name":"Vép","stateId":1039,"stateCode":"VA","stateName":"Vas County","countryId":99,"countryCode":"HU","countryName":"Hungary","latitude":"47.23041000","longitude":"16.72248000","wikiDataId":"Q1183686"}]