[{"id":129789,"name":"Carmelo","stateId":3208,"stateCode":"CO","stateName":"Colonia","countryId":235,"countryCode":"UY","countryName":"Uruguay","latitude":"-34.00023000","longitude":"-58.28402000","wikiDataId":"Q1043575"},{"id":129795,"name":"Colonia del Sacramento","stateId":3208,"stateCode":"CO","stateName":"Colonia","countryId":235,"countryCode":"UY","countryName":"Uruguay","latitude":"-34.46262000","longitude":"-57.83976000","wikiDataId":"Q56064"},{"id":129804,"name":"Florencio Sánchez","stateId":3208,"stateCode":"CO","stateName":"Colonia","countryId":235,"countryCode":"UY","countryName":"Uruguay","latitude":"-33.87785000","longitude":"-57.37166000","wikiDataId":"Q972190"},{"id":129813,"name":"Juan L. Lacaze","stateId":3208,"stateCode":"CO","stateName":"Colonia","countryId":235,"countryCode":"UY","countryName":"Uruguay","latitude":"-34.41888000","longitude":"-57.45285000","wikiDataId":"Q657514"},{"id":129834,"name":"Nueva Helvecia","stateId":3208,"stateCode":"CO","stateName":"Colonia","countryId":235,"countryCode":"UY","countryName":"Uruguay","latitude":"-34.30000000","longitude":"-57.23333000","wikiDataId":"Q999572"},{"id":129835,"name":"Nueva Palmira","stateId":3208,"stateCode":"CO","stateName":"Colonia","countryId":235,"countryCode":"UY","countryName":"Uruguay","latitude":"-33.87031000","longitude":"-58.41176000","wikiDataId":"Q1023521"},{"id":129837,"name":"Ombúes de Lavalle","stateId":3208,"stateCode":"CO","stateName":"Colonia","countryId":235,"countryCode":"UY","countryName":"Uruguay","latitude":"-33.93783000","longitude":"-57.80959000","wikiDataId":"Q1020402"},{"id":129855,"name":"Rosario","stateId":3208,"stateCode":"CO","stateName":"Colonia","countryId":235,"countryCode":"UY","countryName":"Uruguay","latitude":"-34.31667000","longitude":"-57.35000000","wikiDataId":"Q1023540"},{"id":129879,"name":"Tarariras","stateId":3208,"stateCode":"CO","stateName":"Colonia","countryId":235,"countryCode":"UY","countryName":"Uruguay","latitude":"-34.26555000","longitude":"-57.61866000","wikiDataId":"Q1727968"}]