[{"id":130555,"name":"Hà Giang","stateId":3779,"stateCode":"03","stateName":"Hà Giang","countryId":240,"countryCode":"VN","countryName":"Vietnam","latitude":"22.82333000","longitude":"104.98357000","wikiDataId":"Q36519"},{"id":130235,"name":"Huyện Bắc Mê","stateId":3779,"stateCode":"03","stateName":"Hà Giang","countryId":240,"countryCode":"VN","countryName":"Vietnam","latitude":"22.75477000","longitude":"105.29023000","wikiDataId":"Q4838559"},{"id":130236,"name":"Huyện Bắc Quang","stateId":3779,"stateCode":"03","stateName":"Hà Giang","countryId":240,"countryCode":"VN","countryName":"Vietnam","latitude":"22.42301000","longitude":"104.91831000","wikiDataId":"Q4838559"},{"id":130548,"name":"Huyện Đồng Văn","stateId":3779,"stateCode":"03","stateName":"Hà Giang","countryId":240,"countryCode":"VN","countryName":"Vietnam","latitude":"23.25449000","longitude":"105.27626000","wikiDataId":"Q5295775"},{"id":130406,"name":"Huyện Quang Bình","stateId":3779,"stateCode":"03","stateName":"Hà Giang","countryId":240,"countryCode":"VN","countryName":"Vietnam","latitude":"22.41507000","longitude":"104.66018000","wikiDataId":"Q3091652"},{"id":130508,"name":"Huyện Vị Xuyên","stateId":3779,"stateCode":"03","stateName":"Hà Giang","countryId":240,"countryCode":"VN","countryName":"Vietnam","latitude":"22.73096000","longitude":"104.90827000","wikiDataId":"Q7932536"},{"id":130511,"name":"Huyện Xín Mần","stateId":3779,"stateCode":"03","stateName":"Hà Giang","countryId":240,"countryCode":"VN","countryName":"Vietnam","latitude":"22.64148000","longitude":"104.52089000","wikiDataId":"Q1758257"},{"id":130516,"name":"Huyện Yên Minh","stateId":3779,"stateCode":"03","stateName":"Hà Giang","countryId":240,"countryCode":"VN","countryName":"Vietnam","latitude":"23.06992000","longitude":"105.17865000","wikiDataId":"Q8052181"}]