[{"id":22106,"name":"Abertamy","stateId":4581,"stateCode":"41","stateName":"Karlovarský kraj","countryId":58,"countryCode":"CZ","countryName":"Czech Republic","latitude":"50.36874000","longitude":"12.81826000","wikiDataId":"Q319731"},{"id":22110,"name":"Aš","stateId":4581,"stateCode":"41","stateName":"Karlovarský kraj","countryId":58,"countryCode":"CZ","countryName":"Czech Republic","latitude":"50.22387000","longitude":"12.19499000","wikiDataId":"Q583910"},{"id":22137,"name":"Bochov","stateId":4581,"stateCode":"41","stateName":"Karlovarský kraj","countryId":58,"countryCode":"CZ","countryName":"Czech Republic","latitude":"50.14872000","longitude":"13.05227000","wikiDataId":"Q512631"},{"id":22209,"name":"Březová","stateId":4581,"stateCode":"41","stateName":"Karlovarský kraj","countryId":58,"countryCode":"CZ","countryName":"Czech Republic","latitude":"50.14557000","longitude":"12.64996000","wikiDataId":"Q647921"},{"id":22178,"name":"Bukovany","stateId":4581,"stateCode":"41","stateName":"Karlovarský kraj","countryId":58,"countryCode":"CZ","countryName":"Czech Republic","latitude":"50.16632000","longitude":"12.57265000","wikiDataId":"Q1003333"},{"id":22217,"name":"Cheb","stateId":4581,"stateCode":"41","stateName":"Karlovarský kraj","countryId":58,"countryCode":"CZ","countryName":"Czech Republic","latitude":"50.07963000","longitude":"12.37392000","wikiDataId":"Q193719"},{"id":22224,"name":"Chodov","stateId":4581,"stateCode":"41","stateName":"Karlovarský kraj","countryId":58,"countryCode":"CZ","countryName":"Czech Republic","latitude":"50.24018000","longitude":"12.74551000","wikiDataId":"Q999937"},{"id":22248,"name":"Dalovice","stateId":4581,"stateCode":"41","stateName":"Karlovarský kraj","countryId":58,"countryCode":"CZ","countryName":"Czech Republic","latitude":"50.24779000","longitude":"12.89581000","wikiDataId":"Q1158072"},{"id":22292,"name":"Dolní Rychnov","stateId":4581,"stateCode":"41","stateName":"Karlovarský kraj","countryId":58,"countryCode":"CZ","countryName":"Czech Republic","latitude":"50.16462000","longitude":"12.64507000","wikiDataId":"Q1236215"},{"id":22299,"name":"Dolní Žandov","stateId":4581,"stateCode":"41","stateName":"Karlovarský kraj","countryId":58,"countryCode":"CZ","countryName":"Czech Republic","latitude":"50.01794000","longitude":"12.55101000","wikiDataId":"Q907946"},{"id":22326,"name":"Františkovy Lázně","stateId":4581,"stateCode":"41","stateName":"Karlovarský kraj","countryId":58,"countryCode":"CZ","countryName":"Czech Republic","latitude":"50.12033000","longitude":"12.35174000","wikiDataId":"Q756581"},{"id":22337,"name":"Habartov","stateId":4581,"stateCode":"41","stateName":"Karlovarský kraj","countryId":58,"countryCode":"CZ","countryName":"Czech Republic","latitude":"50.18297000","longitude":"12.55054000","wikiDataId":"Q1018003"},{"id":22346,"name":"Hazlov","stateId":4581,"stateCode":"41","stateName":"Karlovarský kraj","countryId":58,"countryCode":"CZ","countryName":"Czech Republic","latitude":"50.15634000","longitude":"12.27238000","wikiDataId":"Q972759"},{"id":22388,"name":"Horní Slavkov","stateId":4581,"stateCode":"41","stateName":"Karlovarský kraj","countryId":58,"countryCode":"CZ","countryName":"Czech Republic","latitude":"50.13863000","longitude":"12.80758000","wikiDataId":"Q924085"},{"id":22416,"name":"Hranice","stateId":4581,"stateCode":"41","stateName":"Karlovarský kraj","countryId":58,"countryCode":"CZ","countryName":"Czech Republic","latitude":"50.30459000","longitude":"12.17577000","wikiDataId":"Q933400"},{"id":22425,"name":"Hroznětín","stateId":4581,"stateCode":"41","stateName":"Karlovarský kraj","countryId":58,"countryCode":"CZ","countryName":"Czech Republic","latitude":"50.30940000","longitude":"12.87180000","wikiDataId":"Q786762"},{"id":22484,"name":"Jáchymov","stateId":4581,"stateCode":"41","stateName":"Karlovarský kraj","countryId":58,"countryCode":"CZ","countryName":"Czech Republic","latitude":"50.35846000","longitude":"12.93465000","wikiDataId":"Q830418"},{"id":22498,"name":"Karlovy Vary","stateId":4581,"stateCode":"41","stateName":"Karlovarský kraj","countryId":58,"countryCode":"CZ","countryName":"Czech Republic","latitude":"50.23271000","longitude":"12.87117000","wikiDataId":"Q384544"},{"id":22518,"name":"Klášter","stateId":4581,"stateCode":"41","stateName":"Karlovarský kraj","countryId":58,"countryCode":"CZ","countryName":"Czech Republic","latitude":"49.96762000","longitude":"12.87623000","wikiDataId":"Q630542"},{"id":22556,"name":"Kraslice","stateId":4581,"stateCode":"41","stateName":"Karlovarský kraj","countryId":58,"countryCode":"CZ","countryName":"Czech Republic","latitude":"50.32372000","longitude":"12.51747000","wikiDataId":"Q1000029"},{"id":22581,"name":"Kynšperk nad Ohří","stateId":4581,"stateCode":"41","stateName":"Karlovarský kraj","countryId":58,"countryCode":"CZ","countryName":"Czech Republic","latitude":"50.11893000","longitude":"12.53027000","wikiDataId":"Q188062"},{"id":22664,"name":"Lázně Kynžvart","stateId":4581,"stateCode":"41","stateName":"Karlovarský kraj","countryId":58,"countryCode":"CZ","countryName":"Czech Republic","latitude":"50.01058000","longitude":"12.62474000","wikiDataId":"Q1000097"},{"id":22630,"name":"Loket","stateId":4581,"stateCode":"41","stateName":"Karlovarský kraj","countryId":58,"countryCode":"CZ","countryName":"Czech Republic","latitude":"50.18600000","longitude":"12.75405000","wikiDataId":"Q936145"},{"id":22633,"name":"Lomnice","stateId":4581,"stateCode":"41","stateName":"Karlovarský kraj","countryId":58,"countryCode":"CZ","countryName":"Czech Republic","latitude":"50.21174000","longitude":"12.63267000","wikiDataId":"Q1450615"},{"id":22644,"name":"Luby","stateId":4581,"stateCode":"41","stateName":"Karlovarský kraj","countryId":58,"countryCode":"CZ","countryName":"Czech Republic","latitude":"50.25248000","longitude":"12.40595000","wikiDataId":"Q946789"},{"id":22676,"name":"Mariánské Lázně","stateId":4581,"stateCode":"41","stateName":"Karlovarský kraj","countryId":58,"countryCode":"CZ","countryName":"Czech Republic","latitude":"49.96459000","longitude":"12.70118000","wikiDataId":"Q523469"},{"id":22681,"name":"Merklín","stateId":4581,"stateCode":"41","stateName":"Karlovarský kraj","countryId":58,"countryCode":"CZ","countryName":"Czech Republic","latitude":"50.32808000","longitude":"12.86350000","wikiDataId":"Q1894595"},{"id":22740,"name":"Město","stateId":4581,"stateCode":"41","stateName":"Karlovarský kraj","countryId":58,"countryCode":"CZ","countryName":"Czech Republic","latitude":"49.97997000","longitude":"12.86432000","wikiDataId":"Q1001600"},{"id":22757,"name":"Nejdek","stateId":4581,"stateCode":"41","stateName":"Karlovarský kraj","countryId":58,"countryCode":"CZ","countryName":"Czech Republic","latitude":"50.32242000","longitude":"12.72936000","wikiDataId":"Q431111"},{"id":22775,"name":"Nová Role","stateId":4581,"stateCode":"41","stateName":"Karlovarský kraj","countryId":58,"countryCode":"CZ","countryName":"Czech Republic","latitude":"50.27092000","longitude":"12.78422000","wikiDataId":"Q1009009"},{"id":22781,"name":"Nové Sedlo","stateId":4581,"stateCode":"41","stateName":"Karlovarský kraj","countryId":58,"countryCode":"CZ","countryName":"Czech Republic","latitude":"50.20647000","longitude":"12.73800000","wikiDataId":"Q1017806"},{"id":22812,"name":"Okres Cheb","stateId":4581,"stateCode":"41","stateName":"Karlovarský kraj","countryId":58,"countryCode":"CZ","countryName":"Czech Republic","latitude":"50.08333000","longitude":"12.50000000","wikiDataId":"Q628280"},{"id":22826,"name":"Okres Karlovy Vary","stateId":4581,"stateCode":"41","stateName":"Karlovarský kraj","countryId":58,"countryCode":"CZ","countryName":"Czech Republic","latitude":"50.16667000","longitude":"13.00000000","wikiDataId":"Q757240"},{"id":22861,"name":"Okres Sokolov","stateId":4581,"stateCode":"41","stateName":"Karlovarský kraj","countryId":58,"countryCode":"CZ","countryName":"Czech Republic","latitude":"50.21667000","longitude":"12.63333000","wikiDataId":"Q833856"},{"id":22887,"name":"Oloví","stateId":4581,"stateCode":"41","stateName":"Karlovarský kraj","countryId":58,"countryCode":"CZ","countryName":"Czech Republic","latitude":"50.25113000","longitude":"12.55877000","wikiDataId":"Q1017054"},{"id":22907,"name":"Ostrov","stateId":4581,"stateCode":"41","stateName":"Karlovarský kraj","countryId":58,"countryCode":"CZ","countryName":"Czech Republic","latitude":"50.30592000","longitude":"12.93907000","wikiDataId":"Q987487"},{"id":22940,"name":"Plesná","stateId":4581,"stateCode":"41","stateName":"Karlovarský kraj","countryId":58,"countryCode":"CZ","countryName":"Czech Republic","latitude":"50.22070000","longitude":"12.34669000","wikiDataId":"Q775651"},{"id":23036,"name":"Rotava","stateId":4581,"stateCode":"41","stateName":"Karlovarský kraj","countryId":58,"countryCode":"CZ","countryName":"Czech Republic","latitude":"50.29627000","longitude":"12.57341000","wikiDataId":"Q1017261"},{"id":23058,"name":"Sadov","stateId":4581,"stateCode":"41","stateName":"Karlovarský kraj","countryId":58,"countryCode":"CZ","countryName":"Czech Republic","latitude":"50.26711000","longitude":"12.89708000","wikiDataId":"Q547358"},{"id":23073,"name":"Skalná","stateId":4581,"stateCode":"41","stateName":"Karlovarský kraj","countryId":58,"countryCode":"CZ","countryName":"Czech Republic","latitude":"50.17030000","longitude":"12.36144000","wikiDataId":"Q946743"},{"id":23094,"name":"Sokolov","stateId":4581,"stateCode":"41","stateName":"Karlovarský kraj","countryId":58,"countryCode":"CZ","countryName":"Czech Republic","latitude":"50.18130000","longitude":"12.64010000","wikiDataId":"Q727383"},{"id":23147,"name":"Svatava","stateId":4581,"stateCode":"41","stateName":"Karlovarský kraj","countryId":58,"countryCode":"CZ","countryName":"Czech Republic","latitude":"50.19223000","longitude":"12.62524000","wikiDataId":"Q1234231"},{"id":23170,"name":"Toužim","stateId":4581,"stateCode":"41","stateName":"Karlovarský kraj","countryId":58,"countryCode":"CZ","countryName":"Czech Republic","latitude":"50.06049000","longitude":"12.98506000","wikiDataId":"Q1013898"},{"id":23233,"name":"Velká Hleďsebe","stateId":4581,"stateCode":"41","stateName":"Karlovarský kraj","countryId":58,"countryCode":"CZ","countryName":"Czech Republic","latitude":"49.96151000","longitude":"12.66763000","wikiDataId":"Q1411253"},{"id":23274,"name":"Vintířov","stateId":4581,"stateCode":"41","stateName":"Karlovarský kraj","countryId":58,"countryCode":"CZ","countryName":"Czech Republic","latitude":"50.23382000","longitude":"12.71748000","wikiDataId":"Q338705"},{"id":23456,"name":"Žlutice","stateId":4581,"stateCode":"41","stateName":"Karlovarský kraj","countryId":58,"countryCode":"CZ","countryName":"Czech Republic","latitude":"50.09192000","longitude":"13.16297000","wikiDataId":"Q394241"}]