[{"id":52,"name":"Ashkāsham","stateId":3901,"stateCode":"BDS","stateName":"Badakhshan","countryId":1,"countryCode":"AF","countryName":"Afghanistan","latitude":"36.68333000","longitude":"71.53333000","wikiDataId":"Q4805192"},{"id":68,"name":"Fayzabad","stateId":3901,"stateCode":"BDS","stateName":"Badakhshan","countryId":1,"countryCode":"AF","countryName":"Afghanistan","latitude":"37.11664000","longitude":"70.58002000","wikiDataId":"Q156558"},{"id":78,"name":"Jurm","stateId":3901,"stateCode":"BDS","stateName":"Badakhshan","countryId":1,"countryCode":"AF","countryName":"Afghanistan","latitude":"36.86477000","longitude":"70.83421000","wikiDataId":"Q10308323"},{"id":84,"name":"Khandūd","stateId":3901,"stateCode":"BDS","stateName":"Badakhshan","countryId":1,"countryCode":"AF","countryName":"Afghanistan","latitude":"36.95127000","longitude":"72.31800000","wikiDataId":"Q3290334"},{"id":115,"name":"Rāghistān","stateId":3901,"stateCode":"BDS","stateName":"Badakhshan","countryId":1,"countryCode":"AF","countryName":"Afghanistan","latitude":"37.66079000","longitude":"70.67346000","wikiDataId":"Q2670909"},{"id":131,"name":"Wākhān","stateId":3901,"stateCode":"BDS","stateName":"Badakhshan","countryId":1,"countryCode":"AF","countryName":"Afghanistan","latitude":"37.05710000","longitude":"73.34928000","wikiDataId":"Q2509959"}]