[{"id":31052,"name":"Cristóbal","stateId":4097,"stateCode":"10","stateName":"Independencia","countryId":62,"countryCode":"DO","countryName":"Dominican Republic","latitude":"18.29405000","longitude":"-71.29298000","wikiDataId":"Q23776103"},{"id":31055,"name":"Duvergé","stateId":4097,"stateCode":"10","stateName":"Independencia","countryId":62,"countryCode":"DO","countryName":"Dominican Republic","latitude":"18.31634000","longitude":"-71.59451000","wikiDataId":"Q3716731"},{"id":31079,"name":"Guayabal","stateId":4097,"stateCode":"10","stateName":"Independencia","countryId":62,"countryCode":"DO","countryName":"Dominican Republic","latitude":"18.59810000","longitude":"-71.64184000","wikiDataId":"Q5614357"},{"id":31094,"name":"Jimaní","stateId":4097,"stateCode":"10","stateName":"Independencia","countryId":62,"countryCode":"DO","countryName":"Dominican Republic","latitude":"18.49169000","longitude":"-71.85022000","wikiDataId":"Q1409818"},{"id":31105,"name":"La Descubierta","stateId":4097,"stateCode":"10","stateName":"Independencia","countryId":62,"countryCode":"DO","countryName":"Dominican Republic","latitude":"18.57053000","longitude":"-71.72967000","wikiDataId":"Q3820813"},{"id":31130,"name":"Mella","stateId":4097,"stateCode":"10","stateName":"Independencia","countryId":62,"countryCode":"DO","countryName":"Dominican Republic","latitude":"18.35871000","longitude":"-71.41716000","wikiDataId":"Q3854258"},{"id":31159,"name":"Postrer Río","stateId":4097,"stateCode":"10","stateName":"Independencia","countryId":62,"countryCode":"DO","countryName":"Dominican Republic","latitude":"18.54374000","longitude":"-71.63561000","wikiDataId":"Q3909478"}]