[{"id":19082,"name":"Aysén","stateId":2828,"stateCode":"AI","stateName":"Aisén del General Carlos Ibañez del Campo","countryId":44,"countryCode":"CL","countryName":"Chile","latitude":"-45.40303000","longitude":"-72.69184000","wikiDataId":"Q3651"},{"id":18962,"name":"Chile Chico","stateId":2828,"stateCode":"AI","stateName":"Aisén del General Carlos Ibañez del Campo","countryId":44,"countryCode":"CL","countryName":"Chile","latitude":"-46.53760000","longitude":"-71.72930000","wikiDataId":"Q3770"},{"id":19084,"name":"Cisnes","stateId":2828,"stateCode":"AI","stateName":"Aisén del General Carlos Ibañez del Campo","countryId":44,"countryCode":"CL","countryName":"Chile","latitude":"-44.72750000","longitude":"-72.68050000","wikiDataId":"Q940455"},{"id":18966,"name":"Cochrane","stateId":2828,"stateCode":"AI","stateName":"Aisén del General Carlos Ibañez del Campo","countryId":44,"countryCode":"CL","countryName":"Chile","latitude":"-47.25390000","longitude":"-72.57320000","wikiDataId":"Q3800"},{"id":18976,"name":"Coyhaique","stateId":2828,"stateCode":"AI","stateName":"Aisén del General Carlos Ibañez del Campo","countryId":44,"countryCode":"CL","countryName":"Chile","latitude":"-45.57524000","longitude":"-72.06619000","wikiDataId":"Q3810"},{"id":148332,"name":"Guaitecas","stateId":2828,"stateCode":"AI","stateName":"Aisén del General Carlos Ibañez del Campo","countryId":44,"countryCode":"CL","countryName":"Chile","latitude":"-43.88333333","longitude":"-73.73333333","wikiDataId":"Q13069"},{"id":148333,"name":"Lago Verde","stateId":2828,"stateCode":"AI","stateName":"Aisén del General Carlos Ibañez del Campo","countryId":44,"countryCode":"CL","countryName":"Chile","latitude":"-44.24031000","longitude":"-71.84950000","wikiDataId":"Q14471"},{"id":148334,"name":"O'Higgins","stateId":2828,"stateCode":"AI","stateName":"Aisén del General Carlos Ibañez del Campo","countryId":44,"countryCode":"CL","countryName":"Chile","latitude":"-48.46666667","longitude":"-72.56666667","wikiDataId":"Q51051"},{"id":148335,"name":"Río Ibáñez","stateId":2828,"stateCode":"AI","stateName":"Aisén del General Carlos Ibañez del Campo","countryId":44,"countryCode":"CL","countryName":"Chile","latitude":"-46.30000000","longitude":"-71.93333333","wikiDataId":"Q56129"},{"id":148336,"name":"Tortel","stateId":2828,"stateCode":"AI","stateName":"Aisén del General Carlos Ibañez del Campo","countryId":44,"countryCode":"CL","countryName":"Chile","latitude":"-47.83333333","longitude":"-73.56666667","wikiDataId":"Q2390232"}]