[{"id":18887,"name":"Béoumi","stateId":2647,"stateCode":"04","stateName":"Vallée du Bandama Region","countryId":54,"countryCode":"CI","countryName":"Cote D'Ivoire (Ivory Coast)","latitude":"7.67395000","longitude":"-5.58085000","wikiDataId":"Q2922170"},{"id":18881,"name":"Botro","stateId":2647,"stateCode":"04","stateName":"Vallée du Bandama Region","countryId":54,"countryCode":"CI","countryName":"Cote D'Ivoire (Ivory Coast)","latitude":"7.85249000","longitude":"-5.31063000","wikiDataId":"Q892276"},{"id":18883,"name":"Bouaké","stateId":2647,"stateCode":"04","stateName":"Vallée du Bandama Region","countryId":54,"countryCode":"CI","countryName":"Cote D'Ivoire (Ivory Coast)","latitude":"7.69385000","longitude":"-5.03031000","wikiDataId":"Q271000"},{"id":18890,"name":"Dabakala","stateId":2647,"stateCode":"04","stateName":"Vallée du Bandama Region","countryId":54,"countryCode":"CI","countryName":"Cote D'Ivoire (Ivory Coast)","latitude":"8.36321000","longitude":"-4.42863000","wikiDataId":"Q6571316"},{"id":18900,"name":"Gbêkê","stateId":2647,"stateCode":"04","stateName":"Vallée du Bandama Region","countryId":54,"countryCode":"CI","countryName":"Cote D'Ivoire (Ivory Coast)","latitude":"7.70271000","longitude":"-5.28511000","wikiDataId":"Q1268139"},{"id":18910,"name":"Hambol","stateId":2647,"stateCode":"04","stateName":"Vallée du Bandama Region","countryId":54,"countryCode":"CI","countryName":"Cote D'Ivoire (Ivory Coast)","latitude":"8.30368000","longitude":"-5.15396000","wikiDataId":"Q1553776"},{"id":18916,"name":"Katiola","stateId":2647,"stateCode":"04","stateName":"Vallée du Bandama Region","countryId":54,"countryCode":"CI","countryName":"Cote D'Ivoire (Ivory Coast)","latitude":"8.13728000","longitude":"-5.10095000","wikiDataId":"Q2409805"},{"id":18927,"name":"Sakassou","stateId":2647,"stateCode":"04","stateName":"Vallée du Bandama Region","countryId":54,"countryCode":"CI","countryName":"Cote D'Ivoire (Ivory Coast)","latitude":"7.45462000","longitude":"-5.29263000","wikiDataId":"Q1102546"}]