[{"id":89873,"name":"Abram","stateId":4723,"stateCode":"BH","stateName":"Bihor County","countryId":181,"countryCode":"RO","countryName":"Romania","latitude":"47.31667000","longitude":"22.38333000","wikiDataId":"Q15617468"},{"id":89876,"name":"Abrămuţ","stateId":4723,"stateCode":"BH","stateName":"Bihor County","countryId":181,"countryCode":"RO","countryName":"Romania","latitude":"47.31667000","longitude":"22.25000000","wikiDataId":"Q12724494"},{"id":89922,"name":"Albiș","stateId":4723,"stateCode":"BH","stateName":"Bihor County","countryId":181,"countryCode":"RO","countryName":"Romania","latitude":"47.39024000","longitude":"22.24528000","wikiDataId":"Q222578"},{"id":89930,"name":"Aleşd","stateId":4723,"stateCode":"BH","stateName":"Bihor County","countryId":181,"countryCode":"RO","countryName":"Romania","latitude":"47.06667000","longitude":"22.41667000","wikiDataId":"Q2718372"},{"id":89939,"name":"Alparea","stateId":4723,"stateCode":"BH","stateName":"Bihor County","countryId":181,"countryCode":"RO","countryName":"Romania","latitude":"47.03054000","longitude":"22.04812000","wikiDataId":"Q519610"},{"id":90015,"name":"Aştileu","stateId":4723,"stateCode":"BH","stateName":"Bihor County","countryId":181,"countryCode":"RO","countryName":"Romania","latitude":"47.03333000","longitude":"22.38333000","wikiDataId":"Q12724521"},{"id":90005,"name":"Auşeu","stateId":4723,"stateCode":"BH","stateName":"Bihor County","countryId":181,"countryCode":"RO","countryName":"Romania","latitude":"47.03333000","longitude":"22.50000000","wikiDataId":"Q12724524"},{"id":90007,"name":"Avram Iancu","stateId":4723,"stateCode":"BH","stateName":"Bihor County","countryId":181,"countryCode":"RO","countryName":"Romania","latitude":"46.66944000","longitude":"21.52417000","wikiDataId":"Q15732441"},{"id":90039,"name":"Balc","stateId":4723,"stateCode":"BH","stateName":"Bihor County","countryId":181,"countryCode":"RO","countryName":"Romania","latitude":"47.28333000","longitude":"22.53333000","wikiDataId":"Q1096671"},{"id":90513,"name":"Bălnaca","stateId":4723,"stateCode":"BH","stateName":"Bihor County","countryId":181,"countryCode":"RO","countryName":"Romania","latitude":"46.94384000","longitude":"22.57206000","wikiDataId":"Q752226"},{"id":90071,"name":"Batăr","stateId":4723,"stateCode":"BH","stateName":"Bihor County","countryId":181,"countryCode":"RO","countryName":"Romania","latitude":"46.70000000","longitude":"21.81667000","wikiDataId":"Q15739450"},{"id":90083,"name":"Beiuş","stateId":4723,"stateCode":"BH","stateName":"Bihor County","countryId":181,"countryCode":"RO","countryName":"Romania","latitude":"46.66667000","longitude":"22.35000000","wikiDataId":"Q12082511"},{"id":90123,"name":"Beznea","stateId":4723,"stateCode":"BH","stateName":"Bihor County","countryId":181,"countryCode":"RO","countryName":"Romania","latitude":"46.95967000","longitude":"22.61954000","wikiDataId":"Q853558"},{"id":90131,"name":"Biharia","stateId":4723,"stateCode":"BH","stateName":"Bihor County","countryId":181,"countryCode":"RO","countryName":"Romania","latitude":"47.15000000","longitude":"21.91667000","wikiDataId":"Q15742818"},{"id":90145,"name":"Bistra","stateId":4723,"stateCode":"BH","stateName":"Bihor County","countryId":181,"countryCode":"RO","countryName":"Romania","latitude":"47.25478000","longitude":"22.42295000","wikiDataId":"Q748457"},{"id":90196,"name":"Bogei","stateId":4723,"stateCode":"BH","stateName":"Bihor County","countryId":181,"countryCode":"RO","countryName":"Romania","latitude":"47.26550000","longitude":"22.36079000","wikiDataId":"Q280233"},{"id":90203,"name":"Boianu Mare","stateId":4723,"stateCode":"BH","stateName":"Bihor County","countryId":181,"countryCode":"RO","countryName":"Romania","latitude":"47.38333000","longitude":"22.53333000","wikiDataId":"Q15614927"},{"id":90231,"name":"Borod","stateId":4723,"stateCode":"BH","stateName":"Bihor County","countryId":181,"countryCode":"RO","countryName":"Romania","latitude":"46.98333000","longitude":"22.63333000","wikiDataId":"Q15768741"},{"id":90237,"name":"Borş","stateId":4723,"stateCode":"BH","stateName":"Bihor County","countryId":181,"countryCode":"RO","countryName":"Romania","latitude":"47.11667000","longitude":"21.81667000","wikiDataId":"Q12084264"},{"id":90274,"name":"Bratca","stateId":4723,"stateCode":"BH","stateName":"Bihor County","countryId":181,"countryCode":"RO","countryName":"Romania","latitude":"46.93333000","longitude":"22.61667000","wikiDataId":"Q15909982"},{"id":90316,"name":"Brusturi","stateId":4723,"stateCode":"BH","stateName":"Bihor County","countryId":181,"countryCode":"RO","countryName":"Romania","latitude":"47.15000000","longitude":"22.25000000","wikiDataId":"Q15910016"},{"id":90387,"name":"Budureasa","stateId":4723,"stateCode":"BH","stateName":"Bihor County","countryId":181,"countryCode":"RO","countryName":"Romania","latitude":"46.66667000","longitude":"22.50000000","wikiDataId":"Q15910051"},{"id":90388,"name":"Buduslău","stateId":4723,"stateCode":"BH","stateName":"Bihor County","countryId":181,"countryCode":"RO","countryName":"Romania","latitude":"47.40000000","longitude":"22.26667000","wikiDataId":"Q15966806"},{"id":90404,"name":"Bulz","stateId":4723,"stateCode":"BH","stateName":"Bihor County","countryId":181,"countryCode":"RO","countryName":"Romania","latitude":"46.91667000","longitude":"22.68333000","wikiDataId":"Q1191387"},{"id":90414,"name":"Bunteşti","stateId":4723,"stateCode":"BH","stateName":"Bihor County","countryId":181,"countryCode":"RO","countryName":"Romania","latitude":"46.61667000","longitude":"22.46667000","wikiDataId":"Q1086482"},{"id":90423,"name":"Burzuc","stateId":4723,"stateCode":"BH","stateName":"Bihor County","countryId":181,"countryCode":"RO","countryName":"Romania","latitude":"47.15552000","longitude":"22.17096000","wikiDataId":"Q754946"},{"id":93823,"name":"Căbeşti","stateId":4723,"stateCode":"BH","stateName":"Bihor County","countryId":181,"countryCode":"RO","countryName":"Romania","latitude":"46.76667000","longitude":"22.36667000","wikiDataId":"Q1083018"},{"id":90560,"name":"Cadea","stateId":4723,"stateCode":"BH","stateName":"Bihor County","countryId":181,"countryCode":"RO","countryName":"Romania","latitude":"47.31185000","longitude":"22.06225000","wikiDataId":"Q820169"},{"id":93830,"name":"Călacea","stateId":4723,"stateCode":"BH","stateName":"Bihor County","countryId":181,"countryCode":"RO","countryName":"Romania","latitude":"46.67687000","longitude":"21.93292000","wikiDataId":"Q755333"},{"id":93794,"name":"Câmpani","stateId":4723,"stateCode":"BH","stateName":"Bihor County","countryId":181,"countryCode":"RO","countryName":"Romania","latitude":"46.51415000","longitude":"22.52186000","wikiDataId":"Q1195555"},{"id":93795,"name":"Câmpani de Pomezeu","stateId":4723,"stateCode":"BH","stateName":"Bihor County","countryId":181,"countryCode":"RO","countryName":"Romania","latitude":"46.80000000","longitude":"22.31667000","wikiDataId":"Q748451"},{"id":93862,"name":"Căpâlna","stateId":4723,"stateCode":"BH","stateName":"Bihor County","countryId":181,"countryCode":"RO","countryName":"Romania","latitude":"46.73333000","longitude":"22.10000000","wikiDataId":"Q998608"},{"id":93869,"name":"Cărpinet","stateId":4723,"stateCode":"BH","stateName":"Bihor County","countryId":181,"countryCode":"RO","countryName":"Romania","latitude":"46.45000000","longitude":"22.48333000","wikiDataId":"Q1082421"},{"id":90606,"name":"Cefa","stateId":4723,"stateCode":"BH","stateName":"Bihor County","countryId":181,"countryCode":"RO","countryName":"Romania","latitude":"46.91667000","longitude":"21.73333000","wikiDataId":"Q1093228"},{"id":90611,"name":"Ceica","stateId":4723,"stateCode":"BH","stateName":"Bihor County","countryId":181,"countryCode":"RO","countryName":"Romania","latitude":"46.85000000","longitude":"22.18333000","wikiDataId":"Q1189427"},{"id":90646,"name":"Cetariu","stateId":4723,"stateCode":"BH","stateName":"Bihor County","countryId":181,"countryCode":"RO","countryName":"Romania","latitude":"47.13333000","longitude":"22.01667000","wikiDataId":"Q1188611"},{"id":90656,"name":"Cherechiu","stateId":4723,"stateCode":"BH","stateName":"Bihor County","countryId":181,"countryCode":"RO","countryName":"Romania","latitude":"47.38333000","longitude":"22.13333000","wikiDataId":"Q2351082"},{"id":90660,"name":"Cheșereu","stateId":4723,"stateCode":"BH","stateName":"Bihor County","countryId":181,"countryCode":"RO","countryName":"Romania","latitude":"47.42779000","longitude":"22.11416000","wikiDataId":"Q722456"},{"id":90661,"name":"Cheț","stateId":4723,"stateCode":"BH","stateName":"Bihor County","countryId":181,"countryCode":"RO","countryName":"Romania","latitude":"47.41943000","longitude":"22.33877000","wikiDataId":"Q722456"},{"id":90688,"name":"Chişlaz","stateId":4723,"stateCode":"BH","stateName":"Bihor County","countryId":181,"countryCode":"RO","countryName":"Romania","latitude":"47.28333000","longitude":"22.23333000","wikiDataId":"Q1189440"},{"id":90751,"name":"Ciumeghiu","stateId":4723,"stateCode":"BH","stateName":"Bihor County","countryId":181,"countryCode":"RO","countryName":"Romania","latitude":"46.73333000","longitude":"21.58333000","wikiDataId":"Q1078300"},{"id":90760,"name":"Ciutelec","stateId":4723,"stateCode":"BH","stateName":"Bihor County","countryId":181,"countryCode":"RO","countryName":"Romania","latitude":"47.26200000","longitude":"22.38690000","wikiDataId":"Q725159"},{"id":90778,"name":"Cociuba Mare","stateId":4723,"stateCode":"BH","stateName":"Bihor County","countryId":181,"countryCode":"RO","countryName":"Romania","latitude":"46.73333000","longitude":"22.00000000","wikiDataId":"Q1195200"},{"id":90818,"name":"Comuna Abram","stateId":4723,"stateCode":"BH","stateName":"Bihor County","countryId":181,"countryCode":"RO","countryName":"Romania","latitude":"47.32443000","longitude":"22.42023000","wikiDataId":"Q1194316"},{"id":90819,"name":"Comuna Abrămuţ","stateId":4723,"stateCode":"BH","stateName":"Bihor County","countryId":181,"countryCode":"RO","countryName":"Romania","latitude":"47.33346000","longitude":"22.25607000","wikiDataId":"Q1088691"},{"id":90911,"name":"Comuna Aştileu","stateId":4723,"stateCode":"BH","stateName":"Bihor County","countryId":181,"countryCode":"RO","countryName":"Romania","latitude":"47.02217000","longitude":"22.38444000","wikiDataId":"Q1077905"},{"id":90903,"name":"Comuna Auşeu","stateId":4723,"stateCode":"BH","stateName":"Bihor County","countryId":181,"countryCode":"RO","countryName":"Romania","latitude":"47.04398000","longitude":"22.50835000","wikiDataId":"Q1189640"},{"id":90904,"name":"Comuna Avram Iancu","stateId":4723,"stateCode":"BH","stateName":"Bihor County","countryId":181,"countryCode":"RO","countryName":"Romania","latitude":"46.66944000","longitude":"21.52417000","wikiDataId":"Q954773"},{"id":90923,"name":"Comuna Balc","stateId":4723,"stateCode":"BH","stateName":"Bihor County","countryId":181,"countryCode":"RO","countryName":"Romania","latitude":"47.31135000","longitude":"22.49954000","wikiDataId":"Q16425608"},{"id":90940,"name":"Comuna Batăr","stateId":4723,"stateCode":"BH","stateName":"Bihor County","countryId":181,"countryCode":"RO","countryName":"Romania","latitude":"46.71431000","longitude":"21.79161000","wikiDataId":"Q1093207"},{"id":90986,"name":"Comuna Biharia","stateId":4723,"stateCode":"BH","stateName":"Bihor County","countryId":181,"countryCode":"RO","countryName":"Romania","latitude":"47.16001000","longitude":"21.93299000","wikiDataId":"Q1094953"},{"id":91033,"name":"Comuna Boianu Mare","stateId":4723,"stateCode":"BH","stateName":"Bihor County","countryId":181,"countryCode":"RO","countryName":"Romania","latitude":"47.37481000","longitude":"22.52507000","wikiDataId":"Q1082100"},{"id":91052,"name":"Comuna Borod","stateId":4723,"stateCode":"BH","stateName":"Bihor County","countryId":181,"countryCode":"RO","countryName":"Romania","latitude":"47.00503000","longitude":"22.60907000","wikiDataId":"Q1194297"},{"id":91056,"name":"Comuna Borş","stateId":4723,"stateCode":"BH","stateName":"Bihor County","countryId":181,"countryCode":"RO","countryName":"Romania","latitude":"47.13073000","longitude":"21.83139000","wikiDataId":"Q1011662"},{"id":91082,"name":"Comuna Bratca","stateId":4723,"stateCode":"BH","stateName":"Bihor County","countryId":181,"countryCode":"RO","countryName":"Romania","latitude":"46.91794000","longitude":"22.61825000","wikiDataId":"Q1088249"},{"id":91106,"name":"Comuna Brusturi","stateId":4723,"stateCode":"BH","stateName":"Bihor County","countryId":181,"countryCode":"RO","countryName":"Romania","latitude":"47.14410000","longitude":"22.26514000","wikiDataId":"Q1194310"},{"id":91149,"name":"Comuna Budureasa","stateId":4723,"stateCode":"BH","stateName":"Bihor County","countryId":181,"countryCode":"RO","countryName":"Romania","latitude":"46.66968000","longitude":"22.46418000","wikiDataId":"Q1853345"},{"id":91150,"name":"Comuna Buduslău","stateId":4723,"stateCode":"BH","stateName":"Bihor County","countryId":181,"countryCode":"RO","countryName":"Romania","latitude":"47.39559000","longitude":"22.25387000","wikiDataId":"Q1088269"},{"id":91159,"name":"Comuna Bulz","stateId":4723,"stateCode":"BH","stateName":"Bihor County","countryId":181,"countryCode":"RO","countryName":"Romania","latitude":"46.85280000","longitude":"22.66659000","wikiDataId":"Q13037824"},{"id":91168,"name":"Comuna Bunteşti","stateId":4723,"stateCode":"BH","stateName":"Bihor County","countryId":181,"countryCode":"RO","countryName":"Romania","latitude":"46.60703000","longitude":"22.50202000","wikiDataId":"Q12085659"},{"id":91566,"name":"Comuna Căbeşti","stateId":4723,"stateCode":"BH","stateName":"Bihor County","countryId":181,"countryCode":"RO","countryName":"Romania","latitude":"46.76593000","longitude":"22.37157000","wikiDataId":"Q12724714"},{"id":91542,"name":"Comuna Câmpani","stateId":4723,"stateCode":"BH","stateName":"Bihor County","countryId":181,"countryCode":"RO","countryName":"Romania","latitude":"46.52443000","longitude":"22.52744000","wikiDataId":"Q16029102"},{"id":91565,"name":"Comuna Cãpâlna","stateId":4723,"stateCode":"BH","stateName":"Bihor County","countryId":181,"countryCode":"RO","countryName":"Romania","latitude":"46.73682000","longitude":"22.11114000","wikiDataId":"Q16029115"},{"id":91589,"name":"Comuna Cărpinet","stateId":4723,"stateCode":"BH","stateName":"Bihor County","countryId":181,"countryCode":"RO","countryName":"Romania","latitude":"46.44163000","longitude":"22.48917000","wikiDataId":"Q16043885"},{"id":91275,"name":"Comuna Cefa","stateId":4723,"stateCode":"BH","stateName":"Bihor County","countryId":181,"countryCode":"RO","countryName":"Romania","latitude":"46.90898000","longitude":"21.69410000","wikiDataId":"Q16044438"},{"id":91278,"name":"Comuna Ceica","stateId":4723,"stateCode":"BH","stateName":"Bihor County","countryId":181,"countryCode":"RO","countryName":"Romania","latitude":"46.86444000","longitude":"22.18165000","wikiDataId":"Q16044441"},{"id":91303,"name":"Comuna Cetariu","stateId":4723,"stateCode":"BH","stateName":"Bihor County","countryId":181,"countryCode":"RO","countryName":"Romania","latitude":"47.15015000","longitude":"22.05458000","wikiDataId":"Q13037939"},{"id":91309,"name":"Comuna Cherechiu","stateId":4723,"stateCode":"BH","stateName":"Bihor County","countryId":181,"countryCode":"RO","countryName":"Romania","latitude":"47.39930000","longitude":"22.13550000","wikiDataId":"Q16335809"},{"id":91329,"name":"Comuna Chişlaz","stateId":4723,"stateCode":"BH","stateName":"Bihor County","countryId":181,"countryCode":"RO","countryName":"Romania","latitude":"47.26657000","longitude":"22.23300000","wikiDataId":"Q12116732"},{"id":91370,"name":"Comuna Ciumeghiu","stateId":4723,"stateCode":"BH","stateName":"Bihor County","countryId":181,"countryCode":"RO","countryName":"Romania","latitude":"46.71025000","longitude":"21.62604000","wikiDataId":"Q16425621"},{"id":91387,"name":"Comuna Cociuba Mare","stateId":4723,"stateCode":"BH","stateName":"Bihor County","countryId":181,"countryCode":"RO","countryName":"Romania","latitude":"46.72899000","longitude":"22.03966000","wikiDataId":"Q16438790"},{"id":91417,"name":"Comuna Copăcel","stateId":4723,"stateCode":"BH","stateName":"Bihor County","countryId":181,"countryCode":"RO","countryName":"Romania","latitude":"46.97234000","longitude":"22.16731000","wikiDataId":"Q16425628"},{"id":91507,"name":"Comuna Criștioru de Jos","stateId":4723,"stateCode":"BH","stateName":"Bihor County","countryId":181,"countryCode":"RO","countryName":"Romania","latitude":"46.42333000","longitude":"22.56565000","wikiDataId":"Q16425633"},{"id":91532,"name":"Comuna Curăţele","stateId":4723,"stateCode":"BH","stateName":"Bihor County","countryId":181,"countryCode":"RO","countryName":"Romania","latitude":"46.70310000","longitude":"22.43719000","wikiDataId":"Q12685317"},{"id":91531,"name":"Comuna Curtuişeni","stateId":4723,"stateCode":"BH","stateName":"Bihor County","countryId":181,"countryCode":"RO","countryName":"Romania","latitude":"47.53247000","longitude":"22.22961000","wikiDataId":"Q12724696"},{"id":91615,"name":"Comuna Derna","stateId":4723,"stateCode":"BH","stateName":"Bihor County","countryId":181,"countryCode":"RO","countryName":"Romania","latitude":"47.20800000","longitude":"22.28821000","wikiDataId":"Q16425641"},{"id":91628,"name":"Comuna Diosig","stateId":4723,"stateCode":"BH","stateName":"Bihor County","countryId":181,"countryCode":"RO","countryName":"Romania","latitude":"47.29561000","longitude":"21.99354000","wikiDataId":"Q16425645"},{"id":91635,"name":"Comuna Dobreşti","stateId":4723,"stateCode":"BH","stateName":"Bihor County","countryId":181,"countryCode":"RO","countryName":"Romania","latitude":"46.84465000","longitude":"22.26931000","wikiDataId":"Q12101477"},{"id":91700,"name":"Comuna Drăgăneşti","stateId":4723,"stateCode":"BH","stateName":"Bihor County","countryId":181,"countryCode":"RO","countryName":"Romania","latitude":"46.63469000","longitude":"22.40824000","wikiDataId":"Q12102363"},{"id":91687,"name":"Comuna Drăgeşti","stateId":4723,"stateCode":"BH","stateName":"Bihor County","countryId":181,"countryCode":"RO","countryName":"Romania","latitude":"46.90374000","longitude":"22.12533000","wikiDataId":"Q1083594"},{"id":91766,"name":"Comuna Finiş","stateId":4723,"stateCode":"BH","stateName":"Bihor County","countryId":181,"countryCode":"RO","countryName":"Romania","latitude":"46.64312000","longitude":"22.27621000","wikiDataId":"Q12166692"},{"id":91839,"name":"Comuna Gepiu","stateId":4723,"stateCode":"BH","stateName":"Bihor County","countryId":181,"countryCode":"RO","countryName":"Romania","latitude":"46.91616000","longitude":"21.78903000","wikiDataId":"Q13039322"},{"id":91870,"name":"Comuna Girişu de Criş","stateId":4723,"stateCode":"BH","stateName":"Bihor County","countryId":181,"countryCode":"RO","countryName":"Romania","latitude":"47.07118000","longitude":"21.76861000","wikiDataId":"Q12100783"},{"id":92000,"name":"Comuna Hidişelu De Sus","stateId":4723,"stateCode":"BH","stateName":"Bihor County","countryId":181,"countryCode":"RO","countryName":"Romania","latitude":"46.92893000","longitude":"22.02467000","wikiDataId":"Q12168089"},{"id":92010,"name":"Comuna Holod","stateId":4723,"stateCode":"BH","stateName":"Bihor County","countryId":181,"countryCode":"RO","countryName":"Romania","latitude":"46.79584000","longitude":"22.11471000","wikiDataId":"Q16425655"},{"id":92030,"name":"Comuna Husasău de Tinca","stateId":4723,"stateCode":"BH","stateName":"Bihor County","countryId":181,"countryCode":"RO","countryName":"Romania","latitude":"46.84896000","longitude":"21.91914000","wikiDataId":"Q16425659"},{"id":92080,"name":"Comuna Ineu","stateId":4723,"stateCode":"BH","stateName":"Bihor County","countryId":181,"countryCode":"RO","countryName":"Romania","latitude":"47.09119000","longitude":"22.10816000","wikiDataId":"Q16425663"},{"id":92226,"name":"Comuna Lăzăreni","stateId":4723,"stateCode":"BH","stateName":"Bihor County","countryId":181,"countryCode":"RO","countryName":"Romania","latitude":"46.85956000","longitude":"22.06685000","wikiDataId":"Q16425666"},{"id":92142,"name":"Comuna Lazuri de Beiuş","stateId":4723,"stateCode":"BH","stateName":"Bihor County","countryId":181,"countryCode":"RO","countryName":"Romania","latitude":"46.59381000","longitude":"22.39675000","wikiDataId":"Q12116973"},{"id":92193,"name":"Comuna Lugaşu De Jos","stateId":4723,"stateCode":"BH","stateName":"Bihor County","countryId":181,"countryCode":"RO","countryName":"Romania","latitude":"47.06992000","longitude":"22.32929000","wikiDataId":"Q12118612"},{"id":92198,"name":"Comuna Lunca","stateId":4723,"stateCode":"BH","stateName":"Bihor County","countryId":181,"countryCode":"RO","countryName":"Romania","latitude":"46.51645000","longitude":"22.45486000","wikiDataId":"Q16425672"},{"id":92384,"name":"Comuna Mădăraş","stateId":4723,"stateCode":"BH","stateName":"Bihor County","countryId":181,"countryCode":"RO","countryName":"Romania","latitude":"46.84296000","longitude":"21.72080000","wikiDataId":"Q16467086"},{"id":92386,"name":"Comuna Măgeşti","stateId":4723,"stateCode":"BH","stateName":"Bihor County","countryId":181,"countryCode":"RO","countryName":"Romania","latitude":"47.00929000","longitude":"22.45330000","wikiDataId":"Q12122207"},{"id":92452,"name":"Comuna Nojorid","stateId":4723,"stateCode":"BH","stateName":"Bihor County","countryId":181,"countryCode":"RO","countryName":"Romania","latitude":"46.97144000","longitude":"21.87747000","wikiDataId":"Q16425676"},{"id":92495,"name":"Comuna Olcea","stateId":4723,"stateCode":"BH","stateName":"Bihor County","countryId":181,"countryCode":"RO","countryName":"Romania","latitude":"46.66090000","longitude":"21.98452000","wikiDataId":"Q16425680"},{"id":92525,"name":"Comuna Oşorhei","stateId":4723,"stateCode":"BH","stateName":"Bihor County","countryId":181,"countryCode":"RO","countryName":"Romania","latitude":"47.02748000","longitude":"22.04490000","wikiDataId":"Q12137093"},{"id":92531,"name":"Comuna Paleu","stateId":4723,"stateCode":"BH","stateName":"Bihor County","countryId":181,"countryCode":"RO","countryName":"Romania","latitude":"47.10762000","longitude":"21.97748000","wikiDataId":"Q288125"},{"id":92578,"name":"Comuna Pietroasa","stateId":4723,"stateCode":"BH","stateName":"Bihor County","countryId":181,"countryCode":"RO","countryName":"Romania","latitude":"46.58383000","longitude":"22.63371000","wikiDataId":"Q16425685"},{"id":92610,"name":"Comuna Pocola","stateId":4723,"stateCode":"BH","stateName":"Bihor County","countryId":181,"countryCode":"RO","countryName":"Romania","latitude":"46.69894000","longitude":"22.29593000","wikiDataId":"Q16425688"},{"id":92647,"name":"Comuna Pomezeu","stateId":4723,"stateCode":"BH","stateName":"Bihor County","countryId":181,"countryCode":"RO","countryName":"Romania","latitude":"46.79113000","longitude":"22.30018000","wikiDataId":"Q16425692"},{"id":92653,"name":"Comuna Popeşti","stateId":4723,"stateCode":"BH","stateName":"Bihor County","countryId":181,"countryCode":"RO","countryName":"Romania","latitude":"47.22088000","longitude":"22.41515000","wikiDataId":"Q12142364"},{"id":92834,"name":"Comuna Răbăgani","stateId":4723,"stateCode":"BH","stateName":"Bihor County","countryId":181,"countryCode":"RO","countryName":"Romania","latitude":"46.75432000","longitude":"22.24302000","wikiDataId":"Q16425695"},{"id":92763,"name":"Comuna Remetea","stateId":4723,"stateCode":"BH","stateName":"Bihor County","countryId":181,"countryCode":"RO","countryName":"Romania","latitude":"46.72956000","longitude":"22.35276000","wikiDataId":"Q16425699"},{"id":92771,"name":"Comuna Rieni","stateId":4723,"stateCode":"BH","stateName":"Bihor County","countryId":181,"countryCode":"RO","countryName":"Romania","latitude":"46.56878000","longitude":"22.44508000","wikiDataId":"Q16425702"},{"id":92795,"name":"Comuna Roşia","stateId":4723,"stateCode":"BH","stateName":"Bihor County","countryId":181,"countryCode":"RO","countryName":"Romania","latitude":"46.79896000","longitude":"22.40529000","wikiDataId":"Q12148998"},{"id":92803,"name":"Comuna Roşiori","stateId":4723,"stateCode":"BH","stateName":"Bihor County","countryId":181,"countryCode":"RO","countryName":"Romania","latitude":"47.25579000","longitude":"21.96166000","wikiDataId":"Q12148988"},{"id":93085,"name":"Comuna Săcădat","stateId":4723,"stateCode":"BH","stateName":"Bihor County","countryId":181,"countryCode":"RO","countryName":"Romania","latitude":"47.04710000","longitude":"22.15892000","wikiDataId":"Q16425707"},{"id":93091,"name":"Comuna Sălacea","stateId":4723,"stateCode":"BH","stateName":"Bihor County","countryId":181,"countryCode":"RO","countryName":"Romania","latitude":"47.44844000","longitude":"22.27208000","wikiDataId":"Q16425711"},{"id":93092,"name":"Comuna Sălard","stateId":4723,"stateCode":"BH","stateName":"Bihor County","countryId":181,"countryCode":"RO","countryName":"Romania","latitude":"47.23151000","longitude":"22.02068000","wikiDataId":"Q16425715"},{"id":93046,"name":"Comuna Sâmbăta","stateId":4723,"stateCode":"BH","stateName":"Bihor County","countryId":181,"countryCode":"RO","countryName":"Romania","latitude":"46.79819000","longitude":"22.20489000","wikiDataId":"Q16425720"},{"id":93054,"name":"Comuna Sâniob","stateId":4723,"stateCode":"BH","stateName":"Bihor County","countryId":181,"countryCode":"RO","countryName":"Romania","latitude":"47.24558000","longitude":"22.12533000","wikiDataId":"Q5611575"},{"id":93056,"name":"Comuna Sânmartin","stateId":4723,"stateCode":"BH","stateName":"Bihor County","countryId":181,"countryCode":"RO","countryName":"Romania","latitude":"46.99058000","longitude":"21.98565000","wikiDataId":"Q1088260"},{"id":93061,"name":"Comuna Sânnicolau-Român","stateId":4723,"stateCode":"BH","stateName":"Bihor County","countryId":181,"countryCode":"RO","countryName":"Romania","latitude":"46.96414000","longitude":"21.71886000","wikiDataId":"Q16467089"},{"id":93066,"name":"Comuna Sântandrei","stateId":4723,"stateCode":"BH","stateName":"Bihor County","countryId":181,"countryCode":"RO","countryName":"Romania","latitude":"47.06498000","longitude":"21.83947000","wikiDataId":"Q856482"},{"id":93072,"name":"Comuna Sârbi","stateId":4723,"stateCode":"BH","stateName":"Bihor County","countryId":181,"countryCode":"RO","countryName":"Romania","latitude":"47.19030000","longitude":"22.13789000","wikiDataId":"Q16439300"},{"id":93521,"name":"Comuna Şimian","stateId":4723,"stateCode":"BH","stateName":"Bihor County","countryId":181,"countryCode":"RO","countryName":"Romania","latitude":"47.46477000","longitude":"22.05881000","wikiDataId":"Q5055450"},{"id":93527,"name":"Comuna Şinteu","stateId":4723,"stateCode":"BH","stateName":"Bihor County","countryId":181,"countryCode":"RO","countryName":"Romania","latitude":"47.14585000","longitude":"22.50629000","wikiDataId":"Q12171854"},{"id":93537,"name":"Comuna Şoimi","stateId":4723,"stateCode":"BH","stateName":"Bihor County","countryId":181,"countryCode":"RO","countryName":"Romania","latitude":"46.67063000","longitude":"22.13427000","wikiDataId":"Q12172188"},{"id":92983,"name":"Comuna Spinuş","stateId":4723,"stateCode":"BH","stateName":"Bihor County","countryId":181,"countryCode":"RO","countryName":"Romania","latitude":"47.20209000","longitude":"22.20217000","wikiDataId":"Q12157049"},{"id":93561,"name":"Comuna Şuncuiuş","stateId":4723,"stateCode":"BH","stateName":"Bihor County","countryId":181,"countryCode":"RO","countryName":"Romania","latitude":"46.92521000","longitude":"22.53323000","wikiDataId":"Q12172582"},{"id":93033,"name":"Comuna Suplacu de Barcău","stateId":4723,"stateCode":"BH","stateName":"Bihor County","countryId":181,"countryCode":"RO","countryName":"Romania","latitude":"47.24335000","longitude":"22.49235000","wikiDataId":"Q16425727"},{"id":93234,"name":"Comuna Tãmãşeu","stateId":4723,"stateCode":"BH","stateName":"Bihor County","countryId":181,"countryCode":"RO","countryName":"Romania","latitude":"47.22096000","longitude":"21.90399000","wikiDataId":"Q12160449"},{"id":93239,"name":"Comuna Tărcaia","stateId":4723,"stateCode":"BH","stateName":"Bihor County","countryId":181,"countryCode":"RO","countryName":"Romania","latitude":"46.61041000","longitude":"22.36364000","wikiDataId":"Q16425735"},{"id":93125,"name":"Comuna Tarcea","stateId":4723,"stateCode":"BH","stateName":"Bihor County","countryId":181,"countryCode":"RO","countryName":"Romania","latitude":"47.45767000","longitude":"22.18937000","wikiDataId":"Q16425732"},{"id":93250,"name":"Comuna Tăuteu","stateId":4723,"stateCode":"BH","stateName":"Bihor County","countryId":181,"countryCode":"RO","countryName":"Romania","latitude":"47.28131000","longitude":"22.35612000","wikiDataId":"Q16425738"},{"id":93569,"name":"Comuna Ţeţchea","stateId":4723,"stateCode":"BH","stateName":"Bihor County","countryId":181,"countryCode":"RO","countryName":"Romania","latitude":"47.03659000","longitude":"22.29798000","wikiDataId":"Q12168713"},{"id":93153,"name":"Comuna Tileagd","stateId":4723,"stateCode":"BH","stateName":"Bihor County","countryId":181,"countryCode":"RO","countryName":"Romania","latitude":"47.06556000","longitude":"22.20707000","wikiDataId":"Q16425742"},{"id":93156,"name":"Comuna Tinca","stateId":4723,"stateCode":"BH","stateName":"Bihor County","countryId":181,"countryCode":"RO","countryName":"Romania","latitude":"46.76310000","longitude":"21.93640000","wikiDataId":"Q16425745"},{"id":93161,"name":"Comuna Toboliu","stateId":4723,"stateCode":"BH","stateName":"Bihor County","countryId":181,"countryCode":"RO","countryName":"Romania","latitude":"47.04042000","longitude":"21.70320000","wikiDataId":"Q16439308"},{"id":93203,"name":"Comuna Tulca","stateId":4723,"stateCode":"BH","stateName":"Bihor County","countryId":181,"countryCode":"RO","countryName":"Romania","latitude":"46.78881000","longitude":"21.79763000","wikiDataId":"Q16438782"},{"id":93255,"name":"Comuna Uileacu de Beiuş","stateId":4723,"stateCode":"BH","stateName":"Bihor County","countryId":181,"countryCode":"RO","countryName":"Romania","latitude":"46.70215000","longitude":"22.22417000","wikiDataId":"Q4683186"},{"id":93290,"name":"Comuna Vadu Crişului","stateId":4723,"stateCode":"BH","stateName":"Bihor County","countryId":181,"countryCode":"RO","countryName":"Romania","latitude":"46.97192000","longitude":"22.50274000","wikiDataId":"Q12087209"},{"id":93438,"name":"Comuna Vârciorog","stateId":4723,"stateCode":"BH","stateName":"Bihor County","countryId":181,"countryCode":"RO","countryName":"Romania","latitude":"46.96551000","longitude":"22.29681000","wikiDataId":"Q16439313"},{"id":93360,"name":"Comuna Viişoara","stateId":4723,"stateCode":"BH","stateName":"Bihor County","countryId":181,"countryCode":"RO","countryName":"Romania","latitude":"47.38333000","longitude":"22.45000000","wikiDataId":"Q1082598"},{"id":93602,"name":"Copăcel","stateId":4723,"stateCode":"BH","stateName":"Bihor County","countryId":181,"countryCode":"RO","countryName":"Romania","latitude":"46.98333000","longitude":"22.16667000","wikiDataId":"Q1066273"},{"id":93625,"name":"Cordău","stateId":4723,"stateCode":"BH","stateName":"Bihor County","countryId":181,"countryCode":"RO","countryName":"Romania","latitude":"46.95000000","longitude":"21.98333000","wikiDataId":"Q755061"},{"id":93736,"name":"Criştioru de Jos","stateId":4723,"stateCode":"BH","stateName":"Bihor County","countryId":181,"countryCode":"RO","countryName":"Romania","latitude":"46.41937000","longitude":"22.53457000","wikiDataId":"Q1189419"},{"id":93755,"name":"Cubulcut","stateId":4723,"stateCode":"BH","stateName":"Bihor County","countryId":181,"countryCode":"RO","countryName":"Romania","latitude":"47.32270000","longitude":"22.18648000","wikiDataId":"Q569781"},{"id":93779,"name":"Curăţele","stateId":4723,"stateCode":"BH","stateName":"Bihor County","countryId":181,"countryCode":"RO","countryName":"Romania","latitude":"46.70000000","longitude":"22.41667000","wikiDataId":"Q1607413"},{"id":93778,"name":"Curtuișeni","stateId":4723,"stateCode":"BH","stateName":"Bihor County","countryId":181,"countryCode":"RO","countryName":"Romania","latitude":"47.54633000","longitude":"22.20263000","wikiDataId":"Q1190878"},{"id":93787,"name":"Cuzap","stateId":4723,"stateCode":"BH","stateName":"Bihor County","countryId":181,"countryCode":"RO","countryName":"Romania","latitude":"47.20288000","longitude":"22.41523000","wikiDataId":"Q755357"},{"id":93922,"name":"Derna","stateId":4723,"stateCode":"BH","stateName":"Bihor County","countryId":181,"countryCode":"RO","countryName":"Romania","latitude":"47.20000000","longitude":"22.30000000","wikiDataId":"Q1066259"},{"id":93938,"name":"Diosig","stateId":4723,"stateCode":"BH","stateName":"Bihor County","countryId":181,"countryCode":"RO","countryName":"Romania","latitude":"47.30000000","longitude":"22.00000000","wikiDataId":"Q1093270"},{"id":93953,"name":"Dobreşti","stateId":4723,"stateCode":"BH","stateName":"Bihor County","countryId":181,"countryCode":"RO","countryName":"Romania","latitude":"46.85000000","longitude":"22.30000000","wikiDataId":"Q1194274"},{"id":94059,"name":"Drăgăneşti","stateId":4723,"stateCode":"BH","stateName":"Bihor County","countryId":181,"countryCode":"RO","countryName":"Romania","latitude":"46.61667000","longitude":"22.38333000","wikiDataId":"Q1082425"},{"id":94037,"name":"Drăgeşti","stateId":4723,"stateCode":"BH","stateName":"Bihor County","countryId":181,"countryCode":"RO","countryName":"Romania","latitude":"46.88333000","longitude":"22.13333000","wikiDataId":"Q4683543"},{"id":94178,"name":"Finiş","stateId":4723,"stateCode":"BH","stateName":"Bihor County","countryId":181,"countryCode":"RO","countryName":"Romania","latitude":"46.63333000","longitude":"22.31667000","wikiDataId":"Q1093260"},{"id":94195,"name":"Foglaş","stateId":4723,"stateCode":"BH","stateName":"Bihor County","countryId":181,"countryCode":"RO","countryName":"Romania","latitude":"47.25000000","longitude":"22.53333000","wikiDataId":"Q1002511"},{"id":94199,"name":"Forău","stateId":4723,"stateCode":"BH","stateName":"Bihor County","countryId":181,"countryCode":"RO","countryName":"Romania","latitude":"46.71070000","longitude":"22.20113000","wikiDataId":"Q285073"},{"id":94280,"name":"Galoșpetreu","stateId":4723,"stateCode":"BH","stateName":"Bihor County","countryId":181,"countryCode":"RO","countryName":"Romania","latitude":"47.48345000","longitude":"22.21730000","wikiDataId":"Q721582"},{"id":94294,"name":"Gepiu","stateId":4723,"stateCode":"BH","stateName":"Bihor County","countryId":181,"countryCode":"RO","countryName":"Romania","latitude":"46.93034000","longitude":"21.79016000","wikiDataId":"Q1066264"},{"id":94319,"name":"Ghighișeni","stateId":4723,"stateCode":"BH","stateName":"Bihor County","countryId":181,"countryCode":"RO","countryName":"Romania","latitude":"46.55141000","longitude":"22.43148000","wikiDataId":"Q754503"},{"id":94332,"name":"Ghiorac","stateId":4723,"stateCode":"BH","stateName":"Bihor County","countryId":181,"countryCode":"RO","countryName":"Romania","latitude":"46.71340000","longitude":"21.68309000","wikiDataId":"Q716200"},{"id":94346,"name":"Girișu de Criș","stateId":4723,"stateCode":"BH","stateName":"Bihor County","countryId":181,"countryCode":"RO","countryName":"Romania","latitude":"47.06416000","longitude":"21.76108000","wikiDataId":"Q1022793"},{"id":94427,"name":"Groși","stateId":4723,"stateCode":"BH","stateName":"Bihor County","countryId":181,"countryCode":"RO","countryName":"Romania","latitude":"47.04525000","longitude":"22.47965000","wikiDataId":"Q725229"},{"id":94471,"name":"Gurbediu","stateId":4723,"stateCode":"BH","stateName":"Bihor County","countryId":181,"countryCode":"RO","countryName":"Romania","latitude":"46.79379000","longitude":"21.86480000","wikiDataId":"Q667859"},{"id":94535,"name":"Hidişelu de Sus","stateId":4723,"stateCode":"BH","stateName":"Bihor County","countryId":181,"countryCode":"RO","countryName":"Romania","latitude":"46.95000000","longitude":"22.05000000","wikiDataId":"Q1088293"},{"id":94550,"name":"Holod","stateId":4723,"stateCode":"BH","stateName":"Bihor County","countryId":181,"countryCode":"RO","countryName":"Romania","latitude":"46.78333000","longitude":"22.13333000","wikiDataId":"Q1084993"},{"id":94569,"name":"Hotar","stateId":4723,"stateCode":"BH","stateName":"Bihor County","countryId":181,"countryCode":"RO","countryName":"Romania","latitude":"47.01967000","longitude":"22.28515000","wikiDataId":"Q240944"},{"id":94584,"name":"Husasău de Tinca","stateId":4723,"stateCode":"BH","stateName":"Bihor County","countryId":181,"countryCode":"RO","countryName":"Romania","latitude":"46.81667000","longitude":"21.91667000","wikiDataId":"Q1194302"},{"id":94622,"name":"Ianoșda","stateId":4723,"stateCode":"BH","stateName":"Bihor County","countryId":181,"countryCode":"RO","countryName":"Romania","latitude":"46.83791000","longitude":"21.80778000","wikiDataId":"Q741831"},{"id":94668,"name":"Ineu","stateId":4723,"stateCode":"BH","stateName":"Bihor County","countryId":181,"countryCode":"RO","countryName":"Romania","latitude":"47.08333000","longitude":"22.11667000","wikiDataId":"Q1194277"},{"id":94901,"name":"Lăzăreni","stateId":4723,"stateCode":"BH","stateName":"Bihor County","countryId":181,"countryCode":"RO","countryName":"Romania","latitude":"46.86667000","longitude":"22.06667000","wikiDataId":"Q1194411"},{"id":94767,"name":"Lazuri de Beiuş","stateId":4723,"stateCode":"BH","stateName":"Bihor County","countryId":181,"countryCode":"RO","countryName":"Romania","latitude":"46.58333000","longitude":"22.40000000","wikiDataId":"Q1194284"},{"id":94815,"name":"Livada de Bihor","stateId":4723,"stateCode":"BH","stateName":"Bihor County","countryId":181,"countryCode":"RO","countryName":"Romania","latitude":"47.01039000","longitude":"21.80836000","wikiDataId":"Q645761"},{"id":94845,"name":"Lugaşu de Jos","stateId":4723,"stateCode":"BH","stateName":"Bihor County","countryId":181,"countryCode":"RO","countryName":"Romania","latitude":"47.06667000","longitude":"22.35000000","wikiDataId":"Q1189462"},{"id":94854,"name":"Lunca","stateId":4723,"stateCode":"BH","stateName":"Bihor County","countryId":181,"countryCode":"RO","countryName":"Romania","latitude":"46.51667000","longitude":"22.46667000","wikiDataId":"Q1195828"},{"id":94878,"name":"Luncșoara","stateId":4723,"stateCode":"BH","stateName":"Bihor County","countryId":181,"countryCode":"RO","countryName":"Romania","latitude":"47.03663000","longitude":"22.54213000","wikiDataId":"Q755084"},{"id":95234,"name":"Mădăraş","stateId":4723,"stateCode":"BH","stateName":"Bihor County","countryId":181,"countryCode":"RO","countryName":"Romania","latitude":"46.83333000","longitude":"21.68333000","wikiDataId":"Q1088243"},{"id":95237,"name":"Măgeşti","stateId":4723,"stateCode":"BH","stateName":"Bihor County","countryId":181,"countryCode":"RO","countryName":"Romania","latitude":"47.01667000","longitude":"22.45000000","wikiDataId":"Q1195369"},{"id":94928,"name":"Marghita","stateId":4723,"stateCode":"BH","stateName":"Bihor County","countryId":181,"countryCode":"RO","countryName":"Romania","latitude":"47.35000000","longitude":"22.33333000","wikiDataId":"Q75509"},{"id":94963,"name":"Meziad","stateId":4723,"stateCode":"BH","stateName":"Bihor County","countryId":181,"countryCode":"RO","countryName":"Romania","latitude":"46.74090000","longitude":"22.42846000","wikiDataId":"Q726506"},{"id":94974,"name":"Mihai Bravu","stateId":4723,"stateCode":"BH","stateName":"Bihor County","countryId":181,"countryCode":"RO","countryName":"Romania","latitude":"47.25780000","longitude":"21.93811000","wikiDataId":"Q1004706"},{"id":95036,"name":"Mișca","stateId":4723,"stateCode":"BH","stateName":"Bihor County","countryId":181,"countryCode":"RO","countryName":"Romania","latitude":"47.26291000","longitude":"22.25914000","wikiDataId":"Q725226"},{"id":95112,"name":"Municipiul Beiuş","stateId":4723,"stateCode":"BH","stateName":"Bihor County","countryId":181,"countryCode":"RO","countryName":"Romania","latitude":"46.68074000","longitude":"22.34566000","wikiDataId":"Q646065"},{"id":95153,"name":"Municipiul Marghita","stateId":4723,"stateCode":"BH","stateName":"Bihor County","countryId":181,"countryCode":"RO","countryName":"Romania","latitude":"47.34534000","longitude":"22.33452000","wikiDataId":"Q750222"},{"id":95163,"name":"Municipiul Oradea","stateId":4723,"stateCode":"BH","stateName":"Bihor County","countryId":181,"countryCode":"RO","countryName":"Romania","latitude":"47.05353000","longitude":"21.93633000","wikiDataId":"Q93358"},{"id":95177,"name":"Municipiul Salonta","stateId":4723,"stateCode":"BH","stateName":"Bihor County","countryId":181,"countryCode":"RO","countryName":"Romania","latitude":"46.80283000","longitude":"21.66415000","wikiDataId":"Q754730"},{"id":95354,"name":"Nojorid","stateId":4723,"stateCode":"BH","stateName":"Bihor County","countryId":181,"countryCode":"RO","countryName":"Romania","latitude":"46.98333000","longitude":"21.88333000","wikiDataId":"Q1194291"},{"id":95360,"name":"Nucet","stateId":4723,"stateCode":"BH","stateName":"Bihor County","countryId":181,"countryCode":"RO","countryName":"Romania","latitude":"46.48732000","longitude":"22.55850000","wikiDataId":"Q2606980"},{"id":95426,"name":"Olcea","stateId":4723,"stateCode":"BH","stateName":"Bihor County","countryId":181,"countryCode":"RO","countryName":"Romania","latitude":"46.68333000","longitude":"21.98333000","wikiDataId":"Q1195216"},{"id":95445,"name":"Oradea","stateId":4723,"stateCode":"BH","stateName":"Bihor County","countryId":181,"countryCode":"RO","countryName":"Romania","latitude":"47.04580000","longitude":"21.91833000","wikiDataId":"Q16898113"},{"id":95635,"name":"Oraș Aleşd","stateId":4723,"stateCode":"BH","stateName":"Bihor County","countryId":181,"countryCode":"RO","countryName":"Romania","latitude":"47.08772000","longitude":"22.41384000","wikiDataId":"Q851029"},{"id":95552,"name":"Oraş Nucet","stateId":4723,"stateCode":"BH","stateName":"Bihor County","countryId":181,"countryCode":"RO","countryName":"Romania","latitude":"46.48496000","longitude":"22.58901000","wikiDataId":"Q906711"},{"id":95598,"name":"Oraş Sãcueni","stateId":4723,"stateCode":"BH","stateName":"Bihor County","countryId":181,"countryCode":"RO","countryName":"Romania","latitude":"47.32996000","longitude":"22.11802000","wikiDataId":"Q376233"},{"id":95631,"name":"Oraş Ştei","stateId":4723,"stateCode":"BH","stateName":"Bihor County","countryId":181,"countryCode":"RO","countryName":"Romania","latitude":"46.53767000","longitude":"22.45795000","wikiDataId":"Q423371"},{"id":95614,"name":"Oraş Valea Lui Mihai","stateId":4723,"stateCode":"BH","stateName":"Bihor County","countryId":181,"countryCode":"RO","countryName":"Romania","latitude":"47.52099000","longitude":"22.13196000","wikiDataId":"Q252061"},{"id":95615,"name":"Oraş Vaşcãu","stateId":4723,"stateCode":"BH","stateName":"Bihor County","countryId":181,"countryCode":"RO","countryName":"Romania","latitude":"46.47493000","longitude":"22.46292000","wikiDataId":"Q851013"},{"id":95691,"name":"Oșorhei","stateId":4723,"stateCode":"BH","stateName":"Bihor County","countryId":181,"countryCode":"RO","countryName":"Romania","latitude":"47.03333000","longitude":"22.05000000","wikiDataId":"Q1413951"},{"id":96005,"name":"Pădurea Neagră","stateId":4723,"stateCode":"BH","stateName":"Bihor County","countryId":181,"countryCode":"RO","countryName":"Romania","latitude":"47.16554000","longitude":"22.41323000","wikiDataId":"Q14195525"},{"id":95701,"name":"Paleu","stateId":4723,"stateCode":"BH","stateName":"Bihor County","countryId":181,"countryCode":"RO","countryName":"Romania","latitude":"47.11531000","longitude":"21.95929000","wikiDataId":"Q13990616"},{"id":95764,"name":"Peștiș","stateId":4723,"stateCode":"BH","stateName":"Bihor County","countryId":181,"countryCode":"RO","countryName":"Romania","latitude":"47.07252000","longitude":"22.41226000","wikiDataId":"Q12140430"},{"id":95745,"name":"Petreu","stateId":4723,"stateCode":"BH","stateName":"Bihor County","countryId":181,"countryCode":"RO","countryName":"Romania","latitude":"47.33738000","longitude":"22.29607000","wikiDataId":"Q690339"},{"id":95784,"name":"Pietroasa","stateId":4723,"stateCode":"BH","stateName":"Bihor County","countryId":181,"countryCode":"RO","countryName":"Romania","latitude":"46.58333000","longitude":"22.55000000","wikiDataId":"Q1022812"},{"id":95840,"name":"Pocola","stateId":4723,"stateCode":"BH","stateName":"Bihor County","countryId":181,"countryCode":"RO","countryName":"Romania","latitude":"46.68333000","longitude":"22.28333000","wikiDataId":"Q1195562"},{"id":95902,"name":"Pomezeu","stateId":4723,"stateCode":"BH","stateName":"Bihor County","countryId":181,"countryCode":"RO","countryName":"Romania","latitude":"46.78333000","longitude":"22.28333000","wikiDataId":"Q1194305"},{"id":95911,"name":"Popeşti","stateId":4723,"stateCode":"BH","stateName":"Bihor County","countryId":181,"countryCode":"RO","countryName":"Romania","latitude":"47.23333000","longitude":"22.41667000","wikiDataId":"Q1189455"},{"id":96181,"name":"Răbăgani","stateId":4723,"stateCode":"BH","stateName":"Bihor County","countryId":181,"countryCode":"RO","countryName":"Romania","latitude":"46.75000000","longitude":"22.23333000","wikiDataId":"Q1195205"},{"id":96082,"name":"Remetea","stateId":4723,"stateCode":"BH","stateName":"Bihor County","countryId":181,"countryCode":"RO","countryName":"Romania","latitude":"46.73333000","longitude":"22.35000000","wikiDataId":"Q1187377"},{"id":96093,"name":"Rieni","stateId":4723,"stateCode":"BH","stateName":"Bihor County","countryId":181,"countryCode":"RO","countryName":"Romania","latitude":"46.57485000","longitude":"22.44584000","wikiDataId":"Q1082089"},{"id":96127,"name":"Roşia","stateId":4723,"stateCode":"BH","stateName":"Bihor County","countryId":181,"countryCode":"RO","countryName":"Romania","latitude":"46.80000000","longitude":"22.40000000","wikiDataId":"Q1088275"},{"id":96138,"name":"Roșiori","stateId":4723,"stateCode":"BH","stateName":"Bihor County","countryId":181,"countryCode":"RO","countryName":"Romania","latitude":"47.25677000","longitude":"21.95209000","wikiDataId":"Q1022809"},{"id":105999,"name":"Săcădat","stateId":4723,"stateCode":"BH","stateName":"Bihor County","countryId":181,"countryCode":"RO","countryName":"Romania","latitude":"47.03333000","longitude":"22.15000000","wikiDataId":"Q2351097"},{"id":105997,"name":"Săcueni","stateId":4723,"stateCode":"BH","stateName":"Bihor County","countryId":181,"countryCode":"RO","countryName":"Romania","latitude":"47.35000000","longitude":"22.10000000","wikiDataId":"Q12151750"},{"id":106005,"name":"Sălacea","stateId":4723,"stateCode":"BH","stateName":"Bihor County","countryId":181,"countryCode":"RO","countryName":"Romania","latitude":"47.46667000","longitude":"22.31667000","wikiDataId":"Q1087994"},{"id":106006,"name":"Sălard","stateId":4723,"stateCode":"BH","stateName":"Bihor County","countryId":181,"countryCode":"RO","countryName":"Romania","latitude":"47.21667000","longitude":"22.05000000","wikiDataId":"Q1093221"},{"id":96236,"name":"Salonta","stateId":4723,"stateCode":"BH","stateName":"Bihor County","countryId":181,"countryCode":"RO","countryName":"Romania","latitude":"46.80000000","longitude":"21.65000000","wikiDataId":"Q1091949"},{"id":96519,"name":"Sâmbăta","stateId":4723,"stateCode":"BH","stateName":"Bihor County","countryId":181,"countryCode":"RO","countryName":"Romania","latitude":"46.80173000","longitude":"22.20357000","wikiDataId":"Q1189411"},{"id":96531,"name":"Sâniob","stateId":4723,"stateCode":"BH","stateName":"Bihor County","countryId":181,"countryCode":"RO","countryName":"Romania","latitude":"47.26461000","longitude":"22.12778000","wikiDataId":"Q714390"},{"id":96541,"name":"Sânnicolau Român","stateId":4723,"stateCode":"BH","stateName":"Bihor County","countryId":181,"countryCode":"RO","countryName":"Romania","latitude":"46.96101000","longitude":"21.71466000","wikiDataId":"Q1194324"},{"id":105977,"name":"Sântandrei","stateId":4723,"stateCode":"BH","stateName":"Bihor County","countryId":181,"countryCode":"RO","countryName":"Romania","latitude":"47.06615000","longitude":"21.85352000","wikiDataId":"Q13722890"},{"id":105980,"name":"Sântion","stateId":4723,"stateCode":"BH","stateName":"Bihor County","countryId":181,"countryCode":"RO","countryName":"Romania","latitude":"47.09634000","longitude":"21.83660000","wikiDataId":"Q750757"},{"id":105984,"name":"Sârbi","stateId":4723,"stateCode":"BH","stateName":"Bihor County","countryId":181,"countryCode":"RO","countryName":"Romania","latitude":"47.19315000","longitude":"22.12215000","wikiDataId":"Q1027833"},{"id":97123,"name":"Șilindru","stateId":4723,"stateCode":"BH","stateName":"Bihor County","countryId":181,"countryCode":"RO","countryName":"Romania","latitude":"47.43725000","longitude":"22.04683000","wikiDataId":"Q722471"},{"id":97050,"name":"Şimian","stateId":4723,"stateCode":"BH","stateName":"Bihor County","countryId":181,"countryCode":"RO","countryName":"Romania","latitude":"47.48333000","longitude":"22.10000000","wikiDataId":"Q1093964"},{"id":105987,"name":"Sînmartin","stateId":4723,"stateCode":"BH","stateName":"Bihor County","countryId":181,"countryCode":"RO","countryName":"Romania","latitude":"47.00726000","longitude":"21.97418000","wikiDataId":"Q13725268"},{"id":97056,"name":"Şinteu","stateId":4723,"stateCode":"BH","stateName":"Bihor County","countryId":181,"countryCode":"RO","countryName":"Romania","latitude":"47.15000000","longitude":"22.48333000","wikiDataId":"Q1088235"},{"id":97066,"name":"Şoimi","stateId":4723,"stateCode":"BH","stateName":"Bihor County","countryId":181,"countryCode":"RO","countryName":"Romania","latitude":"46.68333000","longitude":"22.11667000","wikiDataId":"Q1087801"},{"id":96416,"name":"Spinuş","stateId":4723,"stateCode":"BH","stateName":"Bihor County","countryId":181,"countryCode":"RO","countryName":"Romania","latitude":"47.20000000","longitude":"22.20000000","wikiDataId":"Q1195210"},{"id":97134,"name":"Ștei","stateId":4723,"stateCode":"BH","stateName":"Bihor County","countryId":181,"countryCode":"RO","countryName":"Romania","latitude":"46.53333000","longitude":"22.45000000","wikiDataId":"Q16898138"},{"id":97093,"name":"Şuncuiuş","stateId":4723,"stateCode":"BH","stateName":"Bihor County","countryId":181,"countryCode":"RO","countryName":"Romania","latitude":"46.93333000","longitude":"22.53333000","wikiDataId":"Q610483"},{"id":96502,"name":"Suplacu de Barcău","stateId":4723,"stateCode":"BH","stateName":"Bihor County","countryId":181,"countryCode":"RO","countryName":"Romania","latitude":"47.25729000","longitude":"22.53195000","wikiDataId":"Q1088279"},{"id":106054,"name":"Talpoș","stateId":4723,"stateCode":"BH","stateName":"Bihor County","countryId":181,"countryCode":"RO","countryName":"Romania","latitude":"46.69124000","longitude":"21.80335000","wikiDataId":"Q248967"},{"id":96605,"name":"Tămașda","stateId":4723,"stateCode":"BH","stateName":"Bihor County","countryId":181,"countryCode":"RO","countryName":"Romania","latitude":"46.64453000","longitude":"21.55685000","wikiDataId":"Q730033"},{"id":96608,"name":"Tămășeu","stateId":4723,"stateCode":"BH","stateName":"Bihor County","countryId":181,"countryCode":"RO","countryName":"Romania","latitude":"47.22116000","longitude":"21.92760000","wikiDataId":"Q1022806"},{"id":96610,"name":"Tărcaia","stateId":4723,"stateCode":"BH","stateName":"Bihor County","countryId":181,"countryCode":"RO","countryName":"Romania","latitude":"46.63333000","longitude":"22.36667000","wikiDataId":"Q1088264"},{"id":106059,"name":"Tarcea","stateId":4723,"stateCode":"BH","stateName":"Bihor County","countryId":181,"countryCode":"RO","countryName":"Romania","latitude":"47.45000000","longitude":"22.18333000","wikiDataId":"Q1747380"},{"id":96631,"name":"Tășad","stateId":4723,"stateCode":"BH","stateName":"Bihor County","countryId":181,"countryCode":"RO","countryName":"Romania","latitude":"46.93773000","longitude":"22.12516000","wikiDataId":"Q539144"},{"id":96626,"name":"Tăut","stateId":4723,"stateCode":"BH","stateName":"Bihor County","countryId":181,"countryCode":"RO","countryName":"Romania","latitude":"46.71990000","longitude":"21.83845000","wikiDataId":"Q548455"},{"id":96627,"name":"Tăuteu","stateId":4723,"stateCode":"BH","stateName":"Bihor County","countryId":181,"countryCode":"RO","countryName":"Romania","latitude":"47.26667000","longitude":"22.33333000","wikiDataId":"Q1088231"},{"id":106099,"name":"Tileagd","stateId":4723,"stateCode":"BH","stateName":"Bihor County","countryId":181,"countryCode":"RO","countryName":"Romania","latitude":"47.06667000","longitude":"22.20000000","wikiDataId":"Q1093233"},{"id":106103,"name":"Tinca","stateId":4723,"stateCode":"BH","stateName":"Bihor County","countryId":181,"countryCode":"RO","countryName":"Romania","latitude":"46.77529000","longitude":"21.93300000","wikiDataId":"Q1093201"},{"id":106112,"name":"Toboliu","stateId":4723,"stateCode":"BH","stateName":"Bihor County","countryId":181,"countryCode":"RO","countryName":"Romania","latitude":"47.04182000","longitude":"21.71946000","wikiDataId":"Q899037"},{"id":106172,"name":"Tulca","stateId":4723,"stateCode":"BH","stateName":"Bihor County","countryId":181,"countryCode":"RO","countryName":"Romania","latitude":"46.78333000","longitude":"21.78333000","wikiDataId":"Q1088238"},{"id":96640,"name":"Uileacu de Beiuș","stateId":4723,"stateCode":"BH","stateName":"Bihor County","countryId":181,"countryCode":"RO","countryName":"Romania","latitude":"46.68532000","longitude":"22.22148000","wikiDataId":"Q611213"},{"id":96695,"name":"Vadu Crişului","stateId":4723,"stateCode":"BH","stateName":"Bihor County","countryId":181,"countryCode":"RO","countryName":"Romania","latitude":"46.98333000","longitude":"22.51667000","wikiDataId":"Q1093254"},{"id":96767,"name":"Valea lui Mihai","stateId":4723,"stateCode":"BH","stateName":"Bihor County","countryId":181,"countryCode":"RO","countryName":"Romania","latitude":"47.51667000","longitude":"22.15000000","wikiDataId":"Q12087670"},{"id":96936,"name":"Vârciorog","stateId":4723,"stateCode":"BH","stateName":"Bihor County","countryId":181,"countryCode":"RO","countryName":"Romania","latitude":"46.96667000","longitude":"22.30000000","wikiDataId":"Q1087974"},{"id":96977,"name":"Vășad","stateId":4723,"stateCode":"BH","stateName":"Bihor County","countryId":181,"countryCode":"RO","countryName":"Romania","latitude":"47.51860000","longitude":"22.25660000","wikiDataId":"Q722465"},{"id":96779,"name":"Vaşcău","stateId":4723,"stateCode":"BH","stateName":"Bihor County","countryId":181,"countryCode":"RO","countryName":"Romania","latitude":"46.46667000","longitude":"22.46667000","wikiDataId":"Q933684"},{"id":96823,"name":"Viişoara","stateId":4723,"stateCode":"BH","stateName":"Bihor County","countryId":181,"countryCode":"RO","countryName":"Romania","latitude":"47.38333000","longitude":"22.45000000","wikiDataId":"Q6308162"},{"id":96833,"name":"Vintere","stateId":4723,"stateCode":"BH","stateName":"Bihor County","countryId":181,"countryCode":"RO","countryName":"Romania","latitude":"46.76883000","longitude":"22.14652000","wikiDataId":"Q725221"},{"id":96886,"name":"Voivozi","stateId":4723,"stateCode":"BH","stateName":"Bihor County","countryId":181,"countryCode":"RO","countryName":"Romania","latitude":"47.21562000","longitude":"22.39024000","wikiDataId":"Q657343"}]