[{"id":104074,"name":"Bresternica","stateId":4242,"stateCode":"070","stateName":"Maribor City Municipality","countryId":201,"countryCode":"SI","countryName":"Slovenia","latitude":"46.56972000","longitude":"15.57500000","wikiDataId":"Q2091787"},{"id":104132,"name":"Kamnica","stateId":4242,"stateCode":"070","stateName":"Maribor City Municipality","countryId":201,"countryCode":"SI","countryName":"Slovenia","latitude":"46.57444000","longitude":"15.61417000","wikiDataId":"Q2239459"},{"id":104165,"name":"Limbu≈°","stateId":4242,"stateCode":"070","stateName":"Maribor City Municipality","countryId":201,"countryCode":"SI","countryName":"Slovenia","latitude":"46.55361000","longitude":"15.58361000","wikiDataId":"Q2459309"},{"id":104181,"name":"Maribor","stateId":4242,"stateCode":"070","stateName":"Maribor City Municipality","countryId":201,"countryCode":"SI","countryName":"Slovenia","latitude":"46.55472000","longitude":"15.64667000","wikiDataId":"Q2230682"},{"id":104219,"name":"Pekre","stateId":4242,"stateCode":"070","stateName":"Maribor City Municipality","countryId":201,"countryCode":"SI","countryName":"Slovenia","latitude":"46.54722000","longitude":"15.59556000","wikiDataId":"Q2775780"},{"id":104251,"name":"Razvanje","stateId":4242,"stateCode":"070","stateName":"Maribor City Municipality","countryId":201,"countryCode":"SI","countryName":"Slovenia","latitude":"46.51444000","longitude":"15.63611000","wikiDataId":"Q2195203"}]