[{"id":146185,"name":"Aïn El Berd District","stateId":4902,"stateCode":"22","stateName":"Sidi Bel Abbès","countryId":4,"countryCode":"DZ","countryName":"Algeria","latitude":"35.35000000","longitude":"-0.51667000","wikiDataId":"Q4833272"},{"id":146186,"name":"Balidat Ameur","stateId":4902,"stateCode":"22","stateName":"Sidi Bel Abbès","countryId":4,"countryCode":"DZ","countryName":"Algeria","latitude":"32.95138900","longitude":"5.98055600","wikiDataId":"Q2906568"},{"id":146187,"name":"Belarbi","stateId":4902,"stateCode":"22","stateName":"Sidi Bel Abbès","countryId":4,"countryCode":"DZ","countryName":"Algeria","latitude":"35.15149480","longitude":"-0.45679090","wikiDataId":"Q1648915"},{"id":146188,"name":"Ben Badis Sid Bel Abbés","stateId":4902,"stateCode":"22","stateName":"Sidi Bel Abbès","countryId":4,"countryCode":"DZ","countryName":"Algeria","latitude":"34.95277778","longitude":"-0.91444444","wikiDataId":"Q2895336"},{"id":146189,"name":"Djamaa","stateId":4902,"stateCode":"22","stateName":"Sidi Bel Abbès","countryId":4,"countryCode":"DZ","countryName":"Algeria","latitude":"33.53137870","longitude":"5.99098210","wikiDataId":"Q3032751"},{"id":146190,"name":"El Bour","stateId":4902,"stateCode":"22","stateName":"Sidi Bel Abbès","countryId":4,"countryCode":"DZ","countryName":"Algeria","latitude":"32.16305556","longitude":"5.34527778","wikiDataId":"Q12403129"},{"id":146191,"name":"El Hadjira","stateId":4902,"stateCode":"22","stateName":"Sidi Bel Abbès","countryId":4,"countryCode":"DZ","countryName":"Algeria","latitude":"32.61666667","longitude":"5.51666667","wikiDataId":"Q3049930"},{"id":146192,"name":"Haoud El Hamra","stateId":4902,"stateCode":"22","stateName":"Sidi Bel Abbès","countryId":4,"countryCode":"DZ","countryName":"Algeria","latitude":"31.88944444","longitude":"5.97305556","wikiDataId":"Q12470040"},{"id":146193,"name":"Hassi Messaoud","stateId":4902,"stateCode":"22","stateName":"Sidi Bel Abbès","countryId":4,"countryCode":"DZ","countryName":"Algeria","latitude":"31.70000000","longitude":"6.06666667","wikiDataId":"Q1000139"},{"id":146194,"name":"Lamtar","stateId":4902,"stateCode":"22","stateName":"Sidi Bel Abbès","countryId":4,"countryCode":"DZ","countryName":"Algeria","latitude":"35.07062700","longitude":"-0.79814000","wikiDataId":"Q3216882"},{"id":146195,"name":"Marhoum","stateId":4902,"stateCode":"22","stateName":"Sidi Bel Abbès","countryId":4,"countryCode":"DZ","countryName":"Algeria","latitude":"34.44600420","longitude":"-0.19502440","wikiDataId":"Q3290834"},{"id":146196,"name":"Megarine","stateId":4902,"stateCode":"22","stateName":"Sidi Bel Abbès","countryId":4,"countryCode":"DZ","countryName":"Algeria","latitude":"33.19262320","longitude":"6.09346390","wikiDataId":"Q2384877"},{"id":146197,"name":"Merine","stateId":4902,"stateCode":"22","stateName":"Sidi Bel Abbès","countryId":4,"countryCode":"DZ","countryName":"Algeria","latitude":"34.78074720","longitude":"-0.45104030","wikiDataId":"Q1649208"},{"id":146198,"name":"Mezaourou","stateId":4902,"stateCode":"22","stateName":"Sidi Bel Abbès","countryId":4,"countryCode":"DZ","countryName":"Algeria","latitude":"34.81732670","longitude":"-0.62331890","wikiDataId":"Q1649368"},{"id":146199,"name":"Moggar","stateId":4902,"stateCode":"22","stateName":"Sidi Bel Abbès","countryId":4,"countryCode":"DZ","countryName":"Algeria","latitude":"33.26722222","longitude":"6.06777778","wikiDataId":"Q12646398"},{"id":146200,"name":"Moulay Slissen","stateId":4902,"stateCode":"22","stateName":"Sidi Bel Abbès","countryId":4,"countryCode":"DZ","countryName":"Algeria","latitude":"34.81666667","longitude":"-0.76666667","wikiDataId":"Q1649394"},{"id":146201,"name":"N'Goussa","stateId":4902,"stateCode":"22","stateName":"Sidi Bel Abbès","countryId":4,"countryCode":"DZ","countryName":"Algeria","latitude":"32.14087970","longitude":"5.30828480","wikiDataId":"Q3334101"},{"id":146202,"name":"Ouargla","stateId":4902,"stateCode":"22","stateName":"Sidi Bel Abbès","countryId":4,"countryCode":"DZ","countryName":"Algeria","latitude":"31.95000000","longitude":"5.31666667","wikiDataId":"Q852469"},{"id":146203,"name":"Rouissat","stateId":4902,"stateCode":"22","stateName":"Sidi Bel Abbès","countryId":4,"countryCode":"DZ","countryName":"Algeria","latitude":"31.93657600","longitude":"5.33540730","wikiDataId":"Q1649802"},{"id":146204,"name":"Sfissef","stateId":4902,"stateCode":"22","stateName":"Sidi Bel Abbès","countryId":4,"countryCode":"DZ","countryName":"Algeria","latitude":"35.23440280","longitude":"-0.24341580","wikiDataId":"Q3481104"},{"id":146205,"name":"Sidi Ali Boussidi","stateId":4902,"stateCode":"22","stateName":"Sidi Bel Abbès","countryId":4,"countryCode":"DZ","countryName":"Algeria","latitude":"35.10000000","longitude":"-0.83333333","wikiDataId":"Q1650046"},{"id":146206,"name":"Sidi Amrane","stateId":4902,"stateCode":"22","stateName":"Sidi Bel Abbès","countryId":4,"countryCode":"DZ","countryName":"Algeria","latitude":"33.50000000","longitude":"6.01666667","wikiDataId":"Q3325140"},{"id":146207,"name":"Sidi Bel Abbès","stateId":4902,"stateCode":"22","stateName":"Sidi Bel Abbès","countryId":4,"countryCode":"DZ","countryName":"Algeria","latitude":"35.20000000","longitude":"-0.63333333","wikiDataId":"Q852276"},{"id":146208,"name":"Sidi Brahim","stateId":4902,"stateCode":"22","stateName":"Sidi Bel Abbès","countryId":4,"countryCode":"DZ","countryName":"Algeria","latitude":"35.26055600","longitude":"-0.56750000","wikiDataId":"Q1650068"},{"id":146209,"name":"Sidi Hamadouche","stateId":4902,"stateCode":"22","stateName":"Sidi Bel Abbès","countryId":4,"countryCode":"DZ","countryName":"Algeria","latitude":"35.29916667","longitude":"-0.54888889","wikiDataId":"Q1650247"},{"id":146210,"name":"Sidi Slimane","stateId":4902,"stateCode":"22","stateName":"Sidi Bel Abbès","countryId":4,"countryCode":"DZ","countryName":"Algeria","latitude":"33.28861111","longitude":"6.09472222","wikiDataId":"Q3483291"},{"id":146211,"name":"Sidi Yacoub","stateId":4902,"stateCode":"22","stateName":"Sidi Bel Abbès","countryId":4,"countryCode":"DZ","countryName":"Algeria","latitude":"35.13333333","longitude":"-0.78333333","wikiDataId":"Q1649961"},{"id":146212,"name":"Sidi Yahia","stateId":4902,"stateCode":"22","stateName":"Sidi Bel Abbès","countryId":4,"countryCode":"DZ","countryName":"Algeria","latitude":"33.52166667","longitude":"5.94555556","wikiDataId":"Q11811858"},{"id":146213,"name":"Tabia Sid Bel Abbés","stateId":4902,"stateCode":"22","stateName":"Sidi Bel Abbès","countryId":4,"countryCode":"DZ","countryName":"Algeria","latitude":"35.01783660","longitude":"-0.73385240","wikiDataId":"Q3512757"},{"id":146214,"name":"Taibet","stateId":4902,"stateCode":"22","stateName":"Sidi Bel Abbès","countryId":4,"countryCode":"DZ","countryName":"Algeria","latitude":"33.08391890","longitude":"6.39996530","wikiDataId":"Q3513962"},{"id":146215,"name":"Tamellaht","stateId":4902,"stateCode":"22","stateName":"Sidi Bel Abbès","countryId":4,"countryCode":"DZ","countryName":"Algeria","latitude":"33.01190000","longitude":"6.00972000","wikiDataId":"Q12641156"},{"id":146216,"name":"Tamerna Djedida","stateId":4902,"stateCode":"22","stateName":"Sidi Bel Abbès","countryId":4,"countryCode":"DZ","countryName":"Algeria","latitude":"33.44640000","longitude":"5.95639000","wikiDataId":"Q11773942"},{"id":146217,"name":"Tebesbest","stateId":4902,"stateCode":"22","stateName":"Sidi Bel Abbès","countryId":4,"countryCode":"DZ","countryName":"Algeria","latitude":"33.12001290","longitude":"6.08007430","wikiDataId":"Q601174"},{"id":146218,"name":"Teghalimet","stateId":4902,"stateCode":"22","stateName":"Sidi Bel Abbès","countryId":4,"countryCode":"DZ","countryName":"Algeria","latitude":"34.88283300","longitude":"-0.56000230","wikiDataId":"Q3517138"},{"id":146219,"name":"Telagh","stateId":4902,"stateCode":"22","stateName":"Sidi Bel Abbès","countryId":4,"countryCode":"DZ","countryName":"Algeria","latitude":"34.78490640","longitude":"-0.57317730","wikiDataId":"Q2215476"},{"id":146220,"name":"Tenezara","stateId":4902,"stateCode":"22","stateName":"Sidi Bel Abbès","countryId":4,"countryCode":"DZ","countryName":"Algeria","latitude":"34.96341170","longitude":"-0.61446190","wikiDataId":"Q3518076"},{"id":146221,"name":"Tenira","stateId":4902,"stateCode":"22","stateName":"Sidi Bel Abbès","countryId":4,"countryCode":"DZ","countryName":"Algeria","latitude":"35.01966420","longitude":"-0.53206440","wikiDataId":"Q1650283"},{"id":146222,"name":"Tessala","stateId":4902,"stateCode":"22","stateName":"Sidi Bel Abbès","countryId":4,"countryCode":"DZ","countryName":"Algeria","latitude":"35.24300000","longitude":"-0.77316300","wikiDataId":"Q2381247"},{"id":146223,"name":"Touggourt","stateId":4902,"stateCode":"22","stateName":"Sidi Bel Abbès","countryId":4,"countryCode":"DZ","countryName":"Algeria","latitude":"33.10000000","longitude":"6.06666667","wikiDataId":"Q852515"},{"id":146224,"name":"Zerouala","stateId":4902,"stateCode":"22","stateName":"Sidi Bel Abbès","countryId":4,"countryCode":"DZ","countryName":"Algeria","latitude":"35.24232450","longitude":"-0.52219390","wikiDataId":"Q1650844"}]