[{"id":143783,"name":"Albeck","stateId":2057,"stateCode":"2","stateName":"Carinthia","countryId":15,"countryCode":"AT","countryName":"Austria","latitude":"46.81666667","longitude":"14.10000000","wikiDataId":"Q667265"},{"id":1646,"name":"Althofen","stateId":2057,"stateCode":"2","stateName":"Carinthia","countryId":15,"countryCode":"AT","countryName":"Austria","latitude":"46.87298000","longitude":"14.47449000","wikiDataId":"Q441016"},{"id":1668,"name":"Annabichl","stateId":2057,"stateCode":"2","stateName":"Carinthia","countryId":15,"countryCode":"AT","countryName":"Austria","latitude":"46.65000000","longitude":"14.31667000","wikiDataId":"Q252446"},{"id":1679,"name":"Arnoldstein","stateId":2057,"stateCode":"2","stateName":"Carinthia","countryId":15,"countryCode":"AT","countryName":"Austria","latitude":"46.54611000","longitude":"13.71000000","wikiDataId":"Q693471"},{"id":1681,"name":"Arriach","stateId":2057,"stateCode":"2","stateName":"Carinthia","countryId":15,"countryCode":"AT","countryName":"Austria","latitude":"46.72921000","longitude":"13.85046000","wikiDataId":"Q664562"},{"id":1706,"name":"Auen","stateId":2057,"stateCode":"2","stateName":"Carinthia","countryId":15,"countryCode":"AT","countryName":"Austria","latitude":"46.59963000","longitude":"13.84389000","wikiDataId":"Q677138"},{"id":143785,"name":"Bad Bleiberg","stateId":2057,"stateCode":"2","stateName":"Carinthia","countryId":15,"countryCode":"AT","countryName":"Austria","latitude":"46.62416667","longitude":"13.68777778","wikiDataId":"Q535737"},{"id":143786,"name":"Bad Eisenkappel","stateId":2057,"stateCode":"2","stateName":"Carinthia","countryId":15,"countryCode":"AT","countryName":"Austria","latitude":"46.48333333","longitude":"14.60000000","wikiDataId":"Q14954747"},{"id":143787,"name":"Bad Kleinkirchheim","stateId":2057,"stateCode":"2","stateName":"Carinthia","countryId":15,"countryCode":"AT","countryName":"Austria","latitude":"46.81361111","longitude":"13.79277778","wikiDataId":"Q649069"},{"id":1733,"name":"Bad Sankt Leonhard im Lavanttal","stateId":2057,"stateCode":"2","stateName":"Carinthia","countryId":15,"countryCode":"AT","countryName":"Austria","latitude":"46.96278000","longitude":"14.79167000","wikiDataId":"Q660781"},{"id":1746,"name":"Baldramsdorf","stateId":2057,"stateCode":"2","stateName":"Carinthia","countryId":15,"countryCode":"AT","countryName":"Austria","latitude":"46.80111000","longitude":"13.45333000","wikiDataId":"Q661983"},{"id":1755,"name":"Berg im Drautal","stateId":2057,"stateCode":"2","stateName":"Carinthia","countryId":15,"countryCode":"AT","countryName":"Austria","latitude":"46.74915000","longitude":"13.13536000","wikiDataId":"Q819321"},{"id":1781,"name":"Bleiburg","stateId":2057,"stateCode":"2","stateName":"Carinthia","countryId":15,"countryCode":"AT","countryName":"Austria","latitude":"46.59000000","longitude":"14.79889000","wikiDataId":"Q871356"},{"id":1788,"name":"Bodensdorf","stateId":2057,"stateCode":"2","stateName":"Carinthia","countryId":15,"countryCode":"AT","countryName":"Austria","latitude":"46.69111000","longitude":"13.97111000","wikiDataId":"Q669550"},{"id":1816,"name":"Brückl","stateId":2057,"stateCode":"2","stateName":"Carinthia","countryId":15,"countryCode":"AT","countryName":"Austria","latitude":"46.75167000","longitude":"14.53667000","wikiDataId":"Q871405"},{"id":1833,"name":"Dellach","stateId":2057,"stateCode":"2","stateName":"Carinthia","countryId":15,"countryCode":"AT","countryName":"Austria","latitude":"46.66175000","longitude":"13.07965000","wikiDataId":"Q672114"},{"id":1834,"name":"Dellach im Drautal","stateId":2057,"stateCode":"2","stateName":"Carinthia","countryId":15,"countryCode":"AT","countryName":"Austria","latitude":"46.73750000","longitude":"13.07833000","wikiDataId":"Q662270"},{"id":1838,"name":"Deutsch Griffen","stateId":2057,"stateCode":"2","stateName":"Carinthia","countryId":15,"countryCode":"AT","countryName":"Austria","latitude":"46.85606000","longitude":"14.07501000","wikiDataId":"Q687487"},{"id":143791,"name":"Deutsch-Griffen","stateId":2057,"stateCode":"2","stateName":"Carinthia","countryId":15,"countryCode":"AT","countryName":"Austria","latitude":"46.85500000","longitude":"14.07388889","wikiDataId":"Q662011"},{"id":1854,"name":"Diex","stateId":2057,"stateCode":"2","stateName":"Carinthia","countryId":15,"countryCode":"AT","countryName":"Austria","latitude":"46.75000000","longitude":"14.60000000","wikiDataId":"Q674672"},{"id":1871,"name":"Döbriach","stateId":2057,"stateCode":"2","stateName":"Carinthia","countryId":15,"countryCode":"AT","countryName":"Austria","latitude":"46.78049000","longitude":"13.65738000","wikiDataId":"Q677936"},{"id":1866,"name":"Draschen","stateId":2057,"stateCode":"2","stateName":"Carinthia","countryId":15,"countryCode":"AT","countryName":"Austria","latitude":"46.76909000","longitude":"14.06758000","wikiDataId":"Q171219"},{"id":1886,"name":"Ebenthal","stateId":2057,"stateCode":"2","stateName":"Carinthia","countryId":15,"countryCode":"AT","countryName":"Austria","latitude":"46.60806000","longitude":"14.36417000","wikiDataId":"Q284179"},{"id":1890,"name":"Eberndorf","stateId":2057,"stateCode":"2","stateName":"Carinthia","countryId":15,"countryCode":"AT","countryName":"Austria","latitude":"46.59139000","longitude":"14.64361000","wikiDataId":"Q662378"},{"id":1894,"name":"Eberstein","stateId":2057,"stateCode":"2","stateName":"Carinthia","countryId":15,"countryCode":"AT","countryName":"Austria","latitude":"46.80806000","longitude":"14.56000000","wikiDataId":"Q662203"},{"id":143792,"name":"Ebriach","stateId":2057,"stateCode":"2","stateName":"Carinthia","countryId":15,"countryCode":"AT","countryName":"Austria","latitude":"46.46667000","longitude":"14.51667000","wikiDataId":"Q61958991"},{"id":143793,"name":"Eisenkappel-Vellach","stateId":2057,"stateCode":"2","stateName":"Carinthia","countryId":15,"countryCode":"AT","countryName":"Austria","latitude":"46.48638889","longitude":"14.59611111","wikiDataId":"Q702095"},{"id":1957,"name":"Faak am See","stateId":2057,"stateCode":"2","stateName":"Carinthia","countryId":15,"countryCode":"AT","countryName":"Austria","latitude":"46.56806000","longitude":"13.90972000","wikiDataId":"Q19932786"},{"id":143794,"name":"Feffernitz","stateId":2057,"stateCode":"2","stateName":"Carinthia","countryId":15,"countryCode":"AT","countryName":"Austria","latitude":"46.68333333","longitude":"13.70000000","wikiDataId":"Q5441483"},{"id":1966,"name":"Feistritz an der Drau","stateId":2057,"stateCode":"2","stateName":"Carinthia","countryId":15,"countryCode":"AT","countryName":"Austria","latitude":"46.70157000","longitude":"13.66479000","wikiDataId":"Q5441584"},{"id":1967,"name":"Feistritz an der Gail","stateId":2057,"stateCode":"2","stateName":"Carinthia","countryId":15,"countryCode":"AT","countryName":"Austria","latitude":"46.57750000","longitude":"13.60667000","wikiDataId":"Q690447"},{"id":1969,"name":"Feistritz im Rosental","stateId":2057,"stateCode":"2","stateName":"Carinthia","countryId":15,"countryCode":"AT","countryName":"Austria","latitude":"46.51667000","longitude":"14.16667000","wikiDataId":"Q691204"},{"id":1970,"name":"Feistritz ob Bleiburg","stateId":2057,"stateCode":"2","stateName":"Carinthia","countryId":15,"countryCode":"AT","countryName":"Austria","latitude":"46.55000000","longitude":"14.76667000","wikiDataId":"Q664452"},{"id":1971,"name":"Feld am See","stateId":2057,"stateCode":"2","stateName":"Carinthia","countryId":15,"countryCode":"AT","countryName":"Austria","latitude":"46.77639000","longitude":"13.74778000","wikiDataId":"Q663618"},{"id":2998,"name":"Feldkirchen District","stateId":2057,"stateCode":"2","stateName":"Carinthia","countryId":15,"countryCode":"AT","countryName":"Austria","latitude":"46.72127000","longitude":"14.09683000","wikiDataId":"Q665735"},{"id":1976,"name":"Feldkirchen in Kärnten","stateId":2057,"stateCode":"2","stateName":"Carinthia","countryId":15,"countryCode":"AT","countryName":"Austria","latitude":"46.72368000","longitude":"14.09580000","wikiDataId":"Q507533"},{"id":1980,"name":"Ferlach","stateId":2057,"stateCode":"2","stateName":"Carinthia","countryId":15,"countryCode":"AT","countryName":"Austria","latitude":"46.52694000","longitude":"14.30194000","wikiDataId":"Q610514"},{"id":1981,"name":"Ferndorf","stateId":2057,"stateCode":"2","stateName":"Carinthia","countryId":15,"countryCode":"AT","countryName":"Austria","latitude":"46.73651000","longitude":"13.62661000","wikiDataId":""},{"id":1988,"name":"Finkenstein","stateId":2057,"stateCode":"2","stateName":"Carinthia","countryId":15,"countryCode":"AT","countryName":"Austria","latitude":"46.56155000","longitude":"13.87086000","wikiDataId":"Q679897"},{"id":1989,"name":"Finkenstein am Faaker See","stateId":2057,"stateCode":"2","stateName":"Carinthia","countryId":15,"countryCode":"AT","countryName":"Austria","latitude":"46.57904000","longitude":"13.93496000","wikiDataId":"Q662080"},{"id":1997,"name":"Flattach","stateId":2057,"stateCode":"2","stateName":"Carinthia","countryId":15,"countryCode":"AT","countryName":"Austria","latitude":"46.93861000","longitude":"13.13444000","wikiDataId":"Q667440"},{"id":2033,"name":"Föderlach I","stateId":2057,"stateCode":"2","stateName":"Carinthia","countryId":15,"countryCode":"AT","countryName":"Austria","latitude":"46.59998000","longitude":"13.96128000","wikiDataId":"Q701030"},{"id":143797,"name":"Frantschach-Sankt Gertraud","stateId":2057,"stateCode":"2","stateName":"Carinthia","countryId":15,"countryCode":"AT","countryName":"Austria","latitude":"46.86111111","longitude":"14.86027778","wikiDataId":"Q664570"},{"id":2015,"name":"Frauenstein","stateId":2057,"stateCode":"2","stateName":"Carinthia","countryId":15,"countryCode":"AT","countryName":"Austria","latitude":"46.81417000","longitude":"14.29417000","wikiDataId":"Q698577"},{"id":2021,"name":"Fresach","stateId":2057,"stateCode":"2","stateName":"Carinthia","countryId":15,"countryCode":"AT","countryName":"Austria","latitude":"46.71556000","longitude":"13.69083000","wikiDataId":"Q662026"},{"id":2022,"name":"Fresen","stateId":2057,"stateCode":"2","stateName":"Carinthia","countryId":15,"countryCode":"AT","countryName":"Austria","latitude":"46.70516000","longitude":"14.04513000","wikiDataId":""},{"id":2024,"name":"Friesach","stateId":2057,"stateCode":"2","stateName":"Carinthia","countryId":15,"countryCode":"AT","countryName":"Austria","latitude":"46.95528000","longitude":"14.40583000","wikiDataId":""},{"id":2036,"name":"Fürnitz","stateId":2057,"stateCode":"2","stateName":"Carinthia","countryId":15,"countryCode":"AT","countryName":"Austria","latitude":"46.56188000","longitude":"13.81732000","wikiDataId":"Q693955"},{"id":2043,"name":"Gailitz","stateId":2057,"stateCode":"2","stateName":"Carinthia","countryId":15,"countryCode":"AT","countryName":"Austria","latitude":"46.56083000","longitude":"13.70444000","wikiDataId":"Q165892"},{"id":2046,"name":"Gallizien","stateId":2057,"stateCode":"2","stateName":"Carinthia","countryId":15,"countryCode":"AT","countryName":"Austria","latitude":"46.55000000","longitude":"14.51667000","wikiDataId":"Q875799"},{"id":143800,"name":"Gemmersdorf","stateId":2057,"stateCode":"2","stateName":"Carinthia","countryId":15,"countryCode":"AT","countryName":"Austria","latitude":"46.75740000","longitude":"14.90220000","wikiDataId":"Q997665"},{"id":143801,"name":"Gerlamoos","stateId":2057,"stateCode":"2","stateName":"Carinthia","countryId":15,"countryCode":"AT","countryName":"Austria","latitude":"46.76391000","longitude":"13.27200000","wikiDataId":"Q63560776"},{"id":143802,"name":"Gitschtal","stateId":2057,"stateCode":"2","stateName":"Carinthia","countryId":15,"countryCode":"AT","countryName":"Austria","latitude":"46.67972222","longitude":"13.26055556","wikiDataId":"Q692815"},{"id":2083,"name":"Glanegg","stateId":2057,"stateCode":"2","stateName":"Carinthia","countryId":15,"countryCode":"AT","countryName":"Austria","latitude":"46.72259000","longitude":"14.19893000","wikiDataId":"Q665112"},{"id":2088,"name":"Globasnitz","stateId":2057,"stateCode":"2","stateName":"Carinthia","countryId":15,"countryCode":"AT","countryName":"Austria","latitude":"46.55694000","longitude":"14.70278000","wikiDataId":"Q671487"},{"id":2091,"name":"Glödnitz","stateId":2057,"stateCode":"2","stateName":"Carinthia","countryId":15,"countryCode":"AT","countryName":"Austria","latitude":"46.87398000","longitude":"14.11915000","wikiDataId":"Q696958"},{"id":2093,"name":"Gmünd","stateId":2057,"stateCode":"2","stateName":"Carinthia","countryId":15,"countryCode":"AT","countryName":"Austria","latitude":"46.90722000","longitude":"13.52944000","wikiDataId":"Q660580"},{"id":143803,"name":"Gmünd in Kärnten","stateId":2057,"stateCode":"2","stateName":"Carinthia","countryId":15,"countryCode":"AT","countryName":"Austria","latitude":"46.91472000","longitude":"13.54670000","wikiDataId":"Q21879753"},{"id":2099,"name":"Gnesau","stateId":2057,"stateCode":"2","stateName":"Carinthia","countryId":15,"countryCode":"AT","countryName":"Austria","latitude":"46.77544000","longitude":"13.96251000","wikiDataId":"Q155113"},{"id":143806,"name":"Görtschach","stateId":2057,"stateCode":"2","stateName":"Carinthia","countryId":15,"countryCode":"AT","countryName":"Austria","latitude":"46.61278000","longitude":"13.46500000","wikiDataId":"Q61474469"},{"id":2113,"name":"Grafenstein","stateId":2057,"stateCode":"2","stateName":"Carinthia","countryId":15,"countryCode":"AT","countryName":"Austria","latitude":"46.61393000","longitude":"14.46719000","wikiDataId":"Q595241"},{"id":2124,"name":"Greifenburg","stateId":2057,"stateCode":"2","stateName":"Carinthia","countryId":15,"countryCode":"AT","countryName":"Austria","latitude":"46.75027000","longitude":"13.17982000","wikiDataId":"Q692935"},{"id":2130,"name":"Gries","stateId":2057,"stateCode":"2","stateName":"Carinthia","countryId":15,"countryCode":"AT","countryName":"Austria","latitude":"46.83160000","longitude":"14.85103000","wikiDataId":"Q689455"},{"id":2135,"name":"Griffen","stateId":2057,"stateCode":"2","stateName":"Carinthia","countryId":15,"countryCode":"AT","countryName":"Austria","latitude":"46.70444000","longitude":"14.73278000","wikiDataId":"Q696964"},{"id":2155,"name":"Großkirchheim","stateId":2057,"stateCode":"2","stateName":"Carinthia","countryId":15,"countryCode":"AT","countryName":"Austria","latitude":"46.97270000","longitude":"12.89589000","wikiDataId":"Q664412"},{"id":2178,"name":"Gurk","stateId":2057,"stateCode":"2","stateName":"Carinthia","countryId":15,"countryCode":"AT","countryName":"Austria","latitude":"46.87389000","longitude":"14.29167000","wikiDataId":"Q661877"},{"id":2182,"name":"Guttaring","stateId":2057,"stateCode":"2","stateName":"Carinthia","countryId":15,"countryCode":"AT","countryName":"Austria","latitude":"46.88536000","longitude":"14.51071000","wikiDataId":"Q669323"},{"id":2258,"name":"Heiligenblut","stateId":2057,"stateCode":"2","stateName":"Carinthia","countryId":15,"countryCode":"AT","countryName":"Austria","latitude":"47.03979000","longitude":"12.84345000","wikiDataId":"Q875812"},{"id":2271,"name":"Hermagor","stateId":2057,"stateCode":"2","stateName":"Carinthia","countryId":15,"countryCode":"AT","countryName":"Austria","latitude":"46.62722000","longitude":"13.36722000","wikiDataId":"Q264311"},{"id":3008,"name":"Hermagor District","stateId":2057,"stateCode":"2","stateName":"Carinthia","countryId":15,"countryCode":"AT","countryName":"Austria","latitude":"46.63137000","longitude":"13.13246000","wikiDataId":"Q613991"},{"id":143807,"name":"Hermagor-Pressegger See","stateId":2057,"stateCode":"2","stateName":"Carinthia","countryId":15,"countryCode":"AT","countryName":"Austria","latitude":"46.62722222","longitude":"13.36722222","wikiDataId":"Q672649"},{"id":2282,"name":"Himmelberg","stateId":2057,"stateCode":"2","stateName":"Carinthia","countryId":15,"countryCode":"AT","countryName":"Austria","latitude":"46.75667000","longitude":"14.03056000","wikiDataId":"Q693010"},{"id":2319,"name":"Hohenthurn","stateId":2057,"stateCode":"2","stateName":"Carinthia","countryId":15,"countryCode":"AT","countryName":"Austria","latitude":"46.55774000","longitude":"13.66038000","wikiDataId":"Q660601"},{"id":2344,"name":"Hörtendorf","stateId":2057,"stateCode":"2","stateName":"Carinthia","countryId":15,"countryCode":"AT","countryName":"Austria","latitude":"46.63333000","longitude":"14.40000000","wikiDataId":"Q675816"},{"id":2348,"name":"Hüttenberg","stateId":2057,"stateCode":"2","stateName":"Carinthia","countryId":15,"countryCode":"AT","countryName":"Austria","latitude":"46.94139000","longitude":"14.55000000","wikiDataId":"Q675816"},{"id":2367,"name":"Irschen","stateId":2057,"stateCode":"2","stateName":"Carinthia","countryId":15,"countryCode":"AT","countryName":"Austria","latitude":"46.75694000","longitude":"13.02528000","wikiDataId":"Q692681"},{"id":2402,"name":"Kappel am Krappfeld","stateId":2057,"stateCode":"2","stateName":"Carinthia","countryId":15,"countryCode":"AT","countryName":"Austria","latitude":"46.83861000","longitude":"14.48639000","wikiDataId":"Q664615"},{"id":2420,"name":"Keutschach am See","stateId":2057,"stateCode":"2","stateName":"Carinthia","countryId":15,"countryCode":"AT","countryName":"Austria","latitude":"46.59306000","longitude":"14.18889000","wikiDataId":"Q662784"},{"id":2424,"name":"Kirchbach","stateId":2057,"stateCode":"2","stateName":"Carinthia","countryId":15,"countryCode":"AT","countryName":"Austria","latitude":"46.64160000","longitude":"13.18454000","wikiDataId":"Q695227"},{"id":143810,"name":"Klagenfurt","stateId":2057,"stateCode":"2","stateName":"Carinthia","countryId":15,"countryCode":"AT","countryName":"Austria","latitude":"46.63873000","longitude":"14.29730000","wikiDataId":"Q21880504"},{"id":2446,"name":"Klagenfurt am Wörthersee","stateId":2057,"stateCode":"2","stateName":"Carinthia","countryId":15,"countryCode":"AT","countryName":"Austria","latitude":"46.63333000","longitude":"14.30000000","wikiDataId":"Q41753"},{"id":3016,"name":"Klagenfurt-Land District","stateId":2057,"stateCode":"2","stateName":"Carinthia","countryId":15,"countryCode":"AT","countryName":"Austria","latitude":"46.56722000","longitude":"14.29295000","wikiDataId":"Q660701"},{"id":143811,"name":"Kleblach-Lind","stateId":2057,"stateCode":"2","stateName":"Carinthia","countryId":15,"countryCode":"AT","countryName":"Austria","latitude":"46.76722222","longitude":"13.35805556","wikiDataId":"Q433696"},{"id":2449,"name":"Klein Sankt Paul","stateId":2057,"stateCode":"2","stateName":"Carinthia","countryId":15,"countryCode":"AT","countryName":"Austria","latitude":"46.83611000","longitude":"14.54139000","wikiDataId":"Q664696"},{"id":2453,"name":"Kleinedling","stateId":2057,"stateCode":"2","stateName":"Carinthia","countryId":15,"countryCode":"AT","countryName":"Austria","latitude":"46.81417000","longitude":"14.82778000","wikiDataId":"Q675036"},{"id":2514,"name":"Kötschach","stateId":2057,"stateCode":"2","stateName":"Carinthia","countryId":15,"countryCode":"AT","countryName":"Austria","latitude":"46.68167000","longitude":"13.00694000","wikiDataId":"Q701179"},{"id":143813,"name":"Kötschach-Mauthen","stateId":2057,"stateCode":"2","stateName":"Carinthia","countryId":15,"countryCode":"AT","countryName":"Austria","latitude":"46.66666667","longitude":"13.00000000","wikiDataId":"Q667212"},{"id":2515,"name":"Köttmannsdorf","stateId":2057,"stateCode":"2","stateName":"Carinthia","countryId":15,"countryCode":"AT","countryName":"Austria","latitude":"46.56139000","longitude":"14.23389000","wikiDataId":"Q664542"},{"id":143812,"name":"Krems","stateId":2057,"stateCode":"2","stateName":"Carinthia","countryId":15,"countryCode":"AT","countryName":"Austria","latitude":"46.92250000","longitude":"13.56750000","wikiDataId":"Q667328"},{"id":2500,"name":"Krumpendorf","stateId":2057,"stateCode":"2","stateName":"Carinthia","countryId":15,"countryCode":"AT","countryName":"Austria","latitude":"46.63333000","longitude":"14.21667000","wikiDataId":"Q662440"},{"id":2516,"name":"Kühnsdorf","stateId":2057,"stateCode":"2","stateName":"Carinthia","countryId":15,"countryCode":"AT","countryName":"Austria","latitude":"46.62194000","longitude":"14.63639000","wikiDataId":""},{"id":143814,"name":"Lamnitz","stateId":2057,"stateCode":"2","stateName":"Carinthia","countryId":15,"countryCode":"AT","countryName":"Austria","latitude":"46.86666667","longitude":"12.98333333","wikiDataId":"Q21868827"},{"id":2533,"name":"Landskron","stateId":2057,"stateCode":"2","stateName":"Carinthia","countryId":15,"countryCode":"AT","countryName":"Austria","latitude":"46.61667000","longitude":"13.88333000","wikiDataId":"Q696281"},{"id":2553,"name":"Launsdorf","stateId":2057,"stateCode":"2","stateName":"Carinthia","countryId":15,"countryCode":"AT","countryName":"Austria","latitude":"46.77056000","longitude":"14.45194000","wikiDataId":"Q699625"},{"id":2556,"name":"Lavamünd","stateId":2057,"stateCode":"2","stateName":"Carinthia","countryId":15,"countryCode":"AT","countryName":"Austria","latitude":"46.64019000","longitude":"14.94733000","wikiDataId":"Q875816"},{"id":2561,"name":"Ledenitzen","stateId":2057,"stateCode":"2","stateName":"Carinthia","countryId":15,"countryCode":"AT","countryName":"Austria","latitude":"46.56639000","longitude":"13.96139000","wikiDataId":"Q699437"},{"id":2574,"name":"Lendorf","stateId":2057,"stateCode":"2","stateName":"Carinthia","countryId":15,"countryCode":"AT","countryName":"Austria","latitude":"46.83528000","longitude":"13.43028000","wikiDataId":"Q681202"},{"id":143816,"name":"Leppen","stateId":2057,"stateCode":"2","stateName":"Carinthia","countryId":15,"countryCode":"AT","countryName":"Austria","latitude":"46.48333000","longitude":"14.63333000","wikiDataId":"Q60226792"},{"id":143817,"name":"Lesachtal","stateId":2057,"stateCode":"2","stateName":"Carinthia","countryId":15,"countryCode":"AT","countryName":"Austria","latitude":"46.69388889","longitude":"12.81583333","wikiDataId":"Q677851"},{"id":2594,"name":"Liebenfels","stateId":2057,"stateCode":"2","stateName":"Carinthia","countryId":15,"countryCode":"AT","countryName":"Austria","latitude":"46.73778000","longitude":"14.28667000","wikiDataId":"Q664662"},{"id":2601,"name":"Lind","stateId":2057,"stateCode":"2","stateName":"Carinthia","countryId":15,"countryCode":"AT","countryName":"Austria","latitude":"46.62244000","longitude":"13.84715000","wikiDataId":"Q871536"},{"id":143818,"name":"Lobersberg","stateId":2057,"stateCode":"2","stateName":"Carinthia","countryId":15,"countryCode":"AT","countryName":"Austria","latitude":"46.86500000","longitude":"12.91111111","wikiDataId":"Q21869040"},{"id":2618,"name":"Ludmannsdorf","stateId":2057,"stateCode":"2","stateName":"Carinthia","countryId":15,"countryCode":"AT","countryName":"Austria","latitude":"46.54139000","longitude":"14.13425000","wikiDataId":"Q662465"},{"id":143819,"name":"Lurnfeld","stateId":2057,"stateCode":"2","stateName":"Carinthia","countryId":15,"countryCode":"AT","countryName":"Austria","latitude":"46.83333333","longitude":"13.36666667","wikiDataId":"Q572166"},{"id":143820,"name":"Magdalensberg","stateId":2057,"stateCode":"2","stateName":"Carinthia","countryId":15,"countryCode":"AT","countryName":"Austria","latitude":"46.70111111","longitude":"14.43111111","wikiDataId":"Q662478"},{"id":143821,"name":"Mallnitz","stateId":2057,"stateCode":"2","stateName":"Carinthia","countryId":15,"countryCode":"AT","countryName":"Austria","latitude":"46.98972222","longitude":"13.17000000","wikiDataId":"Q692892"},{"id":143822,"name":"Malta","stateId":2057,"stateCode":"2","stateName":"Carinthia","countryId":15,"countryCode":"AT","countryName":"Austria","latitude":"46.96666667","longitude":"13.51666667","wikiDataId":"Q340115"},{"id":2646,"name":"Maria Rain","stateId":2057,"stateCode":"2","stateName":"Carinthia","countryId":15,"countryCode":"AT","countryName":"Austria","latitude":"46.55389000","longitude":"14.29556000","wikiDataId":"Q682106"},{"id":2647,"name":"Maria Saal","stateId":2057,"stateCode":"2","stateName":"Carinthia","countryId":15,"countryCode":"AT","countryName":"Austria","latitude":"46.68083000","longitude":"14.34861000","wikiDataId":"Q702126"},{"id":2650,"name":"Maria Wörth","stateId":2057,"stateCode":"2","stateName":"Carinthia","countryId":15,"countryCode":"AT","countryName":"Austria","latitude":"46.61639000","longitude":"14.16306000","wikiDataId":"Q251437"},{"id":2678,"name":"Mautbrücken","stateId":2057,"stateCode":"2","stateName":"Carinthia","countryId":15,"countryCode":"AT","countryName":"Austria","latitude":"46.72037000","longitude":"14.19399000","wikiDataId":"Q687243"},{"id":2692,"name":"Metnitz","stateId":2057,"stateCode":"2","stateName":"Carinthia","countryId":15,"countryCode":"AT","countryName":"Austria","latitude":"46.98056000","longitude":"14.21667000","wikiDataId":"Q664708"},{"id":2696,"name":"Micheldorf","stateId":2057,"stateCode":"2","stateName":"Carinthia","countryId":15,"countryCode":"AT","countryName":"Austria","latitude":"46.91667000","longitude":"14.41667000","wikiDataId":"Q678691"},{"id":2702,"name":"Millstatt","stateId":2057,"stateCode":"2","stateName":"Carinthia","countryId":15,"countryCode":"AT","countryName":"Austria","latitude":"46.80417000","longitude":"13.58056000","wikiDataId":"Q681584"},{"id":2742,"name":"Mölbling","stateId":2057,"stateCode":"2","stateName":"Carinthia","countryId":15,"countryCode":"AT","countryName":"Austria","latitude":"46.85000000","longitude":"14.43333000","wikiDataId":"Q662243"},{"id":2743,"name":"Möllbrücke","stateId":2057,"stateCode":"2","stateName":"Carinthia","countryId":15,"countryCode":"AT","countryName":"Austria","latitude":"46.83639000","longitude":"13.37278000","wikiDataId":""},{"id":2726,"name":"Moosburg","stateId":2057,"stateCode":"2","stateName":"Carinthia","countryId":15,"countryCode":"AT","countryName":"Austria","latitude":"46.65750000","longitude":"14.17472000","wikiDataId":"Q672316"},{"id":2749,"name":"Mörtschach","stateId":2057,"stateCode":"2","stateName":"Carinthia","countryId":15,"countryCode":"AT","countryName":"Austria","latitude":"46.92389000","longitude":"12.91778000","wikiDataId":"Q692797"},{"id":2755,"name":"Mühldorf","stateId":2057,"stateCode":"2","stateName":"Carinthia","countryId":15,"countryCode":"AT","countryName":"Austria","latitude":"46.86028000","longitude":"13.35361000","wikiDataId":"Q679644"},{"id":2782,"name":"Neu-Feffernitz","stateId":2057,"stateCode":"2","stateName":"Carinthia","countryId":15,"countryCode":"AT","countryName":"Austria","latitude":"46.68772000","longitude":"13.67914000","wikiDataId":"Q671081"},{"id":2794,"name":"Neuhaus","stateId":2057,"stateCode":"2","stateName":"Carinthia","countryId":15,"countryCode":"AT","countryName":"Austria","latitude":"46.63333000","longitude":"14.88333000","wikiDataId":"Q698544"},{"id":2823,"name":"Niederdorf","stateId":2057,"stateCode":"2","stateName":"Carinthia","countryId":15,"countryCode":"AT","countryName":"Austria","latitude":"46.61667000","longitude":"14.40000000","wikiDataId":"Q660749"},{"id":143829,"name":"Nötsch im Gailtal","stateId":2057,"stateCode":"2","stateName":"Carinthia","countryId":15,"countryCode":"AT","countryName":"Austria","latitude":"46.59000000","longitude":"13.62277778","wikiDataId":"Q664507"},{"id":143830,"name":"Oberdörfl","stateId":2057,"stateCode":"2","stateName":"Carinthia","countryId":15,"countryCode":"AT","countryName":"Austria","latitude":"46.55528000","longitude":"14.10806000","wikiDataId":"Q69880788"},{"id":2849,"name":"Oberdrauburg","stateId":2057,"stateCode":"2","stateName":"Carinthia","countryId":15,"countryCode":"AT","countryName":"Austria","latitude":"46.74306000","longitude":"12.97028000","wikiDataId":"Q692721"},{"id":143831,"name":"Obermillstatt","stateId":2057,"stateCode":"2","stateName":"Carinthia","countryId":15,"countryCode":"AT","countryName":"Austria","latitude":"46.81060000","longitude":"13.59080000","wikiDataId":"Q2010423"},{"id":2879,"name":"Obervellach","stateId":2057,"stateCode":"2","stateName":"Carinthia","countryId":15,"countryCode":"AT","countryName":"Austria","latitude":"46.93667000","longitude":"13.20417000","wikiDataId":"Q876239"},{"id":2906,"name":"Ossiach","stateId":2057,"stateCode":"2","stateName":"Carinthia","countryId":15,"countryCode":"AT","countryName":"Austria","latitude":"46.67435000","longitude":"13.98358000","wikiDataId":"Q661996"},{"id":2928,"name":"Paternion","stateId":2057,"stateCode":"2","stateName":"Carinthia","countryId":15,"countryCode":"AT","countryName":"Austria","latitude":"46.71417000","longitude":"13.63611000","wikiDataId":"Q660468"},{"id":143832,"name":"Pischeldorf","stateId":2057,"stateCode":"2","stateName":"Carinthia","countryId":15,"countryCode":"AT","countryName":"Austria","latitude":"46.68333000","longitude":"14.45000000","wikiDataId":"Q69883614"},{"id":143834,"name":"Pöckau","stateId":2057,"stateCode":"2","stateName":"Carinthia","countryId":15,"countryCode":"AT","countryName":"Austria","latitude":"46.55000000","longitude":"13.73330000","wikiDataId":"Q2120658"},{"id":2986,"name":"Poggersdorf","stateId":2057,"stateCode":"2","stateName":"Carinthia","countryId":15,"countryCode":"AT","countryName":"Austria","latitude":"46.65000000","longitude":"14.45000000","wikiDataId":"Q664423"},{"id":3108,"name":"Pörtschach am Wörthersee","stateId":2057,"stateCode":"2","stateName":"Carinthia","countryId":15,"countryCode":"AT","countryName":"Austria","latitude":"46.63639000","longitude":"14.14639000","wikiDataId":"Q875805"},{"id":3078,"name":"Preitenegg","stateId":2057,"stateCode":"2","stateName":"Carinthia","countryId":15,"countryCode":"AT","countryName":"Austria","latitude":"46.94000000","longitude":"14.92583000","wikiDataId":"Q605176"},{"id":3081,"name":"Priel","stateId":2057,"stateCode":"2","stateName":"Carinthia","countryId":15,"countryCode":"AT","countryName":"Austria","latitude":"46.82758000","longitude":"14.83330000","wikiDataId":"Q666577"},{"id":143833,"name":"Pusarnitz","stateId":2057,"stateCode":"2","stateName":"Carinthia","countryId":15,"countryCode":"AT","countryName":"Austria","latitude":"46.83333000","longitude":"13.40000000","wikiDataId":"Q31271744"},{"id":3123,"name":"Radenthein","stateId":2057,"stateCode":"2","stateName":"Carinthia","countryId":15,"countryCode":"AT","countryName":"Austria","latitude":"46.80056000","longitude":"13.71167000","wikiDataId":"Q700132"},{"id":3130,"name":"Rain","stateId":2057,"stateCode":"2","stateName":"Carinthia","countryId":15,"countryCode":"AT","countryName":"Austria","latitude":"46.60528000","longitude":"14.38611000","wikiDataId":"Q689430"},{"id":3137,"name":"Rangersdorf","stateId":2057,"stateCode":"2","stateName":"Carinthia","countryId":15,"countryCode":"AT","countryName":"Austria","latitude":"46.86001000","longitude":"12.94923000","wikiDataId":"Q692849"},{"id":3157,"name":"Reding","stateId":2057,"stateCode":"2","stateName":"Carinthia","countryId":15,"countryCode":"AT","countryName":"Austria","latitude":"46.81667000","longitude":"14.85000000","wikiDataId":"Q255604"},{"id":143835,"name":"Reichenau","stateId":2057,"stateCode":"2","stateName":"Carinthia","countryId":15,"countryCode":"AT","countryName":"Austria","latitude":"46.85416667","longitude":"13.89305556","wikiDataId":"Q662068"},{"id":3165,"name":"Reichenfels","stateId":2057,"stateCode":"2","stateName":"Carinthia","countryId":15,"countryCode":"AT","countryName":"Austria","latitude":"47.00718000","longitude":"14.74425000","wikiDataId":"Q664859"},{"id":143836,"name":"Reißeck","stateId":2057,"stateCode":"2","stateName":"Carinthia","countryId":15,"countryCode":"AT","countryName":"Austria","latitude":"46.87694444","longitude":"13.30555556","wikiDataId":"Q692764"},{"id":3178,"name":"Rennweg am Katschberg","stateId":2057,"stateCode":"2","stateName":"Carinthia","countryId":15,"countryCode":"AT","countryName":"Austria","latitude":"47.01667000","longitude":"13.61667000","wikiDataId":"Q186112"},{"id":143837,"name":"Rittersdorf","stateId":2057,"stateCode":"2","stateName":"Carinthia","countryId":15,"countryCode":"AT","countryName":"Austria","latitude":"46.75111000","longitude":"13.03444000","wikiDataId":"Q68042411"},{"id":3210,"name":"Rosegg","stateId":2057,"stateCode":"2","stateName":"Carinthia","countryId":15,"countryCode":"AT","countryName":"Austria","latitude":"46.58833000","longitude":"14.01718000","wikiDataId":"Q664587"},{"id":3215,"name":"Ruden","stateId":2057,"stateCode":"2","stateName":"Carinthia","countryId":15,"countryCode":"AT","countryName":"Austria","latitude":"46.65833000","longitude":"14.77639000","wikiDataId":"Q675678"},{"id":3231,"name":"Sachsenburg","stateId":2057,"stateCode":"2","stateName":"Carinthia","countryId":15,"countryCode":"AT","countryName":"Austria","latitude":"46.82917000","longitude":"13.35500000","wikiDataId":"Q664890"},{"id":3239,"name":"Sankt Andrä","stateId":2057,"stateCode":"2","stateName":"Carinthia","countryId":15,"countryCode":"AT","countryName":"Austria","latitude":"46.76829000","longitude":"14.81991000","wikiDataId":"Q514179"},{"id":143839,"name":"Sankt Egyden an der Drau","stateId":2057,"stateCode":"2","stateName":"Carinthia","countryId":15,"countryCode":"AT","countryName":"Austria","latitude":"46.57722000","longitude":"14.06167000","wikiDataId":"Q69882624"},{"id":3484,"name":"Sankt Georgen am Längsee","stateId":2057,"stateCode":"2","stateName":"Carinthia","countryId":15,"countryCode":"AT","countryName":"Austria","latitude":"46.78061000","longitude":"14.43033000","wikiDataId":"Q664135"},{"id":143840,"name":"Sankt Georgen im Lavanttal","stateId":2057,"stateCode":"2","stateName":"Carinthia","countryId":15,"countryCode":"AT","countryName":"Austria","latitude":"46.71666667","longitude":"14.91666667","wikiDataId":"Q664849"},{"id":143841,"name":"Sankt Jakob","stateId":2057,"stateCode":"2","stateName":"Carinthia","countryId":15,"countryCode":"AT","countryName":"Austria","latitude":"46.54777778","longitude":"14.05722222","wikiDataId":"Q21865347"},{"id":143842,"name":"Sankt Jakob im Rosental","stateId":2057,"stateCode":"2","stateName":"Carinthia","countryId":15,"countryCode":"AT","countryName":"Austria","latitude":"46.54777778","longitude":"14.05722222","wikiDataId":"Q662392"},{"id":143843,"name":"Sankt Kanzian am Klopeiner See","stateId":2057,"stateCode":"2","stateName":"Carinthia","countryId":15,"countryCode":"AT","countryName":"Austria","latitude":"46.61444444","longitude":"14.57583333","wikiDataId":"Q692865"},{"id":3279,"name":"Sankt Leonhard","stateId":2057,"stateCode":"2","stateName":"Carinthia","countryId":15,"countryCode":"AT","countryName":"Austria","latitude":"46.62528000","longitude":"13.85865000","wikiDataId":"Q684426"},{"id":3288,"name":"Sankt Magdalen","stateId":2057,"stateCode":"2","stateName":"Carinthia","countryId":15,"countryCode":"AT","countryName":"Austria","latitude":"46.61667000","longitude":"13.88333000","wikiDataId":"Q176565"},{"id":3293,"name":"Sankt Margareten im Rosental","stateId":2057,"stateCode":"2","stateName":"Carinthia","countryId":15,"countryCode":"AT","countryName":"Austria","latitude":"46.54417000","longitude":"14.42444000","wikiDataId":"Q875824"},{"id":3301,"name":"Sankt Martin","stateId":2057,"stateCode":"2","stateName":"Carinthia","countryId":15,"countryCode":"AT","countryName":"Austria","latitude":"46.61667000","longitude":"14.28333000","wikiDataId":"Q661531"},{"id":3319,"name":"Sankt Paul im Lavanttal","stateId":2057,"stateCode":"2","stateName":"Carinthia","countryId":15,"countryCode":"AT","countryName":"Austria","latitude":"46.70056000","longitude":"14.87556000","wikiDataId":"Q692880"},{"id":3320,"name":"Sankt Peter","stateId":2057,"stateCode":"2","stateName":"Carinthia","countryId":15,"countryCode":"AT","countryName":"Austria","latitude":"46.62978000","longitude":"14.34016000","wikiDataId":""},{"id":3332,"name":"Sankt Ruprecht","stateId":2057,"stateCode":"2","stateName":"Carinthia","countryId":15,"countryCode":"AT","countryName":"Austria","latitude":"46.60000000","longitude":"14.31667000","wikiDataId":"Q200916"},{"id":3334,"name":"Sankt Stefan","stateId":2057,"stateCode":"2","stateName":"Carinthia","countryId":15,"countryCode":"AT","countryName":"Austria","latitude":"46.80750000","longitude":"14.85167000","wikiDataId":"Q167602"},{"id":143844,"name":"Sankt Stefan im Gailtal","stateId":2057,"stateCode":"2","stateName":"Carinthia","countryId":15,"countryCode":"AT","countryName":"Austria","latitude":"46.61666667","longitude":"13.51666667","wikiDataId":"Q667075"},{"id":143845,"name":"Sankt Urban","stateId":2057,"stateCode":"2","stateName":"Carinthia","countryId":15,"countryCode":"AT","countryName":"Austria","latitude":"46.75027778","longitude":"14.16916667","wikiDataId":"Q692666"},{"id":3343,"name":"Sankt Veit an der Glan","stateId":2057,"stateCode":"2","stateName":"Carinthia","countryId":15,"countryCode":"AT","countryName":"Austria","latitude":"46.76806000","longitude":"14.36028000","wikiDataId":"Q494604"},{"id":3044,"name":"Sankt Veit an der Glan District","stateId":2057,"stateCode":"2","stateName":"Carinthia","countryId":15,"countryCode":"AT","countryName":"Austria","latitude":"46.83333000","longitude":"14.40000000","wikiDataId":"Q660255"},{"id":3369,"name":"Schiefling am See","stateId":2057,"stateCode":"2","stateName":"Carinthia","countryId":15,"countryCode":"AT","countryName":"Austria","latitude":"46.60444000","longitude":"14.09750000","wikiDataId":"Q585500"},{"id":3374,"name":"Schleben","stateId":2057,"stateCode":"2","stateName":"Carinthia","countryId":15,"countryCode":"AT","countryName":"Austria","latitude":"46.62039000","longitude":"13.93301000","wikiDataId":"Q672011"},{"id":3428,"name":"Seebach","stateId":2057,"stateCode":"2","stateName":"Carinthia","countryId":15,"countryCode":"AT","countryName":"Austria","latitude":"46.61667000","longitude":"13.86667000","wikiDataId":"Q694226"},{"id":3430,"name":"Seeboden","stateId":2057,"stateCode":"2","stateName":"Carinthia","countryId":15,"countryCode":"AT","countryName":"Austria","latitude":"46.81909000","longitude":"13.51430000","wikiDataId":"Q281225"},{"id":3439,"name":"Seitenberg","stateId":2057,"stateCode":"2","stateName":"Carinthia","countryId":15,"countryCode":"AT","countryName":"Austria","latitude":"46.74801000","longitude":"14.08825000","wikiDataId":"Q688974"},{"id":143848,"name":"Sirnitz","stateId":2057,"stateCode":"2","stateName":"Carinthia","countryId":15,"countryCode":"AT","countryName":"Austria","latitude":"46.82361000","longitude":"14.05944000","wikiDataId":"Q43015266"},{"id":3464,"name":"Sittersdorf","stateId":2057,"stateCode":"2","stateName":"Carinthia","countryId":15,"countryCode":"AT","countryName":"Austria","latitude":"46.54444000","longitude":"14.60583000","wikiDataId":"Q664396"},{"id":3479,"name":"Spittal an der Drau","stateId":2057,"stateCode":"2","stateName":"Carinthia","countryId":15,"countryCode":"AT","countryName":"Austria","latitude":"46.80000000","longitude":"13.50000000","wikiDataId":"Q487500"},{"id":3048,"name":"Spittal an der Drau District","stateId":2057,"stateCode":"2","stateName":"Carinthia","countryId":15,"countryCode":"AT","countryName":"Austria","latitude":"46.85000000","longitude":"13.33333000","wikiDataId":"Q660293"},{"id":3483,"name":"St. Agathen und Perau","stateId":2057,"stateCode":"2","stateName":"Carinthia","countryId":15,"countryCode":"AT","countryName":"Austria","latitude":"46.60627000","longitude":"13.85615000","wikiDataId":"Q659996"},{"id":143849,"name":"St. Andrä","stateId":2057,"stateCode":"2","stateName":"Carinthia","countryId":15,"countryCode":"AT","countryName":"Austria","latitude":"46.76473000","longitude":"14.82442000","wikiDataId":"Q21880410"},{"id":143850,"name":"St. Margareten im Rosental","stateId":2057,"stateCode":"2","stateName":"Carinthia","countryId":15,"countryCode":"AT","countryName":"Austria","latitude":"46.52498000","longitude":"14.41600000","wikiDataId":"Q21880500"},{"id":143851,"name":"St. Paul im Lavanttal","stateId":2057,"stateCode":"2","stateName":"Carinthia","countryId":15,"countryCode":"AT","countryName":"Austria","latitude":"46.69869000","longitude":"14.84877000","wikiDataId":"Q21880409"},{"id":143852,"name":"St. Stefan im Gailtal","stateId":2057,"stateCode":"2","stateName":"Carinthia","countryId":15,"countryCode":"AT","countryName":"Austria","latitude":"46.60796000","longitude":"13.50973000","wikiDataId":"Q21879766"},{"id":143853,"name":"St. Urban","stateId":2057,"stateCode":"2","stateName":"Carinthia","countryId":15,"countryCode":"AT","countryName":"Austria","latitude":"46.76128000","longitude":"14.16658000","wikiDataId":"Q21880405"},{"id":143854,"name":"St. Veit an der Glan","stateId":2057,"stateCode":"2","stateName":"Carinthia","countryId":15,"countryCode":"AT","countryName":"Austria","latitude":"46.73536000","longitude":"14.35404000","wikiDataId":"Q21879756"},{"id":3486,"name":"St. Veiter Vorstadt","stateId":2057,"stateCode":"2","stateName":"Carinthia","countryId":15,"countryCode":"AT","countryName":"Austria","latitude":"46.63170000","longitude":"14.30579000","wikiDataId":""},{"id":3496,"name":"Stall","stateId":2057,"stateCode":"2","stateName":"Carinthia","countryId":15,"countryCode":"AT","countryName":"Austria","latitude":"46.89056000","longitude":"13.03694000","wikiDataId":"Q693266"},{"id":3517,"name":"Steindorf am Ossiacher See","stateId":2057,"stateCode":"2","stateName":"Carinthia","countryId":15,"countryCode":"AT","countryName":"Austria","latitude":"46.69833000","longitude":"14.00917000","wikiDataId":"Q692707"},{"id":3519,"name":"Steinfeld","stateId":2057,"stateCode":"2","stateName":"Carinthia","countryId":15,"countryCode":"AT","countryName":"Austria","latitude":"46.75812000","longitude":"13.24934000","wikiDataId":"Q643744"},{"id":3526,"name":"Steuerberg","stateId":2057,"stateCode":"2","stateName":"Carinthia","countryId":15,"countryCode":"AT","countryName":"Austria","latitude":"46.78804000","longitude":"14.11290000","wikiDataId":"Q692907"},{"id":3532,"name":"Stockenboi","stateId":2057,"stateCode":"2","stateName":"Carinthia","countryId":15,"countryCode":"AT","countryName":"Austria","latitude":"46.72611000","longitude":"13.52306000","wikiDataId":"Q597549"},{"id":143857,"name":"Straßburg","stateId":2057,"stateCode":"2","stateName":"Carinthia","countryId":15,"countryCode":"AT","countryName":"Austria","latitude":"46.89555556","longitude":"14.33083333","wikiDataId":"Q660945"},{"id":3548,"name":"Straßburg-Stadt","stateId":2057,"stateCode":"2","stateName":"Carinthia","countryId":15,"countryCode":"AT","countryName":"Austria","latitude":"46.89444000","longitude":"14.32861000","wikiDataId":"Q690920"},{"id":143858,"name":"Suetschach","stateId":2057,"stateCode":"2","stateName":"Carinthia","countryId":15,"countryCode":"AT","countryName":"Austria","latitude":"46.52694444","longitude":"14.15638889","wikiDataId":"Q59429120"},{"id":143859,"name":"Techelsberg","stateId":2057,"stateCode":"2","stateName":"Carinthia","countryId":15,"countryCode":"AT","countryName":"Austria","latitude":"46.65861111","longitude":"14.10194444","wikiDataId":"Q664869"},{"id":143860,"name":"Timenitz","stateId":2057,"stateCode":"2","stateName":"Carinthia","countryId":15,"countryCode":"AT","countryName":"Austria","latitude":"46.68333000","longitude":"14.41667000","wikiDataId":"Q69881257"},{"id":3618,"name":"Trebesing","stateId":2057,"stateCode":"2","stateName":"Carinthia","countryId":15,"countryCode":"AT","countryName":"Austria","latitude":"46.88639000","longitude":"13.51028000","wikiDataId":"Q259710"},{"id":143862,"name":"Treffen","stateId":2057,"stateCode":"2","stateName":"Carinthia","countryId":15,"countryCode":"AT","countryName":"Austria","latitude":"46.66833333","longitude":"13.85555556","wikiDataId":"Q661948"},{"id":3620,"name":"Treibach","stateId":2057,"stateCode":"2","stateName":"Carinthia","countryId":15,"countryCode":"AT","countryName":"Austria","latitude":"46.86667000","longitude":"14.46667000","wikiDataId":"Q687443"},{"id":143863,"name":"Tschachoritsch","stateId":2057,"stateCode":"2","stateName":"Carinthia","countryId":15,"countryCode":"AT","countryName":"Austria","latitude":"46.55352000","longitude":"14.21461000","wikiDataId":"Q64500299"},{"id":143864,"name":"Umberg","stateId":2057,"stateCode":"2","stateName":"Carinthia","countryId":15,"countryCode":"AT","countryName":"Austria","latitude":"46.64833000","longitude":"13.95750000","wikiDataId":"Q60719171"},{"id":3649,"name":"Untere Fellach","stateId":2057,"stateCode":"2","stateName":"Carinthia","countryId":15,"countryCode":"AT","countryName":"Austria","latitude":"46.62504000","longitude":"13.82681000","wikiDataId":"Q681320"},{"id":143865,"name":"Velden am Wörther See","stateId":2057,"stateCode":"2","stateName":"Carinthia","countryId":15,"countryCode":"AT","countryName":"Austria","latitude":"46.61250000","longitude":"14.04194444","wikiDataId":"Q660687"},{"id":3675,"name":"Velden am Wörthersee","stateId":2057,"stateCode":"2","stateName":"Carinthia","countryId":15,"countryCode":"AT","countryName":"Austria","latitude":"46.61301000","longitude":"14.04130000","wikiDataId":"Q690077"},{"id":3684,"name":"Viktring","stateId":2057,"stateCode":"2","stateName":"Carinthia","countryId":15,"countryCode":"AT","countryName":"Austria","latitude":"46.59194000","longitude":"14.26917000","wikiDataId":"Q694633"},{"id":3685,"name":"Viktringer Vorstadt","stateId":2057,"stateCode":"2","stateName":"Carinthia","countryId":15,"countryCode":"AT","countryName":"Austria","latitude":"46.61773000","longitude":"14.30931000","wikiDataId":""},{"id":3686,"name":"Villach","stateId":2057,"stateCode":"2","stateName":"Carinthia","countryId":15,"countryCode":"AT","countryName":"Austria","latitude":"46.61028000","longitude":"13.85583000","wikiDataId":""},{"id":3688,"name":"Villach-Innere Stadt","stateId":2057,"stateCode":"2","stateName":"Carinthia","countryId":15,"countryCode":"AT","countryName":"Austria","latitude":"46.61275000","longitude":"13.84638000","wikiDataId":""},{"id":3054,"name":"Villach-Land District","stateId":2057,"stateCode":"2","stateName":"Carinthia","countryId":15,"countryCode":"AT","countryName":"Austria","latitude":"46.65308000","longitude":"13.77287000","wikiDataId":"Q660264"},{"id":3689,"name":"Villacher Vorstadt","stateId":2057,"stateCode":"2","stateName":"Carinthia","countryId":15,"countryCode":"AT","countryName":"Austria","latitude":"46.62368000","longitude":"14.28892000","wikiDataId":""},{"id":3705,"name":"Völkendorf","stateId":2057,"stateCode":"2","stateName":"Carinthia","countryId":15,"countryCode":"AT","countryName":"Austria","latitude":"46.60806000","longitude":"13.83153000","wikiDataId":"Q673008"},{"id":3706,"name":"Völkermarkt","stateId":2057,"stateCode":"2","stateName":"Carinthia","countryId":15,"countryCode":"AT","countryName":"Austria","latitude":"46.66222000","longitude":"14.63444000","wikiDataId":"Q164488"},{"id":3057,"name":"Völkermarkt District","stateId":2057,"stateCode":"2","stateName":"Carinthia","countryId":15,"countryCode":"AT","countryName":"Austria","latitude":"46.59641000","longitude":"14.66664000","wikiDataId":"Q660279"},{"id":3707,"name":"Völkermarkter Vorstadt","stateId":2057,"stateCode":"2","stateName":"Carinthia","countryId":15,"countryCode":"AT","countryName":"Austria","latitude":"46.62418000","longitude":"14.32081000","wikiDataId":""},{"id":3721,"name":"Waiern","stateId":2057,"stateCode":"2","stateName":"Carinthia","countryId":15,"countryCode":"AT","countryName":"Austria","latitude":"46.73028000","longitude":"14.08194000","wikiDataId":"Q548941"},{"id":3744,"name":"Warmbad-Judendorf","stateId":2057,"stateCode":"2","stateName":"Carinthia","countryId":15,"countryCode":"AT","countryName":"Austria","latitude":"46.60126000","longitude":"13.82241000","wikiDataId":"Q2543329"},{"id":143867,"name":"Weißensee","stateId":2057,"stateCode":"2","stateName":"Carinthia","countryId":15,"countryCode":"AT","countryName":"Austria","latitude":"46.71666667","longitude":"13.30000000","wikiDataId":"Q692919"},{"id":143868,"name":"Weißenstein","stateId":2057,"stateCode":"2","stateName":"Carinthia","countryId":15,"countryCode":"AT","countryName":"Austria","latitude":"46.68222222","longitude":"13.72361111","wikiDataId":"Q689409"},{"id":3776,"name":"Weitensfeld","stateId":2057,"stateCode":"2","stateName":"Carinthia","countryId":15,"countryCode":"AT","countryName":"Austria","latitude":"46.84743000","longitude":"14.19213000","wikiDataId":"Q526021"},{"id":143866,"name":"Weitensfeld im Gurktal","stateId":2057,"stateCode":"2","stateName":"Carinthia","countryId":15,"countryCode":"AT","countryName":"Austria","latitude":"46.84861111","longitude":"14.19166667","wikiDataId":"Q664752"},{"id":3794,"name":"Wernberg","stateId":2057,"stateCode":"2","stateName":"Carinthia","countryId":15,"countryCode":"AT","countryName":"Austria","latitude":"46.61667000","longitude":"13.93333000","wikiDataId":"Q255361"},{"id":3833,"name":"Winklern","stateId":2057,"stateCode":"2","stateName":"Carinthia","countryId":15,"countryCode":"AT","countryName":"Austria","latitude":"46.87361000","longitude":"12.87472000","wikiDataId":"Q669349"},{"id":3854,"name":"Wölfnitz","stateId":2057,"stateCode":"2","stateName":"Carinthia","countryId":15,"countryCode":"AT","countryName":"Austria","latitude":"46.66639000","longitude":"14.25806000","wikiDataId":"Q670748"},{"id":3842,"name":"Wolfsberg","stateId":2057,"stateCode":"2","stateName":"Carinthia","countryId":15,"countryCode":"AT","countryName":"Austria","latitude":"46.84056000","longitude":"14.84417000","wikiDataId":"Q632364"},{"id":3061,"name":"Wolfsberg District","stateId":2057,"stateCode":"2","stateName":"Carinthia","countryId":15,"countryCode":"AT","countryName":"Austria","latitude":"46.83333000","longitude":"14.83333000","wikiDataId":"Q665641"},{"id":3849,"name":"Wudmath","stateId":2057,"stateCode":"2","stateName":"Carinthia","countryId":15,"countryCode":"AT","countryName":"Austria","latitude":"46.59634000","longitude":"13.98067000","wikiDataId":"Q21864074"},{"id":143871,"name":"Zell","stateId":2057,"stateCode":"2","stateName":"Carinthia","countryId":15,"countryCode":"AT","countryName":"Austria","latitude":"46.47222222","longitude":"14.38888889","wikiDataId":"Q187493"}]