[{"id":66590,"name":"Būgai","stateId":1573,"stateCode":"TA","stateName":"Tauragė County","countryId":126,"countryCode":"LT","countryName":"Lithuania","latitude":"55.41387000","longitude":"22.60894000","wikiDataId":"Q763504"},{"id":66609,"name":"Jurbarkas","stateId":1573,"stateCode":"TA","stateName":"Tauragė County","countryId":126,"countryCode":"LT","countryName":"Lithuania","latitude":"55.10859000","longitude":"22.79885000","wikiDataId":"Q2089815"},{"id":66648,"name":"Pagėgiai","stateId":1573,"stateCode":"TA","stateName":"Tauragė County","countryId":126,"countryCode":"LT","countryName":"Lithuania","latitude":"55.13400000","longitude":"21.90446000","wikiDataId":"Q2283574"},{"id":66715,"name":"Šilalė","stateId":1573,"stateCode":"TA","stateName":"Tauragė County","countryId":126,"countryCode":"LT","countryName":"Lithuania","latitude":"55.46667000","longitude":"22.20000000","wikiDataId":"Q1417346"},{"id":66683,"name":"Taurage","stateId":1573,"stateCode":"TA","stateName":"Tauragė County","countryId":126,"countryCode":"LT","countryName":"Lithuania","latitude":"55.25222000","longitude":"22.28972000","wikiDataId":"Q193787"}]