[{"id":79960,"name":"Alcalde Díaz","stateId":1395,"stateCode":"8","stateName":"Panamá Province","countryId":170,"countryCode":"PA","countryName":"Panama","latitude":"9.12016000","longitude":"-79.55641000","wikiDataId":"Q1956983"},{"id":79968,"name":"Ancón","stateId":1395,"stateCode":"8","stateName":"Panamá Province","countryId":170,"countryCode":"PA","countryName":"Panama","latitude":"8.96015000","longitude":"-79.55140000","wikiDataId":"Q1956983"},{"id":80006,"name":"Brujas","stateId":1395,"stateCode":"8","stateName":"Panamá Province","countryId":170,"countryCode":"PA","countryName":"Panama","latitude":"8.58536000","longitude":"-78.53008000","wikiDataId":"Q804144"},{"id":80014,"name":"Cabra Número Uno","stateId":1395,"stateCode":"8","stateName":"Panamá Province","countryId":170,"countryCode":"PA","countryName":"Panama","latitude":"9.10863000","longitude":"-79.33694000","wikiDataId":"Q804144"},{"id":80018,"name":"Caimitillo","stateId":1395,"stateCode":"8","stateName":"Panamá Province","countryId":170,"countryCode":"PA","countryName":"Panama","latitude":"9.15559000","longitude":"-79.53974000","wikiDataId":"Q804144"},{"id":80027,"name":"Calzada Larga","stateId":1395,"stateCode":"8","stateName":"Panamá Province","countryId":170,"countryCode":"PA","countryName":"Panama","latitude":"9.17272000","longitude":"-79.56212000","wikiDataId":"Q804144"},{"id":80041,"name":"Cañita","stateId":1395,"stateCode":"8","stateName":"Panamá Province","countryId":170,"countryCode":"PA","countryName":"Panama","latitude":"9.22236000","longitude":"-78.89509000","wikiDataId":"Q804144"},{"id":80045,"name":"Cerro Azul","stateId":1395,"stateCode":"8","stateName":"Panamá Province","countryId":170,"countryCode":"PA","countryName":"Panama","latitude":"9.15735000","longitude":"-79.42097000","wikiDataId":"Q804144"},{"id":80055,"name":"Chepillo","stateId":1395,"stateCode":"8","stateName":"Panamá Province","countryId":170,"countryCode":"PA","countryName":"Panama","latitude":"8.95396000","longitude":"-79.12856000","wikiDataId":"Q804144"},{"id":80056,"name":"Chepo","stateId":1395,"stateCode":"8","stateName":"Panamá Province","countryId":170,"countryCode":"PA","countryName":"Panama","latitude":"9.17019000","longitude":"-79.10083000","wikiDataId":"Q804144"},{"id":80060,"name":"Chilibre","stateId":1395,"stateCode":"8","stateName":"Panamá Province","countryId":170,"countryCode":"PA","countryName":"Panama","latitude":"9.15093000","longitude":"-79.62098000","wikiDataId":"Q804144"},{"id":80061,"name":"Chimán","stateId":1395,"stateCode":"8","stateName":"Panamá Province","countryId":170,"countryCode":"PA","countryName":"Panama","latitude":"8.69125000","longitude":"-78.63570000","wikiDataId":"Q804144"},{"id":80074,"name":"Contadora","stateId":1395,"stateCode":"8","stateName":"Panamá Province","countryId":170,"countryCode":"PA","countryName":"Panama","latitude":"8.62483000","longitude":"-79.03748000","wikiDataId":"Q627852"},{"id":80080,"name":"Curundú","stateId":1395,"stateCode":"8","stateName":"Panamá Province","countryId":170,"countryCode":"PA","countryName":"Panama","latitude":"8.97092000","longitude":"-79.54612000","wikiDataId":"Q80777"},{"id":80090,"name":"Distrito de Balboa","stateId":1395,"stateCode":"8","stateName":"Panamá Province","countryId":170,"countryCode":"PA","countryName":"Panama","latitude":"8.46667000","longitude":"-79.00000000","wikiDataId":"Q2216400"},{"id":80103,"name":"Distrito de Chepo","stateId":1395,"stateCode":"8","stateName":"Panamá Province","countryId":170,"countryCode":"PA","countryName":"Panama","latitude":"9.17391000","longitude":"-78.70374000","wikiDataId":"Q2215925"},{"id":80104,"name":"Distrito de Chimán","stateId":1395,"stateCode":"8","stateName":"Panamá Province","countryId":170,"countryCode":"PA","countryName":"Panama","latitude":"8.76043000","longitude":"-78.56470000","wikiDataId":"Q2216594"},{"id":80125,"name":"Distrito de Panamá","stateId":1395,"stateCode":"8","stateName":"Panamá Province","countryId":170,"countryCode":"PA","countryName":"Panama","latitude":"9.30612000","longitude":"-79.45246000","wikiDataId":"Q2216411"},{"id":80144,"name":"Distrito de Taboga","stateId":1395,"stateCode":"8","stateName":"Panamá Province","countryId":170,"countryCode":"PA","countryName":"Panama","latitude":"8.78333000","longitude":"-79.55833000","wikiDataId":"Q2072534"},{"id":80160,"name":"El Chorrillo","stateId":1395,"stateCode":"8","stateName":"Panamá Province","countryId":170,"countryCode":"PA","countryName":"Panama","latitude":"8.94964000","longitude":"-79.54715000","wikiDataId":"Q2216393"},{"id":80196,"name":"El Progreso","stateId":1395,"stateCode":"8","stateName":"Panamá Province","countryId":170,"countryCode":"PA","countryName":"Panama","latitude":"9.26667000","longitude":"-79.11667000","wikiDataId":"Q1018577"},{"id":80215,"name":"Gonzalillo","stateId":1395,"stateCode":"8","stateName":"Panamá Province","countryId":170,"countryCode":"PA","countryName":"Panama","latitude":"9.09183000","longitude":"-79.51928000","wikiDataId":"Q5352312"},{"id":80234,"name":"Howard","stateId":1395,"stateCode":"8","stateName":"Panamá Province","countryId":170,"countryCode":"PA","countryName":"Panama","latitude":"8.93942000","longitude":"-79.59097000","wikiDataId":"Q2437057"},{"id":80238,"name":"Juan Díaz","stateId":1395,"stateCode":"8","stateName":"Panamá Province","countryId":170,"countryCode":"PA","countryName":"Panama","latitude":"9.05000000","longitude":"-79.45000000","wikiDataId":"Q2437057"},{"id":80242,"name":"La Cabima","stateId":1395,"stateCode":"8","stateName":"Panamá Province","countryId":170,"countryCode":"PA","countryName":"Panama","latitude":"9.11865000","longitude":"-79.53660000","wikiDataId":"Q751010"},{"id":80245,"name":"La Colorada","stateId":1395,"stateCode":"8","stateName":"Panamá Province","countryId":170,"countryCode":"PA","countryName":"Panama","latitude":"9.10224000","longitude":"-79.41600000","wikiDataId":"Q774405"},{"id":80249,"name":"La Ensenada","stateId":1395,"stateCode":"8","stateName":"Panamá Province","countryId":170,"countryCode":"PA","countryName":"Panama","latitude":"8.36618000","longitude":"-78.84606000","wikiDataId":"Q774405"},{"id":80251,"name":"La Esmeralda","stateId":1395,"stateCode":"8","stateName":"Panamá Province","countryId":170,"countryCode":"PA","countryName":"Panama","latitude":"8.26817000","longitude":"-78.92460000","wikiDataId":"Q774405"},{"id":80256,"name":"La Guinea","stateId":1395,"stateCode":"8","stateName":"Panamá Province","countryId":170,"countryCode":"PA","countryName":"Panama","latitude":"8.34250000","longitude":"-78.93430000","wikiDataId":"Q774405"},{"id":80264,"name":"La Mesa","stateId":1395,"stateCode":"8","stateName":"Panamá Province","countryId":170,"countryCode":"PA","countryName":"Panama","latitude":"9.17308000","longitude":"-79.27401000","wikiDataId":"Q6463469"},{"id":80288,"name":"Las Cumbres","stateId":1395,"stateCode":"8","stateName":"Panamá Province","countryId":170,"countryCode":"PA","countryName":"Panama","latitude":"9.08916000","longitude":"-79.52809000","wikiDataId":"Q3916792"},{"id":80297,"name":"Las Margaritas","stateId":1395,"stateCode":"8","stateName":"Panamá Province","countryId":170,"countryCode":"PA","countryName":"Panama","latitude":"9.18426000","longitude":"-79.08730000","wikiDataId":"Q3916792"},{"id":80345,"name":"Lídice","stateId":1395,"stateCode":"8","stateName":"Panamá Province","countryId":170,"countryCode":"PA","countryName":"Panama","latitude":"8.74869000","longitude":"-79.90974000","wikiDataId":"Q931897"},{"id":80337,"name":"Los Lotes","stateId":1395,"stateCode":"8","stateName":"Panamá Province","countryId":170,"countryCode":"PA","countryName":"Panama","latitude":"9.12425000","longitude":"-79.28929000","wikiDataId":"Q2712890"},{"id":80372,"name":"Nueva Esperanza","stateId":1395,"stateCode":"8","stateName":"Panamá Province","countryId":170,"countryCode":"PA","countryName":"Panama","latitude":"9.10210000","longitude":"-79.33414000","wikiDataId":"Q3544851"},{"id":80375,"name":"Nuevo Belén","stateId":1395,"stateCode":"8","stateName":"Panamá Province","countryId":170,"countryCode":"PA","countryName":"Panama","latitude":"9.07939000","longitude":"-79.39556000","wikiDataId":"Q7068660"},{"id":80386,"name":"Pacora","stateId":1395,"stateCode":"8","stateName":"Panamá Province","countryId":170,"countryCode":"PA","countryName":"Panama","latitude":"9.07937000","longitude":"-79.28997000","wikiDataId":"Q1985435"},{"id":80394,"name":"Panamá","stateId":1395,"stateCode":"8","stateName":"Panamá Province","countryId":170,"countryCode":"PA","countryName":"Panama","latitude":"8.99360000","longitude":"-79.51973000","wikiDataId":"Q3306"},{"id":80400,"name":"Parque Lefevre","stateId":1395,"stateCode":"8","stateName":"Panamá Province","countryId":170,"countryCode":"PA","countryName":"Panama","latitude":"9.01667000","longitude":"-79.48333000","wikiDataId":"Q3306"},{"id":80441,"name":"Pásiga","stateId":1395,"stateCode":"8","stateName":"Panamá Province","countryId":170,"countryCode":"PA","countryName":"Panama","latitude":"8.93647000","longitude":"-78.90917000","wikiDataId":"Q3130855"},{"id":80404,"name":"Pedregal","stateId":1395,"stateCode":"8","stateName":"Panamá Province","countryId":170,"countryCode":"PA","countryName":"Panama","latitude":"9.06667000","longitude":"-79.43333000","wikiDataId":"Q3306"},{"id":80456,"name":"Río Abajo","stateId":1395,"stateCode":"8","stateName":"Panamá Province","countryId":170,"countryCode":"PA","countryName":"Panama","latitude":"9.01667000","longitude":"-79.50000000","wikiDataId":"Q3130855"},{"id":80472,"name":"San Antonio","stateId":1395,"stateCode":"8","stateName":"Panamá Province","countryId":170,"countryCode":"PA","countryName":"Panama","latitude":"9.17290000","longitude":"-79.54743000","wikiDataId":"Q7386411"},{"id":80476,"name":"San Felipe","stateId":1395,"stateCode":"8","stateName":"Panamá Province","countryId":170,"countryCode":"PA","countryName":"Panama","latitude":"8.95118000","longitude":"-79.53726000","wikiDataId":"Q7386411"},{"id":80489,"name":"San Miguel","stateId":1395,"stateCode":"8","stateName":"Panamá Province","countryId":170,"countryCode":"PA","countryName":"Panama","latitude":"8.45685000","longitude":"-78.93695000","wikiDataId":"Q7386411"},{"id":80490,"name":"San Miguelito","stateId":1395,"stateCode":"8","stateName":"Panamá Province","countryId":170,"countryCode":"PA","countryName":"Panama","latitude":"9.05032000","longitude":"-79.47068000","wikiDataId":"Q932699"},{"id":80494,"name":"San Vicente","stateId":1395,"stateCode":"8","stateName":"Panamá Province","countryId":170,"countryCode":"PA","countryName":"Panama","latitude":"9.11445000","longitude":"-79.59755000","wikiDataId":"Q932699"},{"id":80524,"name":"Tocumen","stateId":1395,"stateCode":"8","stateName":"Panamá Province","countryId":170,"countryCode":"PA","countryName":"Panama","latitude":"9.08939000","longitude":"-79.38310000","wikiDataId":"Q186116"},{"id":80527,"name":"Tortí","stateId":1395,"stateCode":"8","stateName":"Panamá Province","countryId":170,"countryCode":"PA","countryName":"Panama","latitude":"8.92132000","longitude":"-78.40546000","wikiDataId":"Q186116"},{"id":80533,"name":"Unión de Azuero","stateId":1395,"stateCode":"8","stateName":"Panamá Province","countryId":170,"countryCode":"PA","countryName":"Panama","latitude":"9.15256000","longitude":"-79.17005000","wikiDataId":"Q4845142"},{"id":80532,"name":"Unión Santeña","stateId":1395,"stateCode":"8","stateName":"Panamá Province","countryId":170,"countryCode":"PA","countryName":"Panama","latitude":"8.83525000","longitude":"-78.65104000","wikiDataId":"Q4845142"},{"id":80546,"name":"Villa Unida","stateId":1395,"stateCode":"8","stateName":"Panamá Province","countryId":170,"countryCode":"PA","countryName":"Panama","latitude":"9.18908000","longitude":"-79.62452000","wikiDataId":"Q3254645"},{"id":80549,"name":"Vista Hermosa","stateId":1395,"stateCode":"8","stateName":"Panamá Province","countryId":170,"countryCode":"PA","countryName":"Panama","latitude":"9.11178000","longitude":"-79.36113000","wikiDataId":"Q33512189"}]