[{"id":3041,"name":"Bomi County","countryId":123,"countryCode":"LR","countryName":"Liberia","stateCode":"BM","type":null,"latitude":"6.75629260","longitude":"-10.84514670"},{"id":3034,"name":"Bong County","countryId":123,"countryCode":"LR","countryName":"Liberia","stateCode":"BG","type":null,"latitude":"6.82950190","longitude":"-9.36730840"},{"id":3044,"name":"Gbarpolu County","countryId":123,"countryCode":"LR","countryName":"Liberia","stateCode":"GP","type":null,"latitude":"7.49526370","longitude":"-10.08072980"},{"id":3040,"name":"Grand Bassa County","countryId":123,"countryCode":"LR","countryName":"Liberia","stateCode":"GB","type":null,"latitude":"6.23084520","longitude":"-9.81249350"},{"id":3036,"name":"Grand Cape Mount County","countryId":123,"countryCode":"LR","countryName":"Liberia","stateCode":"CM","type":null,"latitude":"7.04677580","longitude":"-11.07117580"},{"id":3039,"name":"Grand Gedeh County","countryId":123,"countryCode":"LR","countryName":"Liberia","stateCode":"GG","type":null,"latitude":"5.92220780","longitude":"-8.22129790"},{"id":3045,"name":"Grand Kru County","countryId":123,"countryCode":"LR","countryName":"Liberia","stateCode":"GK","type":null,"latitude":"4.76138620","longitude":"-8.22129790"},{"id":3037,"name":"Lofa County","countryId":123,"countryCode":"LR","countryName":"Liberia","stateCode":"LO","type":null,"latitude":"8.19111840","longitude":"-9.72326730"},{"id":3043,"name":"Margibi County","countryId":123,"countryCode":"LR","countryName":"Liberia","stateCode":"MG","type":null,"latitude":"6.51518750","longitude":"-10.30488970"},{"id":3042,"name":"Maryland County","countryId":123,"countryCode":"LR","countryName":"Liberia","stateCode":"MY","type":null,"latitude":"39.04575490","longitude":"-76.64127120"},{"id":3032,"name":"Montserrado County","countryId":123,"countryCode":"LR","countryName":"Liberia","stateCode":"MO","type":null,"latitude":"6.55258150","longitude":"-10.52961150"},{"id":3046,"name":"Nimba","countryId":123,"countryCode":"LR","countryName":"Liberia","stateCode":"NI","type":null,"latitude":"7.61666670","longitude":"-8.41666670"},{"id":3033,"name":"River Cess County","countryId":123,"countryCode":"LR","countryName":"Liberia","stateCode":"RI","type":null,"latitude":"5.90253280","longitude":"-9.45615500"},{"id":3038,"name":"River Gee County","countryId":123,"countryCode":"LR","countryName":"Liberia","stateCode":"RG","type":null,"latitude":"5.26048940","longitude":"-7.87216000"},{"id":3035,"name":"Sinoe County","countryId":123,"countryCode":"LR","countryName":"Liberia","stateCode":"SI","type":null,"latitude":"5.49871000","longitude":"-8.66005860"}]