[{"id":21800,"name":"Abreus","stateId":287,"stateCode":"06","stateName":"Cienfuegos Province","countryId":56,"countryCode":"CU","countryName":"Cuba","latitude":"22.27797000","longitude":"-80.56931000","wikiDataId":"Q23806009"},{"id":21801,"name":"Aguada de Pasajeros","stateId":287,"stateCode":"06","stateName":"Cienfuegos Province","countryId":56,"countryCode":"CU","countryName":"Cuba","latitude":"22.38520000","longitude":"-80.84792000","wikiDataId":"Q23806009"},{"id":21834,"name":"Cienfuegos","stateId":287,"stateCode":"06","stateName":"Cienfuegos Province","countryId":56,"countryCode":"CU","countryName":"Cuba","latitude":"22.14957000","longitude":"-80.44662000","wikiDataId":"Q1060628"},{"id":21843,"name":"Cruces","stateId":287,"stateCode":"06","stateName":"Cienfuegos Province","countryId":56,"countryCode":"CU","countryName":"Cuba","latitude":"22.34203000","longitude":"-80.27021000","wikiDataId":"Q1129122"},{"id":21845,"name":"Cumanayagua","stateId":287,"stateCode":"06","stateName":"Cienfuegos Province","countryId":56,"countryCode":"CU","countryName":"Cuba","latitude":"22.15247000","longitude":"-80.20354000","wikiDataId":"Q5044"},{"id":21883,"name":"Lajas","stateId":287,"stateCode":"06","stateName":"Cienfuegos Province","countryId":56,"countryCode":"CU","countryName":"Cuba","latitude":"22.41479000","longitude":"-80.29310000","wikiDataId":"Q5045"},{"id":21903,"name":"Municipio de Abreus","stateId":287,"stateCode":"06","stateName":"Cienfuegos Province","countryId":56,"countryCode":"CU","countryName":"Cuba","latitude":"22.19229000","longitude":"-80.71465000","wikiDataId":"Q331384"},{"id":21910,"name":"Municipio de Cienfuegos","stateId":287,"stateCode":"06","stateName":"Cienfuegos Province","countryId":56,"countryCode":"CU","countryName":"Cuba","latitude":"22.15000000","longitude":"-80.45000000","wikiDataId":"Q190005"},{"id":21940,"name":"Palmira","stateId":287,"stateCode":"06","stateName":"Cienfuegos Province","countryId":56,"countryCode":"CU","countryName":"Cuba","latitude":"22.24126000","longitude":"-80.39110000","wikiDataId":"Q5008"},{"id":21953,"name":"Rodas","stateId":287,"stateCode":"06","stateName":"Cienfuegos Province","countryId":56,"countryCode":"CU","countryName":"Cuba","latitude":"22.34184000","longitude":"-80.55596000","wikiDataId":"Q21610104"}]