[{"id":149070,"name":"Asunafo North","stateId":53,"stateCode":"AF","stateName":"Ahafo","countryId":83,"countryCode":"GH","countryName":"Ghana","latitude":"6.81968910","longitude":"-2.80770500","wikiDataId":"Q752417"},{"id":149071,"name":"Asunafo South","stateId":53,"stateCode":"AF","stateName":"Ahafo","countryId":83,"countryCode":"GH","countryName":"Ghana","latitude":"6.64801380","longitude":"-2.68874370","wikiDataId":"Q752420"},{"id":149072,"name":"Asutifi North","stateId":53,"stateCode":"AF","stateName":"Ahafo","countryId":83,"countryCode":"GH","countryName":"Ghana","latitude":"6.94774860","longitude":"-2.76757160","wikiDataId":"Q55555112"},{"id":149073,"name":"Asutifi South","stateId":53,"stateCode":"AF","stateName":"Ahafo","countryId":83,"countryCode":"GH","countryName":"Ghana","latitude":"6.64801380","longitude":"-2.68874370","wikiDataId":"Q55555134"},{"id":149069,"name":"Tano North","stateId":53,"stateCode":"AF","stateName":"Ahafo","countryId":83,"countryCode":"GH","countryName":"Ghana","latitude":"7.22603010","longitude":"-2.30456560","wikiDataId":"Q373327"},{"id":149068,"name":"Tano South","stateId":53,"stateCode":"AF","stateName":"Ahafo","countryId":83,"countryCode":"GH","countryName":"Ghana","latitude":"7.19537930","longitude":"-2.12586610","wikiDataId":"Q960302"}]