[{"id":89692,"name":"Água de Pau","stateId":2233,"stateCode":"20","stateName":"Açores","countryId":177,"countryCode":"PT","countryName":"Portugal","latitude":"37.72142000","longitude":"-25.51170000","wikiDataId":"Q1999047"},{"id":88968,"name":"Angra do Heroísmo","stateId":2233,"stateCode":"20","stateName":"Açores","countryId":177,"countryCode":"PT","countryName":"Portugal","latitude":"38.65483000","longitude":"-27.21734000","wikiDataId":"Q193677"},{"id":88969,"name":"Angústias","stateId":2233,"stateCode":"20","stateName":"Açores","countryId":177,"countryCode":"PT","countryName":"Portugal","latitude":"38.52547000","longitude":"-28.63132000","wikiDataId":"Q193677"},{"id":88994,"name":"Arrifes","stateId":2233,"stateCode":"20","stateName":"Açores","countryId":177,"countryCode":"PT","countryName":"Portugal","latitude":"37.76667000","longitude":"-25.70000000","wikiDataId":"Q31889400"},{"id":89037,"name":"Biscoitos","stateId":2233,"stateCode":"20","stateName":"Açores","countryId":177,"countryCode":"PT","countryName":"Portugal","latitude":"38.78333000","longitude":"-27.25000000","wikiDataId":"Q616959"},{"id":89057,"name":"Cabouco","stateId":2233,"stateCode":"20","stateName":"Açores","countryId":177,"countryCode":"PT","countryName":"Portugal","latitude":"37.76667000","longitude":"-25.56667000","wikiDataId":"Q1997739"},{"id":89062,"name":"Cais do Pico","stateId":2233,"stateCode":"20","stateName":"Açores","countryId":177,"countryCode":"PT","countryName":"Portugal","latitude":"38.52531000","longitude":"-28.32074000","wikiDataId":"Q33661928"},{"id":89069,"name":"Calheta","stateId":2233,"stateCode":"20","stateName":"Açores","countryId":177,"countryCode":"PT","countryName":"Portugal","latitude":"38.60186000","longitude":"-28.01792000","wikiDataId":"Q757078"},{"id":89070,"name":"Calheta de São Jorge","stateId":2233,"stateCode":"20","stateName":"Açores","countryId":177,"countryCode":"PT","countryName":"Portugal","latitude":"38.59767000","longitude":"-27.91459000","wikiDataId":"Q1019047"},{"id":89105,"name":"Castelo Branco","stateId":2233,"stateCode":"20","stateName":"Açores","countryId":177,"countryCode":"PT","countryName":"Portugal","latitude":"38.52198000","longitude":"-28.71365000","wikiDataId":"Q12899232"},{"id":89131,"name":"Corvo","stateId":2233,"stateCode":"20","stateName":"Açores","countryId":177,"countryCode":"PT","countryName":"Portugal","latitude":"39.69771000","longitude":"-31.10550000","wikiDataId":"Q1006836"},{"id":89163,"name":"Fajã de Baixo","stateId":2233,"stateCode":"20","stateName":"Açores","countryId":177,"countryCode":"PT","countryName":"Portugal","latitude":"37.75000000","longitude":"-25.65000000","wikiDataId":"Q49350011"},{"id":89172,"name":"Fenais da Ajuda","stateId":2233,"stateCode":"20","stateName":"Açores","countryId":177,"countryCode":"PT","countryName":"Portugal","latitude":"37.85128000","longitude":"-25.32406000","wikiDataId":"Q936904"},{"id":89173,"name":"Fenais da Luz","stateId":2233,"stateCode":"20","stateName":"Açores","countryId":177,"countryCode":"PT","countryName":"Portugal","latitude":"37.82490000","longitude":"-25.64229000","wikiDataId":"Q936904"},{"id":89181,"name":"Feteira","stateId":2233,"stateCode":"20","stateName":"Açores","countryId":177,"countryCode":"PT","countryName":"Portugal","latitude":"38.65429000","longitude":"-27.14995000","wikiDataId":"Q49350137"},{"id":89187,"name":"Fonte Bastardo","stateId":2233,"stateCode":"20","stateName":"Açores","countryId":177,"countryCode":"PT","countryName":"Portugal","latitude":"38.69201000","longitude":"-27.07942000","wikiDataId":"Q5465145"},{"id":89199,"name":"Furnas","stateId":2233,"stateCode":"20","stateName":"Açores","countryId":177,"countryCode":"PT","countryName":"Portugal","latitude":"37.77567000","longitude":"-25.31035000","wikiDataId":"Q49350690"},{"id":89223,"name":"Horta","stateId":2233,"stateCode":"20","stateName":"Açores","countryId":177,"countryCode":"PT","countryName":"Portugal","latitude":"38.53737000","longitude":"-28.62615000","wikiDataId":"Q49354018"},{"id":89228,"name":"Lagoa","stateId":2233,"stateCode":"20","stateName":"Açores","countryId":177,"countryCode":"PT","countryName":"Portugal","latitude":"37.74486000","longitude":"-25.57184000","wikiDataId":"Q564759"},{"id":89231,"name":"Lajes","stateId":2233,"stateCode":"20","stateName":"Açores","countryId":177,"countryCode":"PT","countryName":"Portugal","latitude":"38.76352000","longitude":"-27.10336000","wikiDataId":"Q2652876"},{"id":89232,"name":"Lajes das Flores","stateId":2233,"stateCode":"20","stateName":"Açores","countryId":177,"countryCode":"PT","countryName":"Portugal","latitude":"39.41619000","longitude":"-31.21725000","wikiDataId":"Q1021452"},{"id":89233,"name":"Lajes do Pico","stateId":2233,"stateCode":"20","stateName":"Açores","countryId":177,"countryCode":"PT","countryName":"Portugal","latitude":"38.42797000","longitude":"-28.17402000","wikiDataId":"Q1019053"},{"id":89267,"name":"Madalena","stateId":2233,"stateCode":"20","stateName":"Açores","countryId":177,"countryCode":"PT","countryName":"Portugal","latitude":"38.53642000","longitude":"-28.52660000","wikiDataId":"Q1002565"},{"id":89269,"name":"Maia","stateId":2233,"stateCode":"20","stateName":"Açores","countryId":177,"countryCode":"PT","countryName":"Portugal","latitude":"37.83247000","longitude":"-25.38976000","wikiDataId":"Q986419"},{"id":89333,"name":"Mosteiros","stateId":2233,"stateCode":"20","stateName":"Açores","countryId":177,"countryCode":"PT","countryName":"Portugal","latitude":"37.89017000","longitude":"-25.81999000","wikiDataId":"Q35734150"},{"id":89350,"name":"Nordeste","stateId":2233,"stateCode":"20","stateName":"Açores","countryId":177,"countryCode":"PT","countryName":"Portugal","latitude":"37.82721000","longitude":"-25.22863000","wikiDataId":"Q564762"},{"id":89412,"name":"Ponta Delgada","stateId":2233,"stateCode":"20","stateName":"Açores","countryId":177,"countryCode":"PT","countryName":"Portugal","latitude":"37.74230000","longitude":"-25.67093000","wikiDataId":"Q208149"},{"id":89413,"name":"Ponta Garça","stateId":2233,"stateCode":"20","stateName":"Açores","countryId":177,"countryCode":"PT","countryName":"Portugal","latitude":"37.71667000","longitude":"-25.36667000","wikiDataId":"Q208149"},{"id":89427,"name":"Porto Judeu","stateId":2233,"stateCode":"20","stateName":"Açores","countryId":177,"countryCode":"PT","countryName":"Portugal","latitude":"38.64814000","longitude":"-27.11944000","wikiDataId":"Q1999450"},{"id":89428,"name":"Porto Martins","stateId":2233,"stateCode":"20","stateName":"Açores","countryId":177,"countryCode":"PT","countryName":"Portugal","latitude":"38.68146000","longitude":"-27.05835000","wikiDataId":"Q1999450"},{"id":89434,"name":"Povoação","stateId":2233,"stateCode":"20","stateName":"Açores","countryId":177,"countryCode":"PT","countryName":"Portugal","latitude":"37.76471000","longitude":"-25.24487000","wikiDataId":"Q565726"},{"id":89437,"name":"Praia da Vitória","stateId":2233,"stateCode":"20","stateName":"Açores","countryId":177,"countryCode":"PT","countryName":"Portugal","latitude":"38.73333000","longitude":"-27.06667000","wikiDataId":"Q49362272"},{"id":89451,"name":"Rabo de Peixe","stateId":2233,"stateCode":"20","stateName":"Açores","countryId":177,"countryCode":"PT","countryName":"Portugal","latitude":"37.81022000","longitude":"-25.58263000","wikiDataId":"Q2652576"},{"id":89460,"name":"Relva","stateId":2233,"stateCode":"20","stateName":"Açores","countryId":177,"countryCode":"PT","countryName":"Portugal","latitude":"37.75271000","longitude":"-25.71848000","wikiDataId":"Q1997694"},{"id":89466,"name":"Ribeira Grande","stateId":2233,"stateCode":"20","stateName":"Açores","countryId":177,"countryCode":"PT","countryName":"Portugal","latitude":"38.51667000","longitude":"-28.70000000","wikiDataId":"Q49363712"},{"id":89467,"name":"Ribeira Seca","stateId":2233,"stateCode":"20","stateName":"Açores","countryId":177,"countryCode":"PT","countryName":"Portugal","latitude":"37.81667000","longitude":"-25.53333000","wikiDataId":"Q49363712"},{"id":89469,"name":"Ribeirinha","stateId":2233,"stateCode":"20","stateName":"Açores","countryId":177,"countryCode":"PT","countryName":"Portugal","latitude":"38.66203000","longitude":"-27.18093000","wikiDataId":"Q1006378"},{"id":89479,"name":"Rosto de Cão","stateId":2233,"stateCode":"20","stateName":"Açores","countryId":177,"countryCode":"PT","countryName":"Portugal","latitude":"37.75000000","longitude":"-25.65000000","wikiDataId":"Q49364193"},{"id":89494,"name":"Santa Bárbara","stateId":2233,"stateCode":"20","stateName":"Açores","countryId":177,"countryCode":"PT","countryName":"Portugal","latitude":"38.69608000","longitude":"-27.33907000","wikiDataId":"Q2233176"},{"id":89502,"name":"Santa Cruz da Graciosa","stateId":2233,"stateCode":"20","stateName":"Açores","countryId":177,"countryCode":"PT","countryName":"Portugal","latitude":"39.04946000","longitude":"-28.00432000","wikiDataId":"Q1010463"},{"id":89501,"name":"Santa Cruz das Flores","stateId":2233,"stateCode":"20","stateName":"Açores","countryId":177,"countryCode":"PT","countryName":"Portugal","latitude":"39.46984000","longitude":"-31.18514000","wikiDataId":"Q1003134"},{"id":89558,"name":"São Bartolomeu","stateId":2233,"stateCode":"20","stateName":"Açores","countryId":177,"countryCode":"PT","countryName":"Portugal","latitude":"38.67491000","longitude":"-27.29349000","wikiDataId":"Q923784"},{"id":89577,"name":"São Mateus","stateId":2233,"stateCode":"20","stateName":"Açores","countryId":177,"countryCode":"PT","countryName":"Portugal","latitude":"38.65630000","longitude":"-27.26935000","wikiDataId":"Q2035277"},{"id":89586,"name":"São Roque","stateId":2233,"stateCode":"20","stateName":"Açores","countryId":177,"countryCode":"PT","countryName":"Portugal","latitude":"37.75418000","longitude":"-25.64127000","wikiDataId":"Q2116898"},{"id":89588,"name":"São Roque do Pico","stateId":2233,"stateCode":"20","stateName":"Açores","countryId":177,"countryCode":"PT","countryName":"Portugal","latitude":"38.51631000","longitude":"-28.30752000","wikiDataId":"Q33503226"},{"id":89589,"name":"São Sebastião","stateId":2233,"stateCode":"20","stateName":"Açores","countryId":177,"countryCode":"PT","countryName":"Portugal","latitude":"38.66584000","longitude":"-27.08976000","wikiDataId":"Q33503226"},{"id":89592,"name":"São Vicente","stateId":2233,"stateCode":"20","stateName":"Açores","countryId":177,"countryCode":"PT","countryName":"Portugal","latitude":"37.81829000","longitude":"-25.66583000","wikiDataId":"Q304464"},{"id":89529,"name":"Senhora do Rosário","stateId":2233,"stateCode":"20","stateName":"Açores","countryId":177,"countryCode":"PT","countryName":"Portugal","latitude":"37.83333000","longitude":"-25.15000000","wikiDataId":"Q2671865"},{"id":89633,"name":"Velas","stateId":2233,"stateCode":"20","stateName":"Açores","countryId":177,"countryCode":"PT","countryName":"Portugal","latitude":"38.67995000","longitude":"-28.15155000","wikiDataId":"Q1010468"},{"id":89673,"name":"Vila do Porto","stateId":2233,"stateCode":"20","stateName":"Açores","countryId":177,"countryCode":"PT","countryName":"Portugal","latitude":"36.97454000","longitude":"-25.09967000","wikiDataId":"Q1003164"},{"id":89650,"name":"Vila Franca do Campo","stateId":2233,"stateCode":"20","stateName":"Açores","countryId":177,"countryCode":"PT","countryName":"Portugal","latitude":"37.71667000","longitude":"-25.43333000","wikiDataId":"Q565290"}]