[{"id":76694,"name":"Département de Diffa","stateId":72,"stateCode":"2","stateName":"Diffa Region","countryId":160,"countryCode":"NE","countryName":"Niger","latitude":"13.66667000","longitude":"12.50000000","wikiDataId":"Q749567"},{"id":76705,"name":"Département de Maïné-Soroa","stateId":72,"stateCode":"2","stateName":"Diffa Region","countryId":160,"countryCode":"NE","countryName":"Niger","latitude":"13.31206000","longitude":"12.08321000","wikiDataId":"Q1538108"},{"id":76706,"name":"Département de Nguigmi","stateId":72,"stateCode":"2","stateName":"Diffa Region","countryId":160,"countryCode":"NE","countryName":"Niger","latitude":"14.20753000","longitude":"13.12177000","wikiDataId":"Q1422302"},{"id":76686,"name":"Diffa","stateId":72,"stateCode":"2","stateName":"Diffa Region","countryId":160,"countryCode":"NE","countryName":"Niger","latitude":"13.31536000","longitude":"12.61135000","wikiDataId":"Q888839"},{"id":76729,"name":"Maïné Soroa","stateId":72,"stateCode":"2","stateName":"Diffa Region","countryId":160,"countryCode":"NE","countryName":"Niger","latitude":"13.21139000","longitude":"12.02410000","wikiDataId":"Q664550"},{"id":76731,"name":"Nguigmi","stateId":72,"stateCode":"2","stateName":"Diffa Region","countryId":160,"countryCode":"NE","countryName":"Niger","latitude":"14.24953000","longitude":"13.10921000","wikiDataId":"Q664550"}]