[{"id":135335,"name":"Airole","stateId":1768,"stateCode":"42","stateName":"Liguria","countryId":107,"countryCode":"IT","countryName":"Italy","latitude":"43.87092000","longitude":"7.55414000","wikiDataId":"Q18441902"},{"id":135344,"name":"Alassio","stateId":1768,"stateCode":"42","stateName":"Liguria","countryId":107,"countryCode":"IT","countryName":"Italy","latitude":"44.00393000","longitude":"8.16713000","wikiDataId":"Q18441902"},{"id":135362,"name":"Albenga","stateId":1768,"stateCode":"42","stateName":"Liguria","countryId":107,"countryCode":"IT","countryName":"Italy","latitude":"44.04997000","longitude":"8.21829000","wikiDataId":"Q18500583"},{"id":135381,"name":"Albisola Marina","stateId":1768,"stateCode":"42","stateName":"Liguria","countryId":107,"countryCode":"IT","countryName":"Italy","latitude":"44.33079000","longitude":"8.50960000","wikiDataId":"Q2439920"},{"id":135382,"name":"Albisola Superiore","stateId":1768,"stateCode":"42","stateName":"Liguria","countryId":107,"countryCode":"IT","countryName":"Italy","latitude":"44.33889000","longitude":"8.51046000","wikiDataId":"Q2439920"},{"id":135431,"name":"Altare","stateId":1768,"stateCode":"42","stateName":"Liguria","countryId":107,"countryCode":"IT","countryName":"Italy","latitude":"44.33566000","longitude":"8.33411000","wikiDataId":"Q18503836"},{"id":135467,"name":"Ameglia","stateId":1768,"stateCode":"42","stateName":"Liguria","countryId":107,"countryCode":"IT","countryName":"Italy","latitude":"44.07089000","longitude":"9.96600000","wikiDataId":"Q3613790"},{"id":135484,"name":"Andora","stateId":1768,"stateCode":"42","stateName":"Liguria","countryId":107,"countryCode":"IT","countryName":"Italy","latitude":"43.95514000","longitude":"8.14121000","wikiDataId":"Q18490629"},{"id":135539,"name":"Apricale","stateId":1768,"stateCode":"42","stateName":"Liguria","countryId":107,"countryCode":"IT","countryName":"Italy","latitude":"43.88033000","longitude":"7.65993000","wikiDataId":"Q18435824"},{"id":135544,"name":"Aquila di Arroscia","stateId":1768,"stateCode":"42","stateName":"Liguria","countryId":107,"countryCode":"IT","countryName":"Italy","latitude":"44.08593000","longitude":"8.00525000","wikiDataId":"Q18459571"},{"id":135571,"name":"Arcola","stateId":1768,"stateCode":"42","stateName":"Liguria","countryId":107,"countryCode":"IT","countryName":"Italy","latitude":"44.11778000","longitude":"9.91175000","wikiDataId":"Q18454414"},{"id":135588,"name":"Arenzano","stateId":1768,"stateCode":"42","stateName":"Liguria","countryId":107,"countryCode":"IT","countryName":"Italy","latitude":"44.40521000","longitude":"8.68315000","wikiDataId":"Q18454415"},{"id":135616,"name":"Armo","stateId":1768,"stateCode":"42","stateName":"Liguria","countryId":107,"countryCode":"IT","countryName":"Italy","latitude":"44.08773000","longitude":"7.91545000","wikiDataId":"Q18454416"},{"id":135620,"name":"Arnasco","stateId":1768,"stateCode":"42","stateName":"Liguria","countryId":107,"countryCode":"IT","countryName":"Italy","latitude":"44.07823000","longitude":"8.10745000","wikiDataId":"Q18454416"},{"id":135690,"name":"Aurigo","stateId":1768,"stateCode":"42","stateName":"Liguria","countryId":107,"countryCode":"IT","countryName":"Italy","latitude":"43.98281000","longitude":"7.92342000","wikiDataId":"Q18454419"},{"id":135697,"name":"Avegno","stateId":1768,"stateCode":"42","stateName":"Liguria","countryId":107,"countryCode":"IT","countryName":"Italy","latitude":"44.38285000","longitude":"9.15797000","wikiDataId":"Q18328180"},{"id":135732,"name":"Badalucco","stateId":1768,"stateCode":"42","stateName":"Liguria","countryId":107,"countryCode":"IT","countryName":"Italy","latitude":"43.91683000","longitude":"7.84584000","wikiDataId":"Q18508845"},{"id":135781,"name":"Bajardo","stateId":1768,"stateCode":"42","stateName":"Liguria","countryId":107,"countryCode":"IT","countryName":"Italy","latitude":"43.90402000","longitude":"7.72534000","wikiDataId":"Q18436446"},{"id":135788,"name":"Balestrino","stateId":1768,"stateCode":"42","stateName":"Liguria","countryId":107,"countryCode":"IT","countryName":"Italy","latitude":"44.12426000","longitude":"8.17064000","wikiDataId":"Q18436446"},{"id":135841,"name":"Bardineto","stateId":1768,"stateCode":"42","stateName":"Liguria","countryId":107,"countryCode":"IT","countryName":"Italy","latitude":"44.18972000","longitude":"8.13529000","wikiDataId":"Q3634893"},{"id":135849,"name":"Bargagli","stateId":1768,"stateCode":"42","stateName":"Liguria","countryId":107,"countryCode":"IT","countryName":"Italy","latitude":"44.44750000","longitude":"9.09372000","wikiDataId":"Q3634893"},{"id":135989,"name":"Bergeggi","stateId":1768,"stateCode":"42","stateName":"Liguria","countryId":107,"countryCode":"IT","countryName":"Italy","latitude":"44.24833000","longitude":"8.44402000","wikiDataId":"Q18478581"},{"id":136025,"name":"Beverino","stateId":1768,"stateCode":"42","stateName":"Liguria","countryId":107,"countryCode":"IT","countryName":"Italy","latitude":"44.19766000","longitude":"9.78537000","wikiDataId":"Q18445866"},{"id":136090,"name":"Bocco","stateId":1768,"stateCode":"42","stateName":"Liguria","countryId":107,"countryCode":"IT","countryName":"Italy","latitude":"44.35111000","longitude":"9.30333000","wikiDataId":"Q18456407"},{"id":136096,"name":"Bogliasco","stateId":1768,"stateCode":"42","stateName":"Liguria","countryId":107,"countryCode":"IT","countryName":"Italy","latitude":"44.38070000","longitude":"9.06926000","wikiDataId":"Q18494924"},{"id":136098,"name":"Boissano","stateId":1768,"stateCode":"42","stateName":"Liguria","countryId":107,"countryCode":"IT","countryName":"Italy","latitude":"44.13583000","longitude":"8.22155000","wikiDataId":"Q18494924"},{"id":136101,"name":"Bolano","stateId":1768,"stateCode":"42","stateName":"Liguria","countryId":107,"countryCode":"IT","countryName":"Italy","latitude":"44.18770000","longitude":"9.89488000","wikiDataId":"Q18502872"},{"id":136124,"name":"Bonassola","stateId":1768,"stateCode":"42","stateName":"Liguria","countryId":107,"countryCode":"IT","countryName":"Italy","latitude":"44.18323000","longitude":"9.58422000","wikiDataId":"Q15124"},{"id":136148,"name":"Bordighera","stateId":1768,"stateCode":"42","stateName":"Liguria","countryId":107,"countryCode":"IT","countryName":"Italy","latitude":"43.78064000","longitude":"7.66451000","wikiDataId":"Q18439865"},{"id":136161,"name":"Borghetto d'Arroscia","stateId":1768,"stateCode":"42","stateName":"Liguria","countryId":107,"countryCode":"IT","countryName":"Italy","latitude":"44.05672000","longitude":"7.98076000","wikiDataId":"Q18495567"},{"id":136163,"name":"Borghetto di Vara","stateId":1768,"stateCode":"42","stateName":"Liguria","countryId":107,"countryCode":"IT","countryName":"Italy","latitude":"44.22368000","longitude":"9.72118000","wikiDataId":"Q18495567"},{"id":136160,"name":"Borghetto Santo Spirito","stateId":1768,"stateCode":"42","stateName":"Liguria","countryId":107,"countryCode":"IT","countryName":"Italy","latitude":"44.11187000","longitude":"8.24129000","wikiDataId":"Q18495567"},{"id":136168,"name":"Borgio","stateId":1768,"stateCode":"42","stateName":"Liguria","countryId":107,"countryCode":"IT","countryName":"Italy","latitude":"44.15906000","longitude":"8.30832000","wikiDataId":"Q18461332"},{"id":136200,"name":"Borgo di Ranzo","stateId":1768,"stateCode":"42","stateName":"Liguria","countryId":107,"countryCode":"IT","countryName":"Italy","latitude":"44.05963000","longitude":"8.01495000","wikiDataId":"Q18459652"},{"id":136171,"name":"Borgo Fornari-Pieve","stateId":1768,"stateCode":"42","stateName":"Liguria","countryId":107,"countryCode":"IT","countryName":"Italy","latitude":"44.58933000","longitude":"8.93671000","wikiDataId":"Q18456423"},{"id":136208,"name":"Borgomaro","stateId":1768,"stateCode":"42","stateName":"Liguria","countryId":107,"countryCode":"IT","countryName":"Italy","latitude":"43.97530000","longitude":"7.94408000","wikiDataId":"Q42337"},{"id":136219,"name":"Bormida","stateId":1768,"stateCode":"42","stateName":"Liguria","countryId":107,"countryCode":"IT","countryName":"Italy","latitude":"44.27813000","longitude":"8.23235000","wikiDataId":"Q2460647"},{"id":136220,"name":"Bormida-Genepro","stateId":1768,"stateCode":"42","stateName":"Liguria","countryId":107,"countryCode":"IT","countryName":"Italy","latitude":"44.39051000","longitude":"8.19952000","wikiDataId":"Q18461343"},{"id":136235,"name":"Borzonasca","stateId":1768,"stateCode":"42","stateName":"Liguria","countryId":107,"countryCode":"IT","countryName":"Italy","latitude":"44.42002000","longitude":"9.38851000","wikiDataId":"Q930122"},{"id":136364,"name":"Brugnato","stateId":1768,"stateCode":"42","stateName":"Liguria","countryId":107,"countryCode":"IT","countryName":"Italy","latitude":"44.23671000","longitude":"9.72496000","wikiDataId":"Q952146"},{"id":136418,"name":"Busalla","stateId":1768,"stateCode":"42","stateName":"Liguria","countryId":107,"countryCode":"IT","countryName":"Italy","latitude":"44.57060000","longitude":"8.94545000","wikiDataId":"Q18502918"},{"id":136483,"name":"Cairo Montenotte","stateId":1768,"stateCode":"42","stateName":"Liguria","countryId":107,"countryCode":"IT","countryName":"Italy","latitude":"44.39790000","longitude":"8.27775000","wikiDataId":"Q18452728"},{"id":136527,"name":"Calice al Cornoviglio","stateId":1768,"stateCode":"42","stateName":"Liguria","countryId":107,"countryCode":"IT","countryName":"Italy","latitude":"44.24326000","longitude":"9.83671000","wikiDataId":"Q2329271"},{"id":136526,"name":"Calice Ligure","stateId":1768,"stateCode":"42","stateName":"Liguria","countryId":107,"countryCode":"IT","countryName":"Italy","latitude":"44.20493000","longitude":"8.29535000","wikiDataId":"Q2329271"},{"id":136530,"name":"Calizzano","stateId":1768,"stateCode":"42","stateName":"Liguria","countryId":107,"countryCode":"IT","countryName":"Italy","latitude":"44.23612000","longitude":"8.11817000","wikiDataId":"Q2329271"},{"id":136597,"name":"Camogli","stateId":1768,"stateCode":"42","stateName":"Liguria","countryId":107,"countryCode":"IT","countryName":"Italy","latitude":"44.34945000","longitude":"9.15487000","wikiDataId":"Q18505141"},{"id":136629,"name":"Campo Ligure","stateId":1768,"stateCode":"42","stateName":"Liguria","countryId":107,"countryCode":"IT","countryName":"Italy","latitude":"44.53658000","longitude":"8.69896000","wikiDataId":"Q18454439"},{"id":136643,"name":"Campochiesa","stateId":1768,"stateCode":"42","stateName":"Liguria","countryId":107,"countryCode":"IT","countryName":"Italy","latitude":"44.07069000","longitude":"8.19712000","wikiDataId":"Q3654723"},{"id":136670,"name":"Campomorone","stateId":1768,"stateCode":"42","stateName":"Liguria","countryId":107,"countryCode":"IT","countryName":"Italy","latitude":"44.50954000","longitude":"8.88502000","wikiDataId":"Q18505155"},{"id":136676,"name":"Camporosso","stateId":1768,"stateCode":"42","stateName":"Liguria","countryId":107,"countryCode":"IT","countryName":"Italy","latitude":"43.81310000","longitude":"7.62829000","wikiDataId":"Q37672"},{"id":136836,"name":"Carasco","stateId":1768,"stateCode":"42","stateName":"Liguria","countryId":107,"countryCode":"IT","countryName":"Italy","latitude":"44.34975000","longitude":"9.34567000","wikiDataId":"Q583609"},{"id":136843,"name":"Caravonica","stateId":1768,"stateCode":"42","stateName":"Liguria","countryId":107,"countryCode":"IT","countryName":"Italy","latitude":"43.99303000","longitude":"7.95805000","wikiDataId":"Q583609"},{"id":136853,"name":"Carcare","stateId":1768,"stateCode":"42","stateName":"Liguria","countryId":107,"countryCode":"IT","countryName":"Italy","latitude":"44.35465000","longitude":"8.29039000","wikiDataId":"Q583609"},{"id":136908,"name":"Carpasio","stateId":1768,"stateCode":"42","stateName":"Liguria","countryId":107,"countryCode":"IT","countryName":"Italy","latitude":"43.96024000","longitude":"7.86631000","wikiDataId":"Q18465915"},{"id":136928,"name":"Carro","stateId":1768,"stateCode":"42","stateName":"Liguria","countryId":107,"countryCode":"IT","countryName":"Italy","latitude":"44.27215000","longitude":"9.60888000","wikiDataId":"Q18453683"},{"id":136929,"name":"Carrodano","stateId":1768,"stateCode":"42","stateName":"Liguria","countryId":107,"countryCode":"IT","countryName":"Italy","latitude":"44.24155000","longitude":"9.65578000","wikiDataId":"Q18453683"},{"id":137020,"name":"Casano-Dogana-Isola","stateId":1768,"stateCode":"42","stateName":"Liguria","countryId":107,"countryCode":"IT","countryName":"Italy","latitude":"44.07565000","longitude":"10.03381000","wikiDataId":"Q18460530"},{"id":137023,"name":"Casanova Lerrone","stateId":1768,"stateCode":"42","stateName":"Liguria","countryId":107,"countryCode":"IT","countryName":"Italy","latitude":"44.03213000","longitude":"8.04715000","wikiDataId":"Q18436501"},{"id":137035,"name":"Casarza Ligure","stateId":1768,"stateCode":"42","stateName":"Liguria","countryId":107,"countryCode":"IT","countryName":"Italy","latitude":"44.27188000","longitude":"9.44704000","wikiDataId":"Q18436901"},{"id":137042,"name":"Casavecchia","stateId":1768,"stateCode":"42","stateName":"Liguria","countryId":107,"countryCode":"IT","countryName":"Italy","latitude":"44.52756000","longitude":"8.62157000","wikiDataId":"Q18456865"},{"id":137058,"name":"Casella","stateId":1768,"stateCode":"42","stateName":"Liguria","countryId":107,"countryCode":"IT","countryName":"Italy","latitude":"44.53523000","longitude":"9.00080000","wikiDataId":"Q18492556"},{"id":137160,"name":"Castel Vittorio","stateId":1768,"stateCode":"42","stateName":"Liguria","countryId":107,"countryCode":"IT","countryName":"Italy","latitude":"43.92752000","longitude":"7.67471000","wikiDataId":"Q18454463"},{"id":137181,"name":"Castelbianco","stateId":1768,"stateCode":"42","stateName":"Liguria","countryId":107,"countryCode":"IT","countryName":"Italy","latitude":"44.11423000","longitude":"8.07515000","wikiDataId":"Q18473264"},{"id":137223,"name":"Castellaro","stateId":1768,"stateCode":"42","stateName":"Liguria","countryId":107,"countryCode":"IT","countryName":"Italy","latitude":"43.86436000","longitude":"7.86881000","wikiDataId":"Q18426594"},{"id":137290,"name":"Castelnuovo Magra","stateId":1768,"stateCode":"42","stateName":"Liguria","countryId":107,"countryCode":"IT","countryName":"Italy","latitude":"44.09957000","longitude":"10.01715000","wikiDataId":"Q18506114"},{"id":137323,"name":"Castelvecchio di Rocca Barbena","stateId":1768,"stateCode":"42","stateName":"Liguria","countryId":107,"countryCode":"IT","countryName":"Italy","latitude":"44.12983000","longitude":"8.11665000","wikiDataId":"Q2163325"},{"id":137339,"name":"Castiglione","stateId":1768,"stateCode":"42","stateName":"Liguria","countryId":107,"countryCode":"IT","countryName":"Italy","latitude":"44.27539000","longitude":"9.51687000","wikiDataId":"Q18457021"},{"id":137474,"name":"Celle Ligure","stateId":1768,"stateCode":"42","stateName":"Liguria","countryId":107,"countryCode":"IT","countryName":"Italy","latitude":"44.34509000","longitude":"8.54685000","wikiDataId":"Q18496305"},{"id":137493,"name":"Cengio Alto","stateId":1768,"stateCode":"42","stateName":"Liguria","countryId":107,"countryCode":"IT","countryName":"Italy","latitude":"44.38443000","longitude":"8.19758000","wikiDataId":"Q18461574"},{"id":137506,"name":"Ceparana-Carpena","stateId":1768,"stateCode":"42","stateName":"Liguria","countryId":107,"countryCode":"IT","countryName":"Italy","latitude":"44.16667000","longitude":"9.88333000","wikiDataId":"Q18460581"},{"id":137513,"name":"Ceranesi","stateId":1768,"stateCode":"42","stateName":"Liguria","countryId":107,"countryCode":"IT","countryName":"Italy","latitude":"44.50563000","longitude":"8.89343000","wikiDataId":"Q18432173"},{"id":137546,"name":"Ceriale","stateId":1768,"stateCode":"42","stateName":"Liguria","countryId":107,"countryCode":"IT","countryName":"Italy","latitude":"44.09128000","longitude":"8.22893000","wikiDataId":"Q2270181"},{"id":137547,"name":"Ceriana","stateId":1768,"stateCode":"42","stateName":"Liguria","countryId":107,"countryCode":"IT","countryName":"Italy","latitude":"43.88091000","longitude":"7.77476000","wikiDataId":"Q2270181"},{"id":137597,"name":"Cervo","stateId":1768,"stateCode":"42","stateName":"Liguria","countryId":107,"countryCode":"IT","countryName":"Italy","latitude":"43.92572000","longitude":"8.11529000","wikiDataId":"Q2914373"},{"id":137614,"name":"Cesio","stateId":1768,"stateCode":"42","stateName":"Liguria","countryId":107,"countryCode":"IT","countryName":"Italy","latitude":"44.00803000","longitude":"7.97515000","wikiDataId":"Q18503199"},{"id":137659,"name":"Chiavari","stateId":1768,"stateCode":"42","stateName":"Liguria","countryId":107,"countryCode":"IT","countryName":"Italy","latitude":"44.31771000","longitude":"9.32241000","wikiDataId":"Q18484848"},{"id":137665,"name":"Chiesa","stateId":1768,"stateCode":"42","stateName":"Liguria","countryId":107,"countryCode":"IT","countryName":"Italy","latitude":"44.07787000","longitude":"8.10891000","wikiDataId":"Q18461599"},{"id":137666,"name":"Chiesa Nuova","stateId":1768,"stateCode":"42","stateName":"Liguria","countryId":107,"countryCode":"IT","countryName":"Italy","latitude":"44.36976000","longitude":"9.31161000","wikiDataId":"Q18457106"},{"id":137691,"name":"Chiusanico","stateId":1768,"stateCode":"42","stateName":"Liguria","countryId":107,"countryCode":"IT","countryName":"Italy","latitude":"43.97303000","longitude":"7.99185000","wikiDataId":"Q2586177"},{"id":137694,"name":"Chiusavecchia","stateId":1768,"stateCode":"42","stateName":"Liguria","countryId":107,"countryCode":"IT","countryName":"Italy","latitude":"43.96726000","longitude":"7.98443000","wikiDataId":"Q2586177"},{"id":137707,"name":"Cicagna","stateId":1768,"stateCode":"42","stateName":"Liguria","countryId":107,"countryCode":"IT","countryName":"Italy","latitude":"44.40714000","longitude":"9.23917000","wikiDataId":"Q18496335"},{"id":137745,"name":"Cipressa","stateId":1768,"stateCode":"42","stateName":"Liguria","countryId":107,"countryCode":"IT","countryName":"Italy","latitude":"43.85205000","longitude":"7.93144000","wikiDataId":"Q18492580"},{"id":137753,"name":"Cisano","stateId":1768,"stateCode":"42","stateName":"Liguria","countryId":107,"countryCode":"IT","countryName":"Italy","latitude":"44.08565000","longitude":"8.14829000","wikiDataId":"Q18461630"},{"id":137779,"name":"Civezza","stateId":1768,"stateCode":"42","stateName":"Liguria","countryId":107,"countryCode":"IT","countryName":"Italy","latitude":"43.87982000","longitude":"7.95165000","wikiDataId":"Q3678754"},{"id":137842,"name":"Cogoleto","stateId":1768,"stateCode":"42","stateName":"Liguria","countryId":107,"countryCode":"IT","countryName":"Italy","latitude":"44.38996000","longitude":"8.64692000","wikiDataId":"Q30024888"},{"id":137845,"name":"Cogorno","stateId":1768,"stateCode":"42","stateName":"Liguria","countryId":107,"countryCode":"IT","countryName":"Italy","latitude":"44.32074000","longitude":"9.37117000","wikiDataId":"Q3682419"},{"id":137921,"name":"Colombiera-Molicciara","stateId":1768,"stateCode":"42","stateName":"Liguria","countryId":107,"countryCode":"IT","countryName":"Italy","latitude":"44.08750000","longitude":"10.01037000","wikiDataId":"Q18460606"},{"id":137972,"name":"Conscenti","stateId":1768,"stateCode":"42","stateName":"Liguria","countryId":107,"countryCode":"IT","countryName":"Italy","latitude":"44.34491000","longitude":"9.39537000","wikiDataId":"Q5162714"},{"id":138006,"name":"Coreglia Ligure","stateId":1768,"stateCode":"42","stateName":"Liguria","countryId":107,"countryCode":"IT","countryName":"Italy","latitude":"44.38775000","longitude":"9.26097000","wikiDataId":"Q269797"},{"id":138080,"name":"Cosio di Arroscia","stateId":1768,"stateCode":"42","stateName":"Liguria","countryId":107,"countryCode":"IT","countryName":"Italy","latitude":"44.07743000","longitude":"7.83244000","wikiDataId":"Q18454092"},{"id":138086,"name":"Cosseria","stateId":1768,"stateCode":"42","stateName":"Liguria","countryId":107,"countryCode":"IT","countryName":"Italy","latitude":"44.36774000","longitude":"8.23485000","wikiDataId":"Q18501619"},{"id":138106,"name":"Costarainera","stateId":1768,"stateCode":"42","stateName":"Liguria","countryId":107,"countryCode":"IT","countryName":"Italy","latitude":"43.85477000","longitude":"7.94106000","wikiDataId":"Q663531"},{"id":138159,"name":"Crocefieschi","stateId":1768,"stateCode":"42","stateName":"Liguria","countryId":107,"countryCode":"IT","countryName":"Italy","latitude":"44.58077000","longitude":"9.02360000","wikiDataId":"Q18506240"},{"id":138231,"name":"Davagna","stateId":1768,"stateCode":"42","stateName":"Liguria","countryId":107,"countryCode":"IT","countryName":"Italy","latitude":"44.46585000","longitude":"9.08666000","wikiDataId":"Q18438089"},{"id":138239,"name":"Dego","stateId":1768,"stateCode":"42","stateName":"Liguria","countryId":107,"countryCode":"IT","countryName":"Italy","latitude":"44.44455000","longitude":"8.30761000","wikiDataId":"Q18438304"},{"id":138240,"name":"Deiva Marina","stateId":1768,"stateCode":"42","stateName":"Liguria","countryId":107,"countryCode":"IT","countryName":"Italy","latitude":"44.21931000","longitude":"9.52064000","wikiDataId":"Q18438304"},{"id":138260,"name":"Diano Arentino","stateId":1768,"stateCode":"42","stateName":"Liguria","countryId":107,"countryCode":"IT","countryName":"Italy","latitude":"43.94962000","longitude":"8.04155000","wikiDataId":"Q3705930"},{"id":138261,"name":"Diano Castello","stateId":1768,"stateCode":"42","stateName":"Liguria","countryId":107,"countryCode":"IT","countryName":"Italy","latitude":"43.92423000","longitude":"8.06602000","wikiDataId":"Q3705930"},{"id":138262,"name":"Diano Marina","stateId":1768,"stateCode":"42","stateName":"Liguria","countryId":107,"countryCode":"IT","countryName":"Italy","latitude":"43.91088000","longitude":"8.08029000","wikiDataId":"Q3705930"},{"id":138263,"name":"Diano San Pietro","stateId":1768,"stateCode":"42","stateName":"Liguria","countryId":107,"countryCode":"IT","countryName":"Italy","latitude":"43.92953000","longitude":"8.07249000","wikiDataId":"Q3705930"},{"id":138279,"name":"Dolceacqua","stateId":1768,"stateCode":"42","stateName":"Liguria","countryId":107,"countryCode":"IT","countryName":"Italy","latitude":"43.84975000","longitude":"7.62373000","wikiDataId":"Q5287934"},{"id":138280,"name":"Dolcedo","stateId":1768,"stateCode":"42","stateName":"Liguria","countryId":107,"countryCode":"IT","countryName":"Italy","latitude":"43.90735000","longitude":"7.94943000","wikiDataId":"Q5287934"},{"id":138375,"name":"Erli","stateId":1768,"stateCode":"42","stateName":"Liguria","countryId":107,"countryCode":"IT","countryName":"Italy","latitude":"44.13719000","longitude":"8.10430000","wikiDataId":"Q18490379"},{"id":138455,"name":"Fascia","stateId":1768,"stateCode":"42","stateName":"Liguria","countryId":107,"countryCode":"IT","countryName":"Italy","latitude":"44.58255000","longitude":"9.22136000","wikiDataId":"Q2442711"},{"id":138458,"name":"Favale di Malvaro","stateId":1768,"stateCode":"42","stateName":"Liguria","countryId":107,"countryCode":"IT","countryName":"Italy","latitude":"44.45163000","longitude":"9.26000000","wikiDataId":"Q2442711"},{"id":138464,"name":"Feglino","stateId":1768,"stateCode":"42","stateName":"Liguria","countryId":107,"countryCode":"IT","countryName":"Italy","latitude":"44.21849000","longitude":"8.32436000","wikiDataId":"Q18461750"},{"id":138487,"name":"Ferrada","stateId":1768,"stateCode":"42","stateName":"Liguria","countryId":107,"countryCode":"IT","countryName":"Italy","latitude":"44.42008000","longitude":"9.21016000","wikiDataId":"Q18498384"},{"id":138497,"name":"Ferriere","stateId":1768,"stateCode":"42","stateName":"Liguria","countryId":107,"countryCode":"IT","countryName":"Italy","latitude":"44.44302000","longitude":"9.13675000","wikiDataId":"Q18457570"},{"id":138536,"name":"Finale Ligure","stateId":1768,"stateCode":"42","stateName":"Liguria","countryId":107,"countryCode":"IT","countryName":"Italy","latitude":"44.16952000","longitude":"8.34360000","wikiDataId":"Q2156103"},{"id":138604,"name":"Fontanigorda","stateId":1768,"stateCode":"42","stateName":"Liguria","countryId":107,"countryCode":"IT","countryName":"Italy","latitude":"44.54540000","longitude":"9.30548000","wikiDataId":"Q18504159"},{"id":138691,"name":"Framura","stateId":1768,"stateCode":"42","stateName":"Liguria","countryId":107,"countryCode":"IT","countryName":"Italy","latitude":"44.20946000","longitude":"9.55399000","wikiDataId":"Q321506"},{"id":138860,"name":"Garlenda","stateId":1768,"stateCode":"42","stateName":"Liguria","countryId":107,"countryCode":"IT","countryName":"Italy","latitude":"44.03325000","longitude":"8.09546000","wikiDataId":"Q18443276"},{"id":138899,"name":"Genoa","stateId":1768,"stateCode":"42","stateName":"Liguria","countryId":107,"countryCode":"IT","countryName":"Italy","latitude":"44.40478000","longitude":"8.94439000","wikiDataId":"Q18453753"},{"id":138999,"name":"Giustenice","stateId":1768,"stateCode":"42","stateName":"Liguria","countryId":107,"countryCode":"IT","countryName":"Italy","latitude":"44.17293000","longitude":"8.24305000","wikiDataId":"Q18453758"},{"id":139001,"name":"Giusvalla","stateId":1768,"stateCode":"42","stateName":"Liguria","countryId":107,"countryCode":"IT","countryName":"Italy","latitude":"44.44794000","longitude":"8.39415000","wikiDataId":"Q18453758"},{"id":139040,"name":"Gorreto","stateId":1768,"stateCode":"42","stateName":"Liguria","countryId":107,"countryCode":"IT","countryName":"Italy","latitude":"44.60485000","longitude":"9.29126000","wikiDataId":"Q18501820"},{"id":139200,"name":"Imperia","stateId":1768,"stateCode":"42","stateName":"Liguria","countryId":107,"countryCode":"IT","countryName":"Italy","latitude":"43.88917000","longitude":"8.03933000","wikiDataId":"Q3792920"},{"id":139243,"name":"Isola del Cantone","stateId":1768,"stateCode":"42","stateName":"Liguria","countryId":107,"countryCode":"IT","countryName":"Italy","latitude":"44.64783000","longitude":"8.95746000","wikiDataId":"Q16566532"},{"id":139253,"name":"Isolabona","stateId":1768,"stateCode":"42","stateName":"Liguria","countryId":107,"countryCode":"IT","countryName":"Italy","latitude":"43.88076000","longitude":"7.63993000","wikiDataId":"Q16566532"},{"id":139257,"name":"Isoverde","stateId":1768,"stateCode":"42","stateName":"Liguria","countryId":107,"countryCode":"IT","countryName":"Italy","latitude":"44.52941000","longitude":"8.86049000","wikiDataId":"Q18457884"},{"id":139305,"name":"La Spezia","stateId":1768,"stateCode":"42","stateName":"Liguria","countryId":107,"countryCode":"IT","countryName":"Italy","latitude":"44.10300000","longitude":"9.82375000","wikiDataId":"Q18503347"},{"id":139330,"name":"Laigueglia","stateId":1768,"stateCode":"42","stateName":"Liguria","countryId":107,"countryCode":"IT","countryName":"Italy","latitude":"43.97590000","longitude":"8.15823000","wikiDataId":"Q18454703"},{"id":139408,"name":"Lavagna","stateId":1768,"stateCode":"42","stateName":"Liguria","countryId":107,"countryCode":"IT","countryName":"Italy","latitude":"44.30620000","longitude":"9.35383000","wikiDataId":"Q18451867"},{"id":139427,"name":"Le Grazie","stateId":1768,"stateCode":"42","stateName":"Liguria","countryId":107,"countryCode":"IT","countryName":"Italy","latitude":"44.06699000","longitude":"9.83392000","wikiDataId":"Q688008"},{"id":139440,"name":"Leivi","stateId":1768,"stateCode":"42","stateName":"Liguria","countryId":107,"countryCode":"IT","countryName":"Italy","latitude":"44.35344000","longitude":"9.31074000","wikiDataId":"Q18443517"},{"id":139464,"name":"Lerici","stateId":1768,"stateCode":"42","stateName":"Liguria","countryId":107,"countryCode":"IT","countryName":"Italy","latitude":"44.07587000","longitude":"9.91121000","wikiDataId":"Q18448167"},{"id":139483,"name":"Levanto","stateId":1768,"stateCode":"42","stateName":"Liguria","countryId":107,"countryCode":"IT","countryName":"Italy","latitude":"44.17424000","longitude":"9.61670000","wikiDataId":"Q18501903"},{"id":139557,"name":"Loano","stateId":1768,"stateCode":"42","stateName":"Liguria","countryId":107,"countryCode":"IT","countryName":"Italy","latitude":"44.12777000","longitude":"8.25743000","wikiDataId":"Q18504234"},{"id":139615,"name":"Lorsica","stateId":1768,"stateCode":"42","stateName":"Liguria","countryId":107,"countryCode":"IT","countryName":"Italy","latitude":"44.43415000","longitude":"9.27677000","wikiDataId":"Q18501921"},{"id":139633,"name":"Lucinasco","stateId":1768,"stateCode":"42","stateName":"Liguria","countryId":107,"countryCode":"IT","countryName":"Italy","latitude":"43.96602000","longitude":"7.96005000","wikiDataId":"Q18509842"},{"id":139732,"name":"Magliolo","stateId":1768,"stateCode":"42","stateName":"Liguria","countryId":107,"countryCode":"IT","countryName":"Italy","latitude":"44.19253000","longitude":"8.24935000","wikiDataId":"Q3068279"},{"id":139752,"name":"Maissana","stateId":1768,"stateCode":"42","stateName":"Liguria","countryId":107,"countryCode":"IT","countryName":"Italy","latitude":"44.33675000","longitude":"9.53588000","wikiDataId":"Q18504926"},{"id":139768,"name":"Mallare","stateId":1768,"stateCode":"42","stateName":"Liguria","countryId":107,"countryCode":"IT","countryName":"Italy","latitude":"44.28934000","longitude":"8.29695000","wikiDataId":"Q18437479"},{"id":139795,"name":"Manesseno","stateId":1768,"stateCode":"42","stateName":"Liguria","countryId":107,"countryCode":"IT","countryName":"Italy","latitude":"44.47816000","longitude":"8.92784000","wikiDataId":"Q18458058"},{"id":139876,"name":"Marina di Andora","stateId":1768,"stateCode":"42","stateName":"Liguria","countryId":107,"countryCode":"IT","countryName":"Italy","latitude":"43.95353000","longitude":"8.15460000","wikiDataId":"Q18461840"},{"id":139965,"name":"Masone","stateId":1768,"stateCode":"42","stateName":"Liguria","countryId":107,"countryCode":"IT","countryName":"Italy","latitude":"44.50162000","longitude":"8.71891000","wikiDataId":"Q18436637"},{"id":139988,"name":"Massimino","stateId":1768,"stateCode":"42","stateName":"Liguria","countryId":107,"countryCode":"IT","countryName":"Italy","latitude":"44.29953000","longitude":"8.07134000","wikiDataId":"Q18436979"},{"id":140038,"name":"Mele","stateId":1768,"stateCode":"42","stateName":"Liguria","countryId":107,"countryCode":"IT","countryName":"Italy","latitude":"44.44573000","longitude":"8.74889000","wikiDataId":"Q18507171"},{"id":140062,"name":"Mendatica","stateId":1768,"stateCode":"42","stateName":"Liguria","countryId":107,"countryCode":"IT","countryName":"Italy","latitude":"44.07713000","longitude":"7.80564000","wikiDataId":"Q18464144"},{"id":140110,"name":"Mezzanego","stateId":1768,"stateCode":"42","stateName":"Liguria","countryId":107,"countryCode":"IT","countryName":"Italy","latitude":"44.38275000","longitude":"9.37667000","wikiDataId":"Q18490355"},{"id":140140,"name":"Mignanego","stateId":1768,"stateCode":"42","stateName":"Liguria","countryId":107,"countryCode":"IT","countryName":"Italy","latitude":"44.52748000","longitude":"8.91412000","wikiDataId":"Q18502020"},{"id":140152,"name":"Millesimo","stateId":1768,"stateCode":"42","stateName":"Liguria","countryId":107,"countryCode":"IT","countryName":"Italy","latitude":"44.36695000","longitude":"8.20354000","wikiDataId":"Q18491592"},{"id":140164,"name":"Mioglia","stateId":1768,"stateCode":"42","stateName":"Liguria","countryId":107,"countryCode":"IT","countryName":"Italy","latitude":"44.49214000","longitude":"8.41435000","wikiDataId":"Q18499364"},{"id":140187,"name":"Moconesi","stateId":1768,"stateCode":"42","stateName":"Liguria","countryId":107,"countryCode":"IT","countryName":"Italy","latitude":"44.42065000","longitude":"9.20977000","wikiDataId":"Q18458159"},{"id":140219,"name":"Molini","stateId":1768,"stateCode":"42","stateName":"Liguria","countryId":107,"countryCode":"IT","countryName":"Italy","latitude":"43.92594000","longitude":"7.93835000","wikiDataId":"Q18459903"},{"id":140220,"name":"Molini di Triora","stateId":1768,"stateCode":"42","stateName":"Liguria","countryId":107,"countryCode":"IT","countryName":"Italy","latitude":"43.98905000","longitude":"7.77463000","wikiDataId":"Q18459903"},{"id":140221,"name":"Molino Vecchio-Scapitola-Baio","stateId":1768,"stateCode":"42","stateName":"Liguria","countryId":107,"countryCode":"IT","countryName":"Italy","latitude":"44.55555000","longitude":"9.06816000","wikiDataId":"Q18458181"},{"id":140226,"name":"Molino-Pera","stateId":1768,"stateCode":"42","stateName":"Liguria","countryId":107,"countryCode":"IT","countryName":"Italy","latitude":"44.48803000","longitude":"8.30899000","wikiDataId":"Q18461942"},{"id":140277,"name":"Moneglia","stateId":1768,"stateCode":"42","stateName":"Liguria","countryId":107,"countryCode":"IT","countryName":"Italy","latitude":"44.23905000","longitude":"9.49081000","wikiDataId":"Q17636589"},{"id":140332,"name":"Montalto Ligure","stateId":1768,"stateCode":"42","stateName":"Liguria","countryId":107,"countryCode":"IT","countryName":"Italy","latitude":"43.92868000","longitude":"7.84491000","wikiDataId":"Q18485671"},{"id":140393,"name":"Montebruno","stateId":1768,"stateCode":"42","stateName":"Liguria","countryId":107,"countryCode":"IT","countryName":"Italy","latitude":"44.52577000","longitude":"9.24831000","wikiDataId":"Q18487145"},{"id":140460,"name":"Montegrosso Pian Latte","stateId":1768,"stateCode":"42","stateName":"Liguria","countryId":107,"countryCode":"IT","countryName":"Italy","latitude":"44.06631000","longitude":"7.81602000","wikiDataId":"Q18494838"},{"id":140525,"name":"Monterosso al Mare","stateId":1768,"stateCode":"42","stateName":"Liguria","countryId":107,"countryCode":"IT","countryName":"Italy","latitude":"44.14666000","longitude":"9.65494000","wikiDataId":"Q18426821"},{"id":140578,"name":"Montoggio","stateId":1768,"stateCode":"42","stateName":"Liguria","countryId":107,"countryCode":"IT","countryName":"Italy","latitude":"44.51699000","longitude":"9.04923000","wikiDataId":"Q18495968"},{"id":140690,"name":"Murialdo","stateId":1768,"stateCode":"42","stateName":"Liguria","countryId":107,"countryCode":"IT","countryName":"Italy","latitude":"44.31693000","longitude":"8.16815000","wikiDataId":"Q18506593"},{"id":140723,"name":"Nasino-Borgo","stateId":1768,"stateCode":"42","stateName":"Liguria","countryId":107,"countryCode":"IT","countryName":"Italy","latitude":"44.11363000","longitude":"8.03205000","wikiDataId":"Q18462064"},{"id":140737,"name":"Neirone","stateId":1768,"stateCode":"42","stateName":"Liguria","countryId":107,"countryCode":"IT","countryName":"Italy","latitude":"44.45482000","longitude":"9.19133000","wikiDataId":"Q18468498"},{"id":140799,"name":"Noli","stateId":1768,"stateCode":"42","stateName":"Liguria","countryId":107,"countryCode":"IT","countryName":"Italy","latitude":"44.20608000","longitude":"8.41458000","wikiDataId":"Q30028227"},{"id":140903,"name":"Olivetta San Michele","stateId":1768,"stateCode":"42","stateName":"Liguria","countryId":107,"countryCode":"IT","countryName":"Italy","latitude":"43.87872000","longitude":"7.51504000","wikiDataId":"Q18448462"},{"id":140929,"name":"Onzo","stateId":1768,"stateCode":"42","stateName":"Liguria","countryId":107,"countryCode":"IT","countryName":"Italy","latitude":"44.07013000","longitude":"8.05225000","wikiDataId":"Q3882709"},{"id":140945,"name":"Orco Feglino","stateId":1768,"stateCode":"42","stateName":"Liguria","countryId":107,"countryCode":"IT","countryName":"Italy","latitude":"44.22023000","longitude":"8.32455000","wikiDataId":"Q18448968"},{"id":140948,"name":"Orero","stateId":1768,"stateCode":"42","stateName":"Liguria","countryId":107,"countryCode":"IT","countryName":"Italy","latitude":"44.40835000","longitude":"9.26707000","wikiDataId":"Q3885522"},{"id":140989,"name":"Ortovero","stateId":1768,"stateCode":"42","stateName":"Liguria","countryId":107,"countryCode":"IT","countryName":"Italy","latitude":"44.05385000","longitude":"8.09950000","wikiDataId":"Q3886214"},{"id":141004,"name":"Osiglia","stateId":1768,"stateCode":"42","stateName":"Liguria","countryId":107,"countryCode":"IT","countryName":"Italy","latitude":"44.28145000","longitude":"8.20096000","wikiDataId":"Q18493268"},{"id":141014,"name":"Ospedaletti","stateId":1768,"stateCode":"42","stateName":"Liguria","countryId":107,"countryCode":"IT","countryName":"Italy","latitude":"43.80221000","longitude":"7.71830000","wikiDataId":"Q18487730"},{"id":141038,"name":"Osteria dei Cacciatori-Stella","stateId":1768,"stateCode":"42","stateName":"Liguria","countryId":107,"countryCode":"IT","countryName":"Italy","latitude":"44.43044000","longitude":"8.47120000","wikiDataId":"Q18462174"},{"id":141084,"name":"Padivarma","stateId":1768,"stateCode":"42","stateName":"Liguria","countryId":107,"countryCode":"IT","countryName":"Italy","latitude":"44.19648000","longitude":"9.76753000","wikiDataId":"Q16585747"},{"id":58251,"name":"Pallare","stateId":1768,"stateCode":"42","stateName":"Liguria","countryId":107,"countryCode":"IT","countryName":"Italy","latitude":"44.32770000","longitude":"8.27864000","wikiDataId":"Q18446175"},{"id":58379,"name":"Pedemonte","stateId":1768,"stateCode":"42","stateName":"Liguria","countryId":107,"countryCode":"IT","countryName":"Italy","latitude":"44.50307000","longitude":"8.92614000","wikiDataId":"Q18458484"},{"id":58425,"name":"Perinaldo","stateId":1768,"stateCode":"42","stateName":"Liguria","countryId":107,"countryCode":"IT","countryName":"Italy","latitude":"43.86689000","longitude":"7.67194000","wikiDataId":"Q42801"},{"id":58511,"name":"Piana Battolla","stateId":1768,"stateCode":"42","stateName":"Liguria","countryId":107,"countryCode":"IT","countryName":"Italy","latitude":"44.19322000","longitude":"9.85345000","wikiDataId":"Q18460870"},{"id":58512,"name":"Piana Crixia","stateId":1768,"stateCode":"42","stateName":"Liguria","countryId":107,"countryCode":"IT","countryName":"Italy","latitude":"44.48504000","longitude":"8.30805000","wikiDataId":"Q18460870"},{"id":58538,"name":"Piano","stateId":1768,"stateCode":"42","stateName":"Liguria","countryId":107,"countryCode":"IT","countryName":"Italy","latitude":"44.31680000","longitude":"8.16639000","wikiDataId":"Q18462367"},{"id":58543,"name":"Piano di Follo","stateId":1768,"stateCode":"42","stateName":"Liguria","countryId":107,"countryCode":"IT","countryName":"Italy","latitude":"44.16375000","longitude":"9.86188000","wikiDataId":"Q18460878"},{"id":58578,"name":"Piccarello","stateId":1768,"stateCode":"42","stateName":"Liguria","countryId":107,"countryCode":"IT","countryName":"Italy","latitude":"44.48392000","longitude":"8.96595000","wikiDataId":"Q3902532"},{"id":58601,"name":"Pietra Ligure","stateId":1768,"stateCode":"42","stateName":"Liguria","countryId":107,"countryCode":"IT","countryName":"Italy","latitude":"44.14920000","longitude":"8.28206000","wikiDataId":"Q3903065"},{"id":58606,"name":"Pietrabruna","stateId":1768,"stateCode":"42","stateName":"Liguria","countryId":107,"countryCode":"IT","countryName":"Italy","latitude":"43.88927000","longitude":"7.90319000","wikiDataId":"Q18496036"},{"id":58654,"name":"Pieve di Teco","stateId":1768,"stateCode":"42","stateName":"Liguria","countryId":107,"countryCode":"IT","countryName":"Italy","latitude":"44.04706000","longitude":"7.91564000","wikiDataId":"Q816769"},{"id":58655,"name":"Pieve di Zignago","stateId":1768,"stateCode":"42","stateName":"Liguria","countryId":107,"countryCode":"IT","countryName":"Italy","latitude":"44.27790000","longitude":"9.74573000","wikiDataId":"Q18460888"},{"id":58636,"name":"Pieve Ligure","stateId":1768,"stateCode":"42","stateName":"Liguria","countryId":107,"countryCode":"IT","countryName":"Italy","latitude":"44.37494000","longitude":"9.09410000","wikiDataId":"Q18498540"},{"id":58660,"name":"Pigna","stateId":1768,"stateCode":"42","stateName":"Liguria","countryId":107,"countryCode":"IT","countryName":"Italy","latitude":"43.93205000","longitude":"7.66123000","wikiDataId":"Q18475942"},{"id":58664,"name":"Pignone","stateId":1768,"stateCode":"42","stateName":"Liguria","countryId":107,"countryCode":"IT","countryName":"Italy","latitude":"44.17780000","longitude":"9.72327000","wikiDataId":"Q18475942"},{"id":58717,"name":"Pitelli","stateId":1768,"stateCode":"42","stateName":"Liguria","countryId":107,"countryCode":"IT","countryName":"Italy","latitude":"44.09458000","longitude":"9.88490000","wikiDataId":"Q2684384"},{"id":58740,"name":"Plodio","stateId":1768,"stateCode":"42","stateName":"Liguria","countryId":107,"countryCode":"IT","countryName":"Italy","latitude":"44.35394000","longitude":"8.24725000","wikiDataId":"Q18440181"},{"id":58818,"name":"Pompeiana","stateId":1768,"stateCode":"42","stateName":"Liguria","countryId":107,"countryCode":"IT","countryName":"Italy","latitude":"43.85297000","longitude":"7.88836000","wikiDataId":"Q3907798"},{"id":58868,"name":"Pontedassio","stateId":1768,"stateCode":"42","stateName":"Liguria","countryId":107,"countryCode":"IT","countryName":"Italy","latitude":"43.93830000","longitude":"8.01464000","wikiDataId":"Q18437639"},{"id":58889,"name":"Pontinvrea","stateId":1768,"stateCode":"42","stateName":"Liguria","countryId":107,"countryCode":"IT","countryName":"Italy","latitude":"44.44205000","longitude":"8.43623000","wikiDataId":"Q18485865"},{"id":58908,"name":"Pornassio","stateId":1768,"stateCode":"42","stateName":"Liguria","countryId":107,"countryCode":"IT","countryName":"Italy","latitude":"44.07053000","longitude":"7.86954000","wikiDataId":"Q17651457"},{"id":58945,"name":"Portofino","stateId":1768,"stateCode":"42","stateName":"Liguria","countryId":107,"countryCode":"IT","countryName":"Italy","latitude":"44.30349000","longitude":"9.20942000","wikiDataId":"Q3909190"},{"id":58950,"name":"Portovenere","stateId":1768,"stateCode":"42","stateName":"Liguria","countryId":107,"countryCode":"IT","countryName":"Italy","latitude":"44.05083000","longitude":"9.83431000","wikiDataId":"Q3909190"},{"id":59021,"name":"Prati","stateId":1768,"stateCode":"42","stateName":"Liguria","countryId":107,"countryCode":"IT","countryName":"Italy","latitude":"44.38290000","longitude":"9.37567000","wikiDataId":"Q18458715"},{"id":59051,"name":"Prelà Castello","stateId":1768,"stateCode":"42","stateName":"Liguria","countryId":107,"countryCode":"IT","countryName":"Italy","latitude":"43.94006000","longitude":"7.94409000","wikiDataId":"Q18460033"},{"id":59091,"name":"Propata","stateId":1768,"stateCode":"42","stateName":"Liguria","countryId":107,"countryCode":"IT","countryName":"Italy","latitude":"44.56487000","longitude":"9.18587000","wikiDataId":"Q18438605"},{"id":59134,"name":"Provincia di Genova","stateId":1768,"stateCode":"42","stateName":"Liguria","countryId":107,"countryCode":"IT","countryName":"Italy","latitude":"44.50000000","longitude":"9.06667000","wikiDataId":"Q16183"},{"id":59137,"name":"Provincia di Imperia","stateId":1768,"stateCode":"42","stateName":"Liguria","countryId":107,"countryCode":"IT","countryName":"Italy","latitude":"43.96667000","longitude":"7.78333000","wikiDataId":"Q16186"},{"id":59139,"name":"Provincia di La Spezia","stateId":1768,"stateCode":"42","stateName":"Liguria","countryId":107,"countryCode":"IT","countryName":"Italy","latitude":"44.25000000","longitude":"9.70000000","wikiDataId":"Q16188"},{"id":59174,"name":"Provincia di Savona","stateId":1768,"stateCode":"42","stateName":"Liguria","countryId":107,"countryCode":"IT","countryName":"Italy","latitude":"44.30000000","longitude":"8.26667000","wikiDataId":"Q16274"},{"id":59242,"name":"Quiliano","stateId":1768,"stateCode":"42","stateName":"Liguria","countryId":107,"countryCode":"IT","countryName":"Italy","latitude":"44.29215000","longitude":"8.41406000","wikiDataId":"Q3927690"},{"id":59284,"name":"Rapallo","stateId":1768,"stateCode":"42","stateName":"Liguria","countryId":107,"countryCode":"IT","countryName":"Italy","latitude":"44.34960000","longitude":"9.22796000","wikiDataId":"Q2362876"},{"id":59311,"name":"Recco","stateId":1768,"stateCode":"42","stateName":"Liguria","countryId":107,"countryCode":"IT","countryName":"Italy","latitude":"44.36227000","longitude":"9.14354000","wikiDataId":"Q18452463"},{"id":59348,"name":"Rezzo","stateId":1768,"stateCode":"42","stateName":"Liguria","countryId":107,"countryCode":"IT","countryName":"Italy","latitude":"44.02101000","longitude":"7.87199000","wikiDataId":"Q2613596"},{"id":59349,"name":"Rezzoaglio","stateId":1768,"stateCode":"42","stateName":"Liguria","countryId":107,"countryCode":"IT","countryName":"Italy","latitude":"44.52625000","longitude":"9.38827000","wikiDataId":"Q2613596"},{"id":59356,"name":"Rialto","stateId":1768,"stateCode":"42","stateName":"Liguria","countryId":107,"countryCode":"IT","countryName":"Italy","latitude":"44.22653000","longitude":"8.26135000","wikiDataId":"Q3934207"},{"id":59368,"name":"Riccò del Golfo","stateId":1768,"stateCode":"42","stateName":"Liguria","countryId":107,"countryCode":"IT","countryName":"Italy","latitude":"44.15410000","longitude":"9.76414000","wikiDataId":"Q18460947"},{"id":59395,"name":"Riomaggiore","stateId":1768,"stateCode":"42","stateName":"Liguria","countryId":107,"countryCode":"IT","countryName":"Italy","latitude":"44.09979000","longitude":"9.73869000","wikiDataId":"Q157864"},{"id":59416,"name":"Riva Ligure","stateId":1768,"stateCode":"42","stateName":"Liguria","countryId":107,"countryCode":"IT","countryName":"Italy","latitude":"43.83883000","longitude":"7.87935000","wikiDataId":"Q18444559"},{"id":59528,"name":"Roccavignale","stateId":1768,"stateCode":"42","stateName":"Liguria","countryId":107,"countryCode":"IT","countryName":"Italy","latitude":"44.36124000","longitude":"8.19055000","wikiDataId":"Q18425438"},{"id":59544,"name":"Rocchetta di Vara","stateId":1768,"stateCode":"42","stateName":"Liguria","countryId":107,"countryCode":"IT","countryName":"Italy","latitude":"44.25059000","longitude":"9.75791000","wikiDataId":"Q18500654"},{"id":59538,"name":"Rocchetta Nervina","stateId":1768,"stateCode":"42","stateName":"Liguria","countryId":107,"countryCode":"IT","countryName":"Italy","latitude":"43.88988000","longitude":"7.60071000","wikiDataId":"Q18429424"},{"id":59587,"name":"Romito Magra","stateId":1768,"stateCode":"42","stateName":"Liguria","countryId":107,"countryCode":"IT","countryName":"Italy","latitude":"44.09838000","longitude":"9.93180000","wikiDataId":"Q18460956"},{"id":59605,"name":"Ronco Scrivia","stateId":1768,"stateCode":"42","stateName":"Liguria","countryId":107,"countryCode":"IT","countryName":"Italy","latitude":"44.61357000","longitude":"8.95042000","wikiDataId":"Q18491704"},{"id":59614,"name":"Rondanina","stateId":1768,"stateCode":"42","stateName":"Liguria","countryId":107,"countryCode":"IT","countryName":"Italy","latitude":"44.56325000","longitude":"9.21806000","wikiDataId":"Q18440248"},{"id":59650,"name":"Rossi","stateId":1768,"stateCode":"42","stateName":"Liguria","countryId":107,"countryCode":"IT","countryName":"Italy","latitude":"44.00029000","longitude":"8.05884000","wikiDataId":"Q18462768"},{"id":59651,"name":"Rossiglione","stateId":1768,"stateCode":"42","stateName":"Liguria","countryId":107,"countryCode":"IT","countryName":"Italy","latitude":"44.56358000","longitude":"8.66956000","wikiDataId":"Q18462768"},{"id":59670,"name":"Rovegno","stateId":1768,"stateCode":"42","stateName":"Liguria","countryId":107,"countryCode":"IT","countryName":"Italy","latitude":"44.57675000","longitude":"9.27917000","wikiDataId":"Q42561"},{"id":59821,"name":"San Bartolomeo al Mare","stateId":1768,"stateCode":"42","stateName":"Liguria","countryId":107,"countryCode":"IT","countryName":"Italy","latitude":"43.92312000","longitude":"8.10482000","wikiDataId":"Q18439681"},{"id":59843,"name":"San Biagio della Cima","stateId":1768,"stateCode":"42","stateName":"Liguria","countryId":107,"countryCode":"IT","countryName":"Italy","latitude":"43.81784000","longitude":"7.65133000","wikiDataId":"Q18496109"},{"id":59904,"name":"San Fedele-Lusignano","stateId":1768,"stateCode":"42","stateName":"Liguria","countryId":107,"countryCode":"IT","countryName":"Italy","latitude":"44.04559000","longitude":"8.18078000","wikiDataId":"Q18462822"},{"id":59980,"name":"San Giovanni","stateId":1768,"stateCode":"42","stateName":"Liguria","countryId":107,"countryCode":"IT","countryName":"Italy","latitude":"44.39367000","longitude":"8.49701000","wikiDataId":"Q18462847"},{"id":60039,"name":"San Lorenzo","stateId":1768,"stateCode":"42","stateName":"Liguria","countryId":107,"countryCode":"IT","countryName":"Italy","latitude":"44.17302000","longitude":"8.24424000","wikiDataId":"Q18462864"},{"id":60044,"name":"San Lorenzo al Mare","stateId":1768,"stateCode":"42","stateName":"Liguria","countryId":107,"countryCode":"IT","countryName":"Italy","latitude":"43.85378000","longitude":"7.96406000","wikiDataId":"Q18462864"},{"id":60190,"name":"San Pietro d'Olba","stateId":1768,"stateCode":"42","stateName":"Liguria","countryId":107,"countryCode":"IT","countryName":"Italy","latitude":"44.48762000","longitude":"8.58951000","wikiDataId":"Q18509715"},{"id":60220,"name":"San Remo","stateId":1768,"stateCode":"42","stateName":"Liguria","countryId":107,"countryCode":"IT","countryName":"Italy","latitude":"43.81725000","longitude":"7.77720000","wikiDataId":"Q18506875"},{"id":60230,"name":"San Salvatore","stateId":1768,"stateCode":"42","stateName":"Liguria","countryId":107,"countryCode":"IT","countryName":"Italy","latitude":"44.33098000","longitude":"9.35479000","wikiDataId":"Q18459019"},{"id":60255,"name":"San Terenzo","stateId":1768,"stateCode":"42","stateName":"Liguria","countryId":107,"countryCode":"IT","countryName":"Italy","latitude":"44.08543000","longitude":"9.89662000","wikiDataId":"Q958170"},{"id":60451,"name":"Santa Margherita Ligure","stateId":1768,"stateCode":"42","stateName":"Liguria","countryId":107,"countryCode":"IT","countryName":"Italy","latitude":"44.33456000","longitude":"9.21204000","wikiDataId":"Q2586104"},{"id":60485,"name":"Santa Marta","stateId":1768,"stateCode":"42","stateName":"Liguria","countryId":107,"countryCode":"IT","countryName":"Italy","latitude":"44.50401000","longitude":"8.89268000","wikiDataId":"Q18459049"},{"id":60517,"name":"Santo Stefano al Mare","stateId":1768,"stateCode":"42","stateName":"Liguria","countryId":107,"countryCode":"IT","countryName":"Italy","latitude":"43.83855000","longitude":"7.89728000","wikiDataId":"Q18430429"},{"id":60518,"name":"Santo Stefano d'Aveto","stateId":1768,"stateCode":"42","stateName":"Liguria","countryId":107,"countryCode":"IT","countryName":"Italy","latitude":"44.54677000","longitude":"9.45325000","wikiDataId":"Q18430429"},{"id":60522,"name":"Santo Stefano di Magra","stateId":1768,"stateCode":"42","stateName":"Liguria","countryId":107,"countryCode":"IT","countryName":"Italy","latitude":"44.14891000","longitude":"9.92185000","wikiDataId":"Q18430429"},{"id":60563,"name":"Sarzana","stateId":1768,"stateCode":"42","stateName":"Liguria","countryId":107,"countryCode":"IT","countryName":"Italy","latitude":"44.11178000","longitude":"9.96220000","wikiDataId":"Q18430445"},{"id":60569,"name":"Sassello","stateId":1768,"stateCode":"42","stateName":"Liguria","countryId":107,"countryCode":"IT","countryName":"Italy","latitude":"44.48036000","longitude":"8.49375000","wikiDataId":"Q18455889"},{"id":60592,"name":"Savignone","stateId":1768,"stateCode":"42","stateName":"Liguria","countryId":107,"countryCode":"IT","countryName":"Italy","latitude":"44.56435000","longitude":"8.98726000","wikiDataId":"Q94999"},{"id":60599,"name":"Savona","stateId":1768,"stateCode":"42","stateName":"Liguria","countryId":107,"countryCode":"IT","countryName":"Italy","latitude":"44.30905000","longitude":"8.47715000","wikiDataId":"Q18446293"},{"id":60651,"name":"Sciarborasca","stateId":1768,"stateCode":"42","stateName":"Liguria","countryId":107,"countryCode":"IT","countryName":"Italy","latitude":"44.40182000","longitude":"8.61541000","wikiDataId":"Q2502782"},{"id":60674,"name":"Seborga","stateId":1768,"stateCode":"42","stateName":"Liguria","countryId":107,"countryCode":"IT","countryName":"Italy","latitude":"43.82730000","longitude":"7.69585000","wikiDataId":"Q3953583"},{"id":60751,"name":"Serra Riccò","stateId":1768,"stateCode":"42","stateName":"Liguria","countryId":107,"countryCode":"IT","countryName":"Italy","latitude":"44.51071000","longitude":"8.93806000","wikiDataId":"Q18494753"},{"id":60792,"name":"Sesta Godano","stateId":1768,"stateCode":"42","stateName":"Liguria","countryId":107,"countryCode":"IT","countryName":"Italy","latitude":"44.29375000","longitude":"9.67535000","wikiDataId":"Q18497003"},{"id":60803,"name":"Sestri Levante","stateId":1768,"stateCode":"42","stateName":"Liguria","countryId":107,"countryCode":"IT","countryName":"Italy","latitude":"44.27317000","longitude":"9.39683000","wikiDataId":"Q18488731"},{"id":60912,"name":"Soldano","stateId":1768,"stateCode":"42","stateName":"Liguria","countryId":107,"countryCode":"IT","countryName":"Italy","latitude":"43.82954000","longitude":"7.65627000","wikiDataId":"Q18477441"},{"id":60957,"name":"Sori","stateId":1768,"stateCode":"42","stateName":"Liguria","countryId":107,"countryCode":"IT","countryName":"Italy","latitude":"44.37301000","longitude":"9.10470000","wikiDataId":"Q1710080"},{"id":61031,"name":"Spotorno","stateId":1768,"stateCode":"42","stateName":"Liguria","countryId":107,"countryCode":"IT","countryName":"Italy","latitude":"44.22638000","longitude":"8.41647000","wikiDataId":"Q2048225"},{"id":61057,"name":"Stazione-Fornola","stateId":1768,"stateCode":"42","stateName":"Liguria","countryId":107,"countryCode":"IT","countryName":"Italy","latitude":"44.12984000","longitude":"9.89159000","wikiDataId":"Q18461033"},{"id":61064,"name":"Stellanello","stateId":1768,"stateCode":"42","stateName":"Liguria","countryId":107,"countryCode":"IT","countryName":"Italy","latitude":"43.99993000","longitude":"8.06025000","wikiDataId":"Q18496758"},{"id":61140,"name":"Taggia","stateId":1768,"stateCode":"42","stateName":"Liguria","countryId":107,"countryCode":"IT","countryName":"Italy","latitude":"43.84612000","longitude":"7.85223000","wikiDataId":"Q18489295"},{"id":61259,"name":"Terzorio","stateId":1768,"stateCode":"42","stateName":"Liguria","countryId":107,"countryCode":"IT","countryName":"Italy","latitude":"43.85232000","longitude":"7.89835000","wikiDataId":"Q18505625"},{"id":61264,"name":"Testico","stateId":1768,"stateCode":"42","stateName":"Liguria","countryId":107,"countryCode":"IT","countryName":"Italy","latitude":"44.00553000","longitude":"8.02639000","wikiDataId":"Q18503713"},{"id":61277,"name":"Tiglieto","stateId":1768,"stateCode":"42","stateName":"Liguria","countryId":107,"countryCode":"IT","countryName":"Italy","latitude":"44.52324000","longitude":"8.61925000","wikiDataId":"Q18441166"},{"id":61297,"name":"Toirano","stateId":1768,"stateCode":"42","stateName":"Liguria","countryId":107,"countryCode":"IT","countryName":"Italy","latitude":"44.12732000","longitude":"8.20725000","wikiDataId":"Q18430784"},{"id":61405,"name":"Torriglia","stateId":1768,"stateCode":"42","stateName":"Liguria","countryId":107,"countryCode":"IT","countryName":"Italy","latitude":"44.51755000","longitude":"9.15811000","wikiDataId":"Q111966"},{"id":61425,"name":"Tovo San Giacomo","stateId":1768,"stateCode":"42","stateName":"Liguria","countryId":107,"countryCode":"IT","countryName":"Italy","latitude":"44.17593000","longitude":"8.27045000","wikiDataId":"Q18438761"},{"id":61517,"name":"Tribogna","stateId":1768,"stateCode":"42","stateName":"Liguria","countryId":107,"countryCode":"IT","countryName":"Italy","latitude":"44.41655000","longitude":"9.19557000","wikiDataId":"Q3998444"},{"id":61533,"name":"Triora","stateId":1768,"stateCode":"42","stateName":"Liguria","countryId":107,"countryCode":"IT","countryName":"Italy","latitude":"43.99309000","longitude":"7.76369000","wikiDataId":"Q17638895"},{"id":61603,"name":"Urbe","stateId":1768,"stateCode":"42","stateName":"Liguria","countryId":107,"countryCode":"IT","countryName":"Italy","latitude":"44.48714000","longitude":"8.58615000","wikiDataId":"Q547157"},{"id":61610,"name":"Uscio","stateId":1768,"stateCode":"42","stateName":"Liguria","countryId":107,"countryCode":"IT","countryName":"Italy","latitude":"44.41233000","longitude":"9.16227000","wikiDataId":"Q547157"},{"id":61630,"name":"Vado Centro","stateId":1768,"stateCode":"42","stateName":"Liguria","countryId":107,"countryCode":"IT","countryName":"Italy","latitude":"44.26857000","longitude":"8.43225000","wikiDataId":"Q18463228"},{"id":61631,"name":"Vado Ligure","stateId":1768,"stateCode":"42","stateName":"Liguria","countryId":107,"countryCode":"IT","countryName":"Italy","latitude":"44.26913000","longitude":"8.43375000","wikiDataId":"Q18463228"},{"id":61699,"name":"Valle di Vado","stateId":1768,"stateCode":"42","stateName":"Liguria","countryId":107,"countryCode":"IT","countryName":"Italy","latitude":"44.26183000","longitude":"8.41397000","wikiDataId":"Q18463258"},{"id":61701,"name":"Vallebona","stateId":1768,"stateCode":"42","stateName":"Liguria","countryId":107,"countryCode":"IT","countryName":"Italy","latitude":"43.81220000","longitude":"7.66535000","wikiDataId":"Q18497980"},{"id":61703,"name":"Vallecrosia","stateId":1768,"stateCode":"42","stateName":"Liguria","countryId":107,"countryCode":"IT","countryName":"Italy","latitude":"43.78671000","longitude":"7.63902000","wikiDataId":"Q18497980"},{"id":61708,"name":"Valleggia","stateId":1768,"stateCode":"42","stateName":"Liguria","countryId":107,"countryCode":"IT","countryName":"Italy","latitude":"44.28080000","longitude":"8.42967000","wikiDataId":"Q18463323"},{"id":61749,"name":"Valzemola","stateId":1768,"stateCode":"42","stateName":"Liguria","countryId":107,"countryCode":"IT","countryName":"Italy","latitude":"44.36393000","longitude":"8.17376000","wikiDataId":"Q18463358"},{"id":61764,"name":"Varazze","stateId":1768,"stateCode":"42","stateName":"Liguria","countryId":107,"countryCode":"IT","countryName":"Italy","latitude":"44.36412000","longitude":"8.59630000","wikiDataId":"Q18502647"},{"id":61770,"name":"Varese Ligure","stateId":1768,"stateCode":"42","stateName":"Liguria","countryId":107,"countryCode":"IT","countryName":"Italy","latitude":"44.37687000","longitude":"9.59372000","wikiDataId":"Q18502647"},{"id":61779,"name":"Vasia","stateId":1768,"stateCode":"42","stateName":"Liguria","countryId":107,"countryCode":"IT","countryName":"Italy","latitude":"43.93268000","longitude":"7.95389000","wikiDataId":"Q18502647"},{"id":61813,"name":"Vendone","stateId":1768,"stateCode":"42","stateName":"Liguria","countryId":107,"countryCode":"IT","countryName":"Italy","latitude":"44.07693000","longitude":"8.07115000","wikiDataId":"Q18491921"},{"id":61825,"name":"Ventimiglia","stateId":1768,"stateCode":"42","stateName":"Liguria","countryId":107,"countryCode":"IT","countryName":"Italy","latitude":"43.78956000","longitude":"7.60872000","wikiDataId":"Q18438779"},{"id":61856,"name":"Vernazza","stateId":1768,"stateCode":"42","stateName":"Liguria","countryId":107,"countryCode":"IT","countryName":"Italy","latitude":"44.13501000","longitude":"9.68346000","wikiDataId":"Q18504619"},{"id":61884,"name":"Vessalico","stateId":1768,"stateCode":"42","stateName":"Liguria","countryId":107,"countryCode":"IT","countryName":"Italy","latitude":"44.04559000","longitude":"7.96013000","wikiDataId":"Q18492047"},{"id":61895,"name":"Vezzano Ligure","stateId":1768,"stateCode":"42","stateName":"Liguria","countryId":107,"countryCode":"IT","countryName":"Italy","latitude":"44.14144000","longitude":"9.88692000","wikiDataId":"Q30031677"},{"id":61897,"name":"Vezzi Portio","stateId":1768,"stateCode":"42","stateName":"Liguria","countryId":107,"countryCode":"IT","countryName":"Italy","latitude":"44.22933000","longitude":"8.36505000","wikiDataId":"Q18461827"},{"id":61997,"name":"Villa Faraldi","stateId":1768,"stateCode":"42","stateName":"Liguria","countryId":107,"countryCode":"IT","countryName":"Italy","latitude":"43.96843000","longitude":"8.08965000","wikiDataId":"Q18469043"},{"id":62055,"name":"Villafranca","stateId":1768,"stateCode":"42","stateName":"Liguria","countryId":107,"countryCode":"IT","countryName":"Italy","latitude":"44.03297000","longitude":"8.10525000","wikiDataId":"Q18463683"},{"id":62105,"name":"Villanova d'Albenga","stateId":1768,"stateCode":"42","stateName":"Liguria","countryId":107,"countryCode":"IT","countryName":"Italy","latitude":"44.04725000","longitude":"8.14336000","wikiDataId":"Q2526072"},{"id":62198,"name":"Vobbia","stateId":1768,"stateCode":"42","stateName":"Liguria","countryId":107,"countryCode":"IT","countryName":"Italy","latitude":"44.60125000","longitude":"9.03866000","wikiDataId":"Q4015042"},{"id":62263,"name":"Zoagli","stateId":1768,"stateCode":"42","stateName":"Liguria","countryId":107,"countryCode":"IT","countryName":"Italy","latitude":"44.33668000","longitude":"9.26680000","wikiDataId":"Q18493910"},{"id":62279,"name":"Zuccarello","stateId":1768,"stateCode":"42","stateName":"Liguria","countryId":107,"countryCode":"IT","countryName":"Italy","latitude":"44.10973000","longitude":"8.11814000","wikiDataId":"Q4024817"}]