[{"id":107098,"name":"Akyaka","stateId":2208,"stateCode":"36","stateName":"Kars","countryId":225,"countryCode":"TR","countryName":"Turkey","latitude":"40.74093000","longitude":"43.61432000","wikiDataId":"Q424414"},{"id":107189,"name":"Arpaçay","stateId":2208,"stateCode":"36","stateName":"Kars","countryId":225,"countryCode":"TR","countryName":"Turkey","latitude":"40.84522000","longitude":"43.32747000","wikiDataId":"Q691764"},{"id":107494,"name":"Digor","stateId":2208,"stateCode":"36","stateName":"Kars","countryId":225,"countryCode":"TR","countryName":"Turkey","latitude":"40.37515000","longitude":"43.41361000","wikiDataId":"Q1027545"},{"id":107960,"name":"Kağızman","stateId":2208,"stateCode":"36","stateName":"Kars","countryId":225,"countryCode":"TR","countryName":"Turkey","latitude":"40.15669000","longitude":"43.13424000","wikiDataId":"Q6380706"},{"id":107931,"name":"Merkez","stateId":2208,"stateCode":"36","stateName":"Kars","countryId":225,"countryCode":"TR","countryName":"Turkey","latitude":"40.59825000","longitude":"43.08548000","wikiDataId":"Q127063"},{"id":108401,"name":"Sarıkamış","stateId":2208,"stateCode":"36","stateName":"Kars","countryId":225,"countryCode":"TR","countryName":"Turkey","latitude":"40.32769000","longitude":"42.58705000","wikiDataId":"Q1947487"},{"id":108430,"name":"Selim","stateId":2208,"stateCode":"36","stateName":"Kars","countryId":225,"countryCode":"TR","countryName":"Turkey","latitude":"40.45772000","longitude":"42.78287000","wikiDataId":"Q250504"},{"id":108511,"name":"Susuz","stateId":2208,"stateCode":"36","stateName":"Kars","countryId":225,"countryCode":"TR","countryName":"Turkey","latitude":"40.77910000","longitude":"43.12769000","wikiDataId":"Q917836"}]