[{"id":53882,"name":"Camasca","stateId":4044,"stateCode":"IN","stateName":"Intibucá Department","countryId":97,"countryCode":"HN","countryName":"Honduras","latitude":"14.00000000","longitude":"-88.38333000","wikiDataId":"Q2393269"},{"id":53907,"name":"Colomoncagua","stateId":4044,"stateCode":"IN","stateName":"Intibucá Department","countryId":97,"countryCode":"HN","countryName":"Honduras","latitude":"13.97245000","longitude":"-88.27673000","wikiDataId":"Q1773148"},{"id":53910,"name":"Concepción","stateId":4044,"stateCode":"IN","stateName":"Intibucá Department","countryId":97,"countryCode":"HN","countryName":"Honduras","latitude":"14.04725000","longitude":"-88.31942000","wikiDataId":"Q1773148"},{"id":53935,"name":"Dolores","stateId":4044,"stateCode":"IN","stateName":"Intibucá Department","countryId":97,"countryCode":"HN","countryName":"Honduras","latitude":"14.26188000","longitude":"-88.35787000","wikiDataId":"Q2391992"},{"id":54027,"name":"Intibucá","stateId":4044,"stateCode":"IN","stateName":"Intibucá Department","countryId":97,"countryCode":"HN","countryName":"Honduras","latitude":"14.43000000","longitude":"-88.17000000","wikiDataId":"Q2395884"},{"id":54034,"name":"Jesús de Otoro","stateId":4044,"stateCode":"IN","stateName":"Intibucá Department","countryId":97,"countryCode":"HN","countryName":"Honduras","latitude":"14.48333000","longitude":"-87.98333000","wikiDataId":"Q2105288"},{"id":54035,"name":"Jiquinlaca","stateId":4044,"stateCode":"IN","stateName":"Intibucá Department","countryId":97,"countryCode":"HN","countryName":"Honduras","latitude":"14.00000000","longitude":"-88.35000000","wikiDataId":"Q2105288"},{"id":54054,"name":"La Esperanza","stateId":4044,"stateCode":"IN","stateName":"Intibucá Department","countryId":97,"countryCode":"HN","countryName":"Honduras","latitude":"14.31111000","longitude":"-88.18056000","wikiDataId":"Q2561304"},{"id":54114,"name":"Magdalena","stateId":4044,"stateCode":"IN","stateName":"Intibucá Department","countryId":97,"countryCode":"HN","countryName":"Honduras","latitude":"13.92452000","longitude":"-88.36675000","wikiDataId":"Q2394083"},{"id":54122,"name":"Masaguara","stateId":4044,"stateCode":"IN","stateName":"Intibucá Department","countryId":97,"countryCode":"HN","countryName":"Honduras","latitude":"14.40428000","longitude":"-87.98247000","wikiDataId":"Q547593"},{"id":54213,"name":"San Antonio","stateId":4044,"stateCode":"IN","stateName":"Intibucá Department","countryId":97,"countryCode":"HN","countryName":"Honduras","latitude":"13.95043000","longitude":"-88.46493000","wikiDataId":"Q1645362"},{"id":54232,"name":"San Francisco de Opalaca","stateId":4044,"stateCode":"IN","stateName":"Intibucá Department","countryId":97,"countryCode":"HN","countryName":"Honduras","latitude":"14.58441000","longitude":"-88.30253000","wikiDataId":"Q2393370"},{"id":54238,"name":"San Isidro","stateId":4044,"stateCode":"IN","stateName":"Intibucá Department","countryId":97,"countryCode":"HN","countryName":"Honduras","latitude":"14.56763000","longitude":"-88.11743000","wikiDataId":"Q925890"},{"id":54256,"name":"San Juan","stateId":4044,"stateCode":"IN","stateName":"Intibucá Department","countryId":97,"countryCode":"HN","countryName":"Honduras","latitude":"14.42127000","longitude":"-88.41953000","wikiDataId":"Q979141"},{"id":54274,"name":"San Marcos de la Sierra","stateId":4044,"stateCode":"IN","stateName":"Intibucá Department","countryId":97,"countryCode":"HN","countryName":"Honduras","latitude":"14.13236000","longitude":"-88.24690000","wikiDataId":"Q2605007"},{"id":54277,"name":"San Miguelito","stateId":4044,"stateCode":"IN","stateName":"Intibucá Department","countryId":97,"countryCode":"HN","countryName":"Honduras","latitude":"14.34875000","longitude":"-88.33983000","wikiDataId":"Q2605007"},{"id":54304,"name":"Santa Lucía","stateId":4044,"stateCode":"IN","stateName":"Intibucá Department","countryId":97,"countryCode":"HN","countryName":"Honduras","latitude":"13.90812000","longitude":"-88.41566000","wikiDataId":"Q1958069"},{"id":54368,"name":"Yamaranguila","stateId":4044,"stateCode":"IN","stateName":"Intibucá Department","countryId":97,"countryCode":"HN","countryName":"Honduras","latitude":"14.26826000","longitude":"-88.24652000","wikiDataId":"Q2542686"}]