[{"id":63332,"name":"Ena-shi","stateId":858,"stateCode":"21","stateName":"Gifu Prefecture","countryId":109,"countryCode":"JP","countryName":"Japan","latitude":"35.44722000","longitude":"137.41810000","wikiDataId":"Q819653"},{"id":63384,"name":"Gero","stateId":858,"stateCode":"21","stateName":"Gifu Prefecture","countryId":109,"countryCode":"JP","countryName":"Japan","latitude":"35.80000000","longitude":"137.23333000","wikiDataId":"Q819639"},{"id":63385,"name":"Gero-shi","stateId":858,"stateCode":"21","stateName":"Gifu Prefecture","countryId":109,"countryCode":"JP","countryName":"Japan","latitude":"35.75000000","longitude":"137.25000000","wikiDataId":"Q819639"},{"id":63386,"name":"Gifu-shi","stateId":858,"stateCode":"21","stateName":"Gifu Prefecture","countryId":109,"countryCode":"JP","countryName":"Japan","latitude":"35.44826000","longitude":"136.76470000","wikiDataId":"Q45798"},{"id":63402,"name":"Gōdo","stateId":858,"stateCode":"21","stateName":"Gifu Prefecture","countryId":109,"countryCode":"JP","countryName":"Japan","latitude":"35.41667000","longitude":"136.60000000","wikiDataId":"Q1203575"},{"id":63398,"name":"Gujō","stateId":858,"stateCode":"21","stateName":"Gifu Prefecture","countryId":109,"countryCode":"JP","countryName":"Japan","latitude":"35.73691000","longitude":"136.95852000","wikiDataId":"Q857243"},{"id":63399,"name":"Gujō-shi","stateId":858,"stateCode":"21","stateName":"Gifu Prefecture","countryId":109,"countryCode":"JP","countryName":"Japan","latitude":"35.83298000","longitude":"136.94561000","wikiDataId":"Q857243"},{"id":63442,"name":"Hashima","stateId":858,"stateCode":"21","stateName":"Gifu Prefecture","countryId":109,"countryCode":"JP","countryName":"Japan","latitude":"35.32900000","longitude":"136.68051000","wikiDataId":"Q819595"},{"id":63443,"name":"Hashima-shi","stateId":858,"stateCode":"21","stateName":"Gifu Prefecture","countryId":109,"countryCode":"JP","countryName":"Japan","latitude":"35.30740000","longitude":"136.70161000","wikiDataId":"Q819595"},{"id":63455,"name":"Hida","stateId":858,"stateCode":"21","stateName":"Gifu Prefecture","countryId":109,"countryCode":"JP","countryName":"Japan","latitude":"36.24483000","longitude":"137.17323000","wikiDataId":"Q847319"},{"id":63456,"name":"Hida Shi","stateId":858,"stateCode":"21","stateName":"Gifu Prefecture","countryId":109,"countryCode":"JP","countryName":"Japan","latitude":"36.33272000","longitude":"137.20568000","wikiDataId":"Q847319"},{"id":63664,"name":"Kaizu-shi","stateId":858,"stateCode":"21","stateName":"Gifu Prefecture","countryId":109,"countryCode":"JP","countryName":"Japan","latitude":"35.21381000","longitude":"136.62443000","wikiDataId":"Q844056"},{"id":63668,"name":"Kakamigahara-shi","stateId":858,"stateCode":"21","stateName":"Gifu Prefecture","countryId":109,"countryCode":"JP","countryName":"Japan","latitude":"35.40283000","longitude":"136.87829000","wikiDataId":"Q641491"},{"id":63710,"name":"Kani-shi","stateId":858,"stateCode":"21","stateName":"Gifu Prefecture","countryId":109,"countryCode":"JP","countryName":"Japan","latitude":"35.40589000","longitude":"137.06602000","wikiDataId":"Q853805"},{"id":63729,"name":"Kasamatsuchō","stateId":858,"stateCode":"21","stateName":"Gifu Prefecture","countryId":109,"countryCode":"JP","countryName":"Japan","latitude":"35.36667000","longitude":"136.76667000","wikiDataId":"Q1203551"},{"id":63977,"name":"Mino","stateId":858,"stateCode":"21","stateName":"Gifu Prefecture","countryId":109,"countryCode":"JP","countryName":"Japan","latitude":"35.53333000","longitude":"136.91667000","wikiDataId":"Q853835"},{"id":63978,"name":"Mino-shi","stateId":858,"stateCode":"21","stateName":"Gifu Prefecture","countryId":109,"countryCode":"JP","countryName":"Japan","latitude":"35.57892000","longitude":"136.90120000","wikiDataId":"Q853835"},{"id":63979,"name":"Minokamo","stateId":858,"stateCode":"21","stateName":"Gifu Prefecture","countryId":109,"countryCode":"JP","countryName":"Japan","latitude":"35.48199000","longitude":"137.02166000","wikiDataId":"Q857305"},{"id":63980,"name":"Minokamo-shi","stateId":858,"stateCode":"21","stateName":"Gifu Prefecture","countryId":109,"countryCode":"JP","countryName":"Japan","latitude":"35.48386000","longitude":"137.02658000","wikiDataId":"Q857305"},{"id":63989,"name":"Mitake","stateId":858,"stateCode":"21","stateName":"Gifu Prefecture","countryId":109,"countryCode":"JP","countryName":"Japan","latitude":"35.41667000","longitude":"137.13333000","wikiDataId":"Q242885"},{"id":64018,"name":"Mizuho-shi","stateId":858,"stateCode":"21","stateName":"Gifu Prefecture","countryId":109,"countryCode":"JP","countryName":"Japan","latitude":"35.39663000","longitude":"136.67022000","wikiDataId":"Q782103"},{"id":64019,"name":"Mizunami","stateId":858,"stateCode":"21","stateName":"Gifu Prefecture","countryId":109,"countryCode":"JP","countryName":"Japan","latitude":"35.36667000","longitude":"137.25000000","wikiDataId":"Q853821"},{"id":64020,"name":"Mizunami-shi","stateId":858,"stateCode":"21","stateName":"Gifu Prefecture","countryId":109,"countryCode":"JP","countryName":"Japan","latitude":"35.38935000","longitude":"137.27360000","wikiDataId":"Q853821"},{"id":64041,"name":"Motosu-shi","stateId":858,"stateCode":"21","stateName":"Gifu Prefecture","countryId":109,"countryCode":"JP","countryName":"Japan","latitude":"35.65553000","longitude":"136.61991000","wikiDataId":"Q844047"},{"id":64091,"name":"Nakatsugawa","stateId":858,"stateCode":"21","stateName":"Gifu Prefecture","countryId":109,"countryCode":"JP","countryName":"Japan","latitude":"35.48333000","longitude":"137.50000000","wikiDataId":"Q844052"},{"id":64092,"name":"Nakatsugawa-shi","stateId":858,"stateCode":"21","stateName":"Gifu Prefecture","countryId":109,"countryCode":"JP","countryName":"Japan","latitude":"35.56656000","longitude":"137.47433000","wikiDataId":"Q844052"},{"id":64723,"name":"Ōgaki-shi","stateId":858,"stateCode":"21","stateName":"Gifu Prefecture","countryId":109,"countryCode":"JP","countryName":"Japan","latitude":"35.36485000","longitude":"136.60189000","wikiDataId":"Q384926"},{"id":64298,"name":"Seki-shi","stateId":858,"stateCode":"21","stateName":"Gifu Prefecture","countryId":109,"countryCode":"JP","countryName":"Japan","latitude":"35.48333000","longitude":"136.91667000","wikiDataId":"Q860647"},{"id":64415,"name":"Tajimi","stateId":858,"stateCode":"21","stateName":"Gifu Prefecture","countryId":109,"countryCode":"JP","countryName":"Japan","latitude":"35.31667000","longitude":"137.13333000","wikiDataId":"Q232641"},{"id":64416,"name":"Tajimi-shi","stateId":858,"stateCode":"21","stateName":"Gifu Prefecture","countryId":109,"countryCode":"JP","countryName":"Japan","latitude":"35.33401000","longitude":"137.11258000","wikiDataId":"Q819689"},{"id":64442,"name":"Takayama Shi","stateId":858,"stateCode":"21","stateName":"Gifu Prefecture","countryId":109,"countryCode":"JP","countryName":"Japan","latitude":"36.13181000","longitude":"137.28585000","wikiDataId":"Q622594"},{"id":64469,"name":"Tarui","stateId":858,"stateCode":"21","stateName":"Gifu Prefecture","countryId":109,"countryCode":"JP","countryName":"Japan","latitude":"35.36667000","longitude":"136.53333000","wikiDataId":"Q199838"},{"id":64491,"name":"Toki","stateId":858,"stateCode":"21","stateName":"Gifu Prefecture","countryId":109,"countryCode":"JP","countryName":"Japan","latitude":"35.35000000","longitude":"137.18333000","wikiDataId":"Q847332"},{"id":64492,"name":"Toki-shi","stateId":858,"stateCode":"21","stateName":"Gifu Prefecture","countryId":109,"countryCode":"JP","countryName":"Japan","latitude":"35.32418000","longitude":"137.20748000","wikiDataId":"Q847332"},{"id":64640,"name":"Yamagata-shi","stateId":858,"stateCode":"21","stateName":"Gifu Prefecture","countryId":109,"countryCode":"JP","countryName":"Japan","latitude":"35.59892000","longitude":"136.74311000","wikiDataId":"Q205526"}]