[{"id":150848,"name":"Aliabad-e-Katul","stateId":3933,"stateCode":"27","stateName":"Golestan","countryId":103,"countryCode":"IR","countryName":"Iran","latitude":"36.91016390","longitude":"54.83907210","wikiDataId":null},{"id":150840,"name":"Anbar Olum","stateId":3933,"stateCode":"27","stateName":"Golestan","countryId":103,"countryCode":"IR","countryName":"Iran","latitude":"37.13300090","longitude":"54.61230750","wikiDataId":null},{"id":135082,"name":"Aq Qala","stateId":3933,"stateCode":"27","stateName":"Golestan","countryId":103,"countryCode":"IR","countryName":"Iran","latitude":"37.16667000","longitude":"54.58333000","wikiDataId":"Q2572706"},{"id":135153,"name":"Aq Qayeh","stateId":3933,"stateCode":"27","stateName":"Golestan","countryId":103,"countryCode":"IR","countryName":"Iran","latitude":"37.27472000","longitude":"55.15889000","wikiDataId":"Q4782417"},{"id":135156,"name":"Azadshahr","stateId":3933,"stateCode":"27","stateName":"Golestan","countryId":103,"countryCode":"IR","countryName":"Iran","latitude":"37.08641000","longitude":"55.17222000","wikiDataId":"Q2630350"},{"id":150843,"name":"Bandar Torkaman","stateId":3933,"stateCode":"27","stateName":"Golestan","countryId":103,"countryCode":"IR","countryName":"Iran","latitude":"36.90507650","longitude":"54.03526730","wikiDataId":null},{"id":150841,"name":"Bandar-e Gaz","stateId":3933,"stateCode":"27","stateName":"Golestan","countryId":103,"countryCode":"IR","countryName":"Iran","latitude":"36.77416700","longitude":"53.94805600","wikiDataId":null},{"id":150846,"name":"Daland","stateId":3933,"stateCode":"27","stateName":"Golestan","countryId":103,"countryCode":"IR","countryName":"Iran","latitude":"37.03465860","longitude":"55.03712660","wikiDataId":null},{"id":150851,"name":"Faraqi","stateId":3933,"stateCode":"27","stateName":"Golestan","countryId":103,"countryCode":"IR","countryName":"Iran","latitude":"37.26035860","longitude":"55.16635490","wikiDataId":null},{"id":150849,"name":"Fazelabad","stateId":3933,"stateCode":"27","stateName":"Golestan","countryId":103,"countryCode":"IR","countryName":"Iran","latitude":"36.89410210","longitude":"54.73096840","wikiDataId":null},{"id":134889,"name":"Galikesh","stateId":3933,"stateCode":"27","stateName":"Golestan","countryId":103,"countryCode":"IR","countryName":"Iran","latitude":"37.30000000","longitude":"55.65000000","wikiDataId":"Q721034"},{"id":150855,"name":"Gomish Tepe","stateId":3933,"stateCode":"27","stateName":"Golestan","countryId":103,"countryCode":"IR","countryName":"Iran","latitude":"37.07166700","longitude":"54.07666700","wikiDataId":null},{"id":134885,"name":"Gomishan","stateId":3933,"stateCode":"27","stateName":"Golestan","countryId":103,"countryCode":"IR","countryName":"Iran","latitude":"37.15000000","longitude":"54.15000000","wikiDataId":"Q721034"},{"id":134646,"name":"Gonbad Kavus","stateId":3933,"stateCode":"27","stateName":"Golestan","countryId":103,"countryCode":"IR","countryName":"Iran","latitude":"37.25004000","longitude":"55.16721000","wikiDataId":"Q1975291"},{"id":134648,"name":"Gorgan","stateId":3933,"stateCode":"27","stateName":"Golestan","countryId":103,"countryCode":"IR","countryName":"Iran","latitude":"36.84270000","longitude":"54.44391000","wikiDataId":"Q188155"},{"id":150856,"name":"Incheboron","stateId":3933,"stateCode":"27","stateName":"Golestan","countryId":103,"countryCode":"IR","countryName":"Iran","latitude":"37.45422400","longitude":"54.71541160","wikiDataId":null},{"id":150852,"name":"Jelin","stateId":3933,"stateCode":"27","stateName":"Golestan","countryId":103,"countryCode":"IR","countryName":"Iran","latitude":"36.85127690","longitude":"54.52793600","wikiDataId":null},{"id":134662,"name":"Kalaleh","stateId":3933,"stateCode":"27","stateName":"Golestan","countryId":103,"countryCode":"IR","countryName":"Iran","latitude":"37.37899000","longitude":"55.49300000","wikiDataId":"Q942587"},{"id":150845,"name":"KhƒÅnbebin","stateId":3933,"stateCode":"27","stateName":"Golestan","countryId":103,"countryCode":"IR","countryName":"Iran","latitude":"37.00947410","longitude":"54.97964140","wikiDataId":null},{"id":134931,"name":"Kordkuy","stateId":3933,"stateCode":"27","stateName":"Golestan","countryId":103,"countryCode":"IR","countryName":"Iran","latitude":"36.68333000","longitude":"54.20000000","wikiDataId":"Q1264551"},{"id":150857,"name":"Maraveh","stateId":3933,"stateCode":"27","stateName":"Golestan","countryId":103,"countryCode":"IR","countryName":"Iran","latitude":"37.90416700","longitude":"55.95583300","wikiDataId":null},{"id":134955,"name":"Maraveh Tappeh","stateId":3933,"stateCode":"27","stateName":"Golestan","countryId":103,"countryCode":"IR","countryName":"Iran","latitude":"37.85000000","longitude":"55.91667000","wikiDataId":"Q2724633"},{"id":150850,"name":"Mazraeh","stateId":3933,"stateCode":"27","stateName":"Golestan","countryId":103,"countryCode":"IR","countryName":"Iran","latitude":"36.95386110","longitude":"54.85471500","wikiDataId":null},{"id":134971,"name":"Minudasht","stateId":3933,"stateCode":"27","stateName":"Golestan","countryId":103,"countryCode":"IR","countryName":"Iran","latitude":"37.11667000","longitude":"55.45000000","wikiDataId":"Q2718241"},{"id":150838,"name":"Neginshahr","stateId":3933,"stateCode":"27","stateName":"Golestan","countryId":103,"countryCode":"IR","countryName":"Iran","latitude":"37.13936470","longitude":"55.15758990","wikiDataId":null},{"id":150839,"name":"Nowdeh Khanduz","stateId":3933,"stateCode":"27","stateName":"Golestan","countryId":103,"countryCode":"IR","countryName":"Iran","latitude":"37.07449880","longitude":"55.25308730","wikiDataId":null},{"id":150842,"name":"Nowkandeh","stateId":3933,"stateCode":"27","stateName":"Golestan","countryId":103,"countryCode":"IR","countryName":"Iran","latitude":"36.74051840","longitude":"53.88399070","wikiDataId":null},{"id":134738,"name":"Qarnabad","stateId":3933,"stateCode":"27","stateName":"Golestan","countryId":103,"countryCode":"IR","countryName":"Iran","latitude":"36.82203000","longitude":"54.59222000","wikiDataId":"Q2537446"},{"id":135016,"name":"Ramian","stateId":3933,"stateCode":"27","stateName":"Golestan","countryId":103,"countryCode":"IR","countryName":"Iran","latitude":"36.93333000","longitude":"55.08333000","wikiDataId":"Q5099954"},{"id":150847,"name":"Sangdevin","stateId":3933,"stateCode":"27","stateName":"Golestan","countryId":103,"countryCode":"IR","countryName":"Iran","latitude":"36.99793400","longitude":"54.85263350","wikiDataId":null},{"id":150853,"name":"Sarkhon Kalateh","stateId":3933,"stateCode":"27","stateName":"Golestan","countryId":103,"countryCode":"IR","countryName":"Iran","latitude":"36.89138900","longitude":"54.56916700","wikiDataId":null},{"id":150854,"name":"Siminshahr","stateId":3933,"stateCode":"27","stateName":"Golestan","countryId":103,"countryCode":"IR","countryName":"Iran","latitude":"37.01276160","longitude":"54.21581250","wikiDataId":null},{"id":150844,"name":"Tatar Olia","stateId":3933,"stateCode":"27","stateName":"Golestan","countryId":103,"countryCode":"IR","countryName":"Iran","latitude":"37.11100750","longitude":"55.04270560","wikiDataId":null},{"id":135133,"name":"Torkaman","stateId":3933,"stateCode":"27","stateName":"Golestan","countryId":103,"countryCode":"IR","countryName":"Iran","latitude":"36.90000000","longitude":"54.16667000","wikiDataId":"Q765528"}]