[{"id":31512,"name":"Huaquillas","stateId":2924,"stateCode":"O","stateName":"El Oro","countryId":64,"countryCode":"EC","countryName":"Ecuador","latitude":"-3.47523000","longitude":"-80.23084000","wikiDataId":"Q3322678"},{"id":31526,"name":"Machala","stateId":2924,"stateCode":"O","stateName":"El Oro","countryId":64,"countryCode":"EC","countryName":"Ecuador","latitude":"-3.25861000","longitude":"-79.96053000","wikiDataId":"Q215080"},{"id":31542,"name":"Pasaje","stateId":2924,"stateCode":"O","stateName":"El Oro","countryId":64,"countryCode":"EC","countryName":"Ecuador","latitude":"-3.32561000","longitude":"-79.80697000","wikiDataId":"Q3367230"},{"id":31547,"name":"Piñas","stateId":2924,"stateCode":"O","stateName":"El Oro","countryId":64,"countryCode":"EC","countryName":"Ecuador","latitude":"-3.68107000","longitude":"-79.68083000","wikiDataId":"Q7883868"},{"id":31549,"name":"Portovelo","stateId":2924,"stateCode":"O","stateName":"El Oro","countryId":64,"countryCode":"EC","countryName":"Ecuador","latitude":"-3.72145000","longitude":"-79.62187000","wikiDataId":"Q7232216"},{"id":31553,"name":"Puerto Bolívar","stateId":2924,"stateCode":"O","stateName":"El Oro","countryId":64,"countryCode":"EC","countryName":"Ecuador","latitude":"-3.26649000","longitude":"-79.99749000","wikiDataId":"Q1026239"},{"id":31576,"name":"Santa Rosa","stateId":2924,"stateCode":"O","stateName":"El Oro","countryId":64,"countryCode":"EC","countryName":"Ecuador","latitude":"-3.44882000","longitude":"-79.95952000","wikiDataId":"Q7419863"},{"id":31592,"name":"Zaruma","stateId":2924,"stateCode":"O","stateName":"El Oro","countryId":64,"countryCode":"EC","countryName":"Ecuador","latitude":"-3.69132000","longitude":"-79.61174000","wikiDataId":"Q148121"}]