[{"id":65301,"name":"Daejeon","stateId":3850,"stateCode":"30","stateName":"Daejeon","countryId":116,"countryCode":"KR","countryName":"South Korea","latitude":"36.34913000","longitude":"127.38493000","wikiDataId":"Q27267138"},{"id":65486,"name":"Seo-gu","stateId":3850,"stateCode":"30","stateName":"Daejeon","countryId":116,"countryCode":"KR","countryName":"South Korea","latitude":"36.27211000","longitude":"127.33100000","wikiDataId":"Q50405"},{"id":65503,"name":"Sintansin","stateId":3850,"stateCode":"30","stateName":"Daejeon","countryId":116,"countryCode":"KR","countryName":"South Korea","latitude":"36.45361000","longitude":"127.43111000","wikiDataId":"Q50252"},{"id":65506,"name":"Songgangdong","stateId":3850,"stateCode":"30","stateName":"Daejeon","countryId":116,"countryCode":"KR","countryName":"South Korea","latitude":"36.43387000","longitude":"127.37587000","wikiDataId":"Q42109"},{"id":65567,"name":"Yuseong-gu","stateId":3850,"stateCode":"30","stateName":"Daejeon","countryId":116,"countryCode":"KR","countryName":"South Korea","latitude":"36.36685000","longitude":"127.32700000","wikiDataId":"Q50431"}]