[{"id":109053,"name":"Bukonyo","stateId":1468,"stateCode":"13","stateName":"Mara","countryId":218,"countryCode":"TZ","countryName":"Tanzania","latitude":"-1.95000000","longitude":"32.93333000","wikiDataId":"Q654259"},{"id":109056,"name":"Butiama","stateId":1468,"stateCode":"13","stateName":"Mara","countryId":218,"countryCode":"TZ","countryName":"Tanzania","latitude":"-1.76667000","longitude":"33.96667000","wikiDataId":"Q4833509"},{"id":109085,"name":"Issenye","stateId":1468,"stateCode":"13","stateName":"Mara","countryId":218,"countryCode":"TZ","countryName":"Tanzania","latitude":"-2.00000000","longitude":"34.33333000","wikiDataId":"Q735609"},{"id":109102,"name":"Kibara","stateId":1468,"stateCode":"13","stateName":"Mara","countryId":218,"countryCode":"TZ","countryName":"Tanzania","latitude":"-2.15000000","longitude":"33.45000000","wikiDataId":"Q6403941"},{"id":109221,"name":"Mugango","stateId":1468,"stateCode":"13","stateName":"Mara","countryId":218,"countryCode":"TZ","countryName":"Tanzania","latitude":"-1.68333000","longitude":"33.70000000","wikiDataId":"Q646684"},{"id":109222,"name":"Mugumu","stateId":1468,"stateCode":"13","stateName":"Mara","countryId":218,"countryCode":"TZ","countryName":"Tanzania","latitude":"-1.85000000","longitude":"34.70000000","wikiDataId":"Q25349031"},{"id":109225,"name":"Muriti","stateId":1468,"stateCode":"13","stateName":"Mara","countryId":218,"countryCode":"TZ","countryName":"Tanzania","latitude":"-1.98333000","longitude":"32.91667000","wikiDataId":"Q35735774"},{"id":109226,"name":"Musoma","stateId":1468,"stateCode":"13","stateName":"Mara","countryId":218,"countryCode":"TZ","countryName":"Tanzania","latitude":"-1.50000000","longitude":"33.80000000","wikiDataId":"Q847315"},{"id":109236,"name":"Nakatunguru","stateId":1468,"stateCode":"13","stateName":"Mara","countryId":218,"countryCode":"TZ","countryName":"Tanzania","latitude":"-2.11667000","longitude":"33.06667000","wikiDataId":"Q13124414"},{"id":109245,"name":"Nansio","stateId":1468,"stateCode":"13","stateName":"Mara","countryId":218,"countryCode":"TZ","countryName":"Tanzania","latitude":"-2.13333000","longitude":"33.05000000","wikiDataId":"Q10996284"},{"id":109265,"name":"Nyamuswa","stateId":1468,"stateCode":"13","stateName":"Mara","countryId":218,"countryCode":"TZ","countryName":"Tanzania","latitude":"-1.90000000","longitude":"34.01667000","wikiDataId":"Q49358510"},{"id":109280,"name":"Sirari","stateId":1468,"stateCode":"13","stateName":"Mara","countryId":218,"countryCode":"TZ","countryName":"Tanzania","latitude":"-1.25367000","longitude":"34.47596000","wikiDataId":"Q10996011"}]