[{"id":55170,"name":"Abaújszántó","stateId":1058,"stateCode":"BZ","stateName":"Borsod-Abaúj-Zemplén","countryId":99,"countryCode":"HU","countryName":"Hungary","latitude":"48.28333000","longitude":"21.20000000","wikiDataId":"Q305749"},{"id":55186,"name":"Alsózsolca","stateId":1058,"stateCode":"BZ","stateName":"Borsod-Abaúj-Zemplén","countryId":99,"countryCode":"HU","countryName":"Hungary","latitude":"48.06982000","longitude":"20.88046000","wikiDataId":"Q432888"},{"id":55194,"name":"Arló","stateId":1058,"stateCode":"BZ","stateName":"Borsod-Abaúj-Zemplén","countryId":99,"countryCode":"HU","countryName":"Hungary","latitude":"48.18333000","longitude":"20.26667000","wikiDataId":"Q676021"},{"id":55195,"name":"Arnót","stateId":1058,"stateCode":"BZ","stateName":"Borsod-Abaúj-Zemplén","countryId":99,"countryCode":"HU","countryName":"Hungary","latitude":"48.13058000","longitude":"20.85832000","wikiDataId":"Q697898"},{"id":55196,"name":"Aszaló","stateId":1058,"stateCode":"BZ","stateName":"Borsod-Abaúj-Zemplén","countryId":99,"countryCode":"HU","countryName":"Hungary","latitude":"48.21667000","longitude":"20.96667000","wikiDataId":"Q668362"},{"id":55235,"name":"Bekecs","stateId":1058,"stateCode":"BZ","stateName":"Borsod-Abaúj-Zemplén","countryId":99,"countryCode":"HU","countryName":"Hungary","latitude":"48.15000000","longitude":"21.18333000","wikiDataId":"Q580673"},{"id":55311,"name":"Bőcs","stateId":1058,"stateCode":"BZ","stateName":"Borsod-Abaúj-Zemplén","countryId":99,"countryCode":"HU","countryName":"Hungary","latitude":"48.05000000","longitude":"20.96667000","wikiDataId":"Q223607"},{"id":55252,"name":"Bogács","stateId":1058,"stateCode":"BZ","stateName":"Borsod-Abaúj-Zemplén","countryId":99,"countryCode":"HU","countryName":"Hungary","latitude":"47.90000000","longitude":"20.53333000","wikiDataId":"Q579531"},{"id":55254,"name":"Boldva","stateId":1058,"stateCode":"BZ","stateName":"Borsod-Abaúj-Zemplén","countryId":99,"countryCode":"HU","countryName":"Hungary","latitude":"48.21667000","longitude":"20.80000000","wikiDataId":"Q833982"},{"id":55258,"name":"Borsodnádasd","stateId":1058,"stateCode":"BZ","stateName":"Borsod-Abaúj-Zemplén","countryId":99,"countryCode":"HU","countryName":"Hungary","latitude":"48.11667000","longitude":"20.25000000","wikiDataId":"Q246691"},{"id":55321,"name":"Cigánd","stateId":1058,"stateCode":"BZ","stateName":"Borsod-Abaúj-Zemplén","countryId":99,"countryCode":"HU","countryName":"Hungary","latitude":"48.25561000","longitude":"21.89195000","wikiDataId":"Q846652"},{"id":55322,"name":"Cigándi Járás","stateId":1058,"stateCode":"BZ","stateName":"Borsod-Abaúj-Zemplén","countryId":99,"countryCode":"HU","countryName":"Hungary","latitude":"48.30338000","longitude":"21.87651000","wikiDataId":"Q642533"},{"id":55396,"name":"Edelény","stateId":1058,"stateCode":"BZ","stateName":"Borsod-Abaúj-Zemplén","countryId":99,"countryCode":"HU","countryName":"Hungary","latitude":"48.30000000","longitude":"20.73333000","wikiDataId":"Q842925"},{"id":55397,"name":"Edelényi Járás","stateId":1058,"stateCode":"BZ","stateName":"Borsod-Abaúj-Zemplén","countryId":99,"countryCode":"HU","countryName":"Hungary","latitude":"48.40864000","longitude":"20.77506000","wikiDataId":"Q987635"},{"id":55404,"name":"Emőd","stateId":1058,"stateCode":"BZ","stateName":"Borsod-Abaúj-Zemplén","countryId":99,"countryCode":"HU","countryName":"Hungary","latitude":"47.93333000","longitude":"20.81667000","wikiDataId":"Q854923"},{"id":55405,"name":"Encs","stateId":1058,"stateCode":"BZ","stateName":"Borsod-Abaúj-Zemplén","countryId":99,"countryCode":"HU","countryName":"Hungary","latitude":"48.33333000","longitude":"21.13333000","wikiDataId":"Q855060"},{"id":55407,"name":"Encsi Járás","stateId":1058,"stateCode":"BZ","stateName":"Borsod-Abaúj-Zemplén","countryId":99,"countryCode":"HU","countryName":"Hungary","latitude":"48.39948000","longitude":"21.08169000","wikiDataId":"Q921237"},{"id":55416,"name":"Farkaslyuk","stateId":1058,"stateCode":"BZ","stateName":"Borsod-Abaúj-Zemplén","countryId":99,"countryCode":"HU","countryName":"Hungary","latitude":"48.18333000","longitude":"20.31667000","wikiDataId":"Q610280"},{"id":55426,"name":"Felsőzsolca","stateId":1058,"stateCode":"BZ","stateName":"Borsod-Abaúj-Zemplén","countryId":99,"countryCode":"HU","countryName":"Hungary","latitude":"48.10000000","longitude":"20.86667000","wikiDataId":"Q368429"},{"id":55448,"name":"Gesztely","stateId":1058,"stateCode":"BZ","stateName":"Borsod-Abaúj-Zemplén","countryId":99,"countryCode":"HU","countryName":"Hungary","latitude":"48.10000000","longitude":"20.96667000","wikiDataId":"Q1007962"},{"id":55477,"name":"Gönc","stateId":1058,"stateCode":"BZ","stateName":"Borsod-Abaúj-Zemplén","countryId":99,"countryCode":"HU","countryName":"Hungary","latitude":"48.46667000","longitude":"21.28333000","wikiDataId":"Q842967"},{"id":55478,"name":"Gönci Járás","stateId":1058,"stateCode":"BZ","stateName":"Borsod-Abaúj-Zemplén","countryId":99,"countryCode":"HU","countryName":"Hungary","latitude":"48.39948000","longitude":"21.28307000","wikiDataId":"Q15037608"},{"id":55494,"name":"Halmaj","stateId":1058,"stateCode":"BZ","stateName":"Borsod-Abaúj-Zemplén","countryId":99,"countryCode":"HU","countryName":"Hungary","latitude":"48.25000000","longitude":"21.00000000","wikiDataId":"Q1006959"},{"id":55498,"name":"Harsány","stateId":1058,"stateCode":"BZ","stateName":"Borsod-Abaúj-Zemplén","countryId":99,"countryCode":"HU","countryName":"Hungary","latitude":"47.96667000","longitude":"20.75000000","wikiDataId":"Q1006728"},{"id":55503,"name":"Hejőbába","stateId":1058,"stateCode":"BZ","stateName":"Borsod-Abaúj-Zemplén","countryId":99,"countryCode":"HU","countryName":"Hungary","latitude":"47.90000000","longitude":"20.95000000","wikiDataId":"Q1006944"},{"id":55508,"name":"Hernádnémeti","stateId":1058,"stateCode":"BZ","stateName":"Borsod-Abaúj-Zemplén","countryId":99,"countryCode":"HU","countryName":"Hungary","latitude":"48.06667000","longitude":"20.98333000","wikiDataId":"Q259390"},{"id":55532,"name":"Izsófalva","stateId":1058,"stateCode":"BZ","stateName":"Borsod-Abaúj-Zemplén","countryId":99,"countryCode":"HU","countryName":"Hungary","latitude":"48.30000000","longitude":"20.66667000","wikiDataId":"Q124807"},{"id":55540,"name":"Járdánháza","stateId":1058,"stateCode":"BZ","stateName":"Borsod-Abaúj-Zemplén","countryId":99,"countryCode":"HU","countryName":"Hungary","latitude":"48.15000000","longitude":"20.25000000","wikiDataId":"Q1006968"},{"id":55569,"name":"Karcsa","stateId":1058,"stateCode":"BZ","stateName":"Borsod-Abaúj-Zemplén","countryId":99,"countryCode":"HU","countryName":"Hungary","latitude":"48.31130000","longitude":"21.80537000","wikiDataId":"Q1008016"},{"id":55575,"name":"Kazincbarcika","stateId":1058,"stateCode":"BZ","stateName":"Borsod-Abaúj-Zemplén","countryId":99,"countryCode":"HU","countryName":"Hungary","latitude":"48.25000000","longitude":"20.63333000","wikiDataId":"Q214942"},{"id":55576,"name":"Kazincbarcikai Járás","stateId":1058,"stateCode":"BZ","stateName":"Borsod-Abaúj-Zemplén","countryId":99,"countryCode":"HU","countryName":"Hungary","latitude":"48.26371000","longitude":"20.57978000","wikiDataId":"Q1043071"},{"id":55718,"name":"Mád","stateId":1058,"stateCode":"BZ","stateName":"Borsod-Abaúj-Zemplén","countryId":99,"countryCode":"HU","countryName":"Hungary","latitude":"48.19442000","longitude":"21.28208000","wikiDataId":"Q1018357"},{"id":55720,"name":"Mályi","stateId":1058,"stateCode":"BZ","stateName":"Borsod-Abaúj-Zemplén","countryId":99,"countryCode":"HU","countryName":"Hungary","latitude":"48.01667000","longitude":"20.83333000","wikiDataId":"Q250239"},{"id":55686,"name":"Megyaszó","stateId":1058,"stateCode":"BZ","stateName":"Borsod-Abaúj-Zemplén","countryId":99,"countryCode":"HU","countryName":"Hungary","latitude":"48.18333000","longitude":"21.05000000","wikiDataId":"Q1018346"},{"id":55689,"name":"Mezőcsát","stateId":1058,"stateCode":"BZ","stateName":"Borsod-Abaúj-Zemplén","countryId":99,"countryCode":"HU","countryName":"Hungary","latitude":"47.81667000","longitude":"20.91667000","wikiDataId":"Q304803"},{"id":55690,"name":"Mezőcsáti Járás","stateId":1058,"stateCode":"BZ","stateName":"Borsod-Abaúj-Zemplén","countryId":99,"countryCode":"HU","countryName":"Hungary","latitude":"47.79841000","longitude":"20.91693000","wikiDataId":"Q14630100"},{"id":55693,"name":"Mezőkeresztes","stateId":1058,"stateCode":"BZ","stateName":"Borsod-Abaúj-Zemplén","countryId":99,"countryCode":"HU","countryName":"Hungary","latitude":"47.83333000","longitude":"20.70000000","wikiDataId":"Q966970"},{"id":55696,"name":"Mezőkövesd","stateId":1058,"stateCode":"BZ","stateName":"Borsod-Abaúj-Zemplén","countryId":99,"countryCode":"HU","countryName":"Hungary","latitude":"47.81667000","longitude":"20.58333000","wikiDataId":"Q933638"},{"id":55697,"name":"Mezőkövesdi Járás","stateId":1058,"stateCode":"BZ","stateName":"Borsod-Abaúj-Zemplén","countryId":99,"countryCode":"HU","countryName":"Hungary","latitude":"47.84876000","longitude":"20.63623000","wikiDataId":"Q14630116"},{"id":55701,"name":"Mezőzombor","stateId":1058,"stateCode":"BZ","stateName":"Borsod-Abaúj-Zemplén","countryId":99,"countryCode":"HU","countryName":"Hungary","latitude":"48.15000000","longitude":"21.26667000","wikiDataId":"Q1017840"},{"id":55705,"name":"Miskolc","stateId":1058,"stateCode":"BZ","stateName":"Borsod-Abaúj-Zemplén","countryId":99,"countryCode":"HU","countryName":"Hungary","latitude":"48.10000000","longitude":"20.78333000","wikiDataId":"Q102397"},{"id":55706,"name":"Miskolci Járás","stateId":1058,"stateCode":"BZ","stateName":"Borsod-Abaúj-Zemplén","countryId":99,"countryCode":"HU","countryName":"Hungary","latitude":"48.08675000","longitude":"20.77353000","wikiDataId":"Q14630137"},{"id":55710,"name":"Monok","stateId":1058,"stateCode":"BZ","stateName":"Borsod-Abaúj-Zemplén","countryId":99,"countryCode":"HU","countryName":"Hungary","latitude":"48.21102000","longitude":"21.15052000","wikiDataId":"Q1019082"},{"id":55737,"name":"Múcsony","stateId":1058,"stateCode":"BZ","stateName":"Borsod-Abaúj-Zemplén","countryId":99,"countryCode":"HU","countryName":"Hungary","latitude":"48.26667000","longitude":"20.68333000","wikiDataId":"Q1089706"},{"id":55769,"name":"Nyékládháza","stateId":1058,"stateCode":"BZ","stateName":"Borsod-Abaúj-Zemplén","countryId":99,"countryCode":"HU","countryName":"Hungary","latitude":"47.98333000","longitude":"20.83333000","wikiDataId":"Q911567"},{"id":55797,"name":"Olaszliszka","stateId":1058,"stateCode":"BZ","stateName":"Borsod-Abaúj-Zemplén","countryId":99,"countryCode":"HU","countryName":"Hungary","latitude":"48.25000000","longitude":"21.43333000","wikiDataId":"Q1017864"},{"id":55798,"name":"Onga","stateId":1058,"stateCode":"BZ","stateName":"Borsod-Abaúj-Zemplén","countryId":99,"countryCode":"HU","countryName":"Hungary","latitude":"48.11667000","longitude":"20.91667000","wikiDataId":"Q1184433"},{"id":56151,"name":"Ónod","stateId":1058,"stateCode":"BZ","stateName":"Borsod-Abaúj-Zemplén","countryId":99,"countryCode":"HU","countryName":"Hungary","latitude":"48.00000000","longitude":"20.91667000","wikiDataId":"Q293081"},{"id":56154,"name":"Ózd","stateId":1058,"stateCode":"BZ","stateName":"Borsod-Abaúj-Zemplén","countryId":99,"countryCode":"HU","countryName":"Hungary","latitude":"48.21667000","longitude":"20.30000000","wikiDataId":"Q293558"},{"id":56155,"name":"Ózdi Járás","stateId":1058,"stateCode":"BZ","stateName":"Borsod-Abaúj-Zemplén","countryId":99,"countryCode":"HU","countryName":"Hungary","latitude":"48.18133000","longitude":"20.24874000","wikiDataId":"Q265020"},{"id":55832,"name":"Prügy","stateId":1058,"stateCode":"BZ","stateName":"Borsod-Abaúj-Zemplén","countryId":99,"countryCode":"HU","countryName":"Hungary","latitude":"48.08333000","longitude":"21.25000000","wikiDataId":"Q368355"},{"id":55837,"name":"Putnok","stateId":1058,"stateCode":"BZ","stateName":"Borsod-Abaúj-Zemplén","countryId":99,"countryCode":"HU","countryName":"Hungary","latitude":"48.30000000","longitude":"20.43333000","wikiDataId":"Q911558"},{"id":55838,"name":"Putnoki Járás","stateId":1058,"stateCode":"BZ","stateName":"Borsod-Abaúj-Zemplén","countryId":99,"countryCode":"HU","countryName":"Hungary","latitude":"48.33694000","longitude":"20.46384000","wikiDataId":"Q14371286"},{"id":55864,"name":"Ricse","stateId":1058,"stateCode":"BZ","stateName":"Borsod-Abaúj-Zemplén","countryId":99,"countryCode":"HU","countryName":"Hungary","latitude":"48.32565000","longitude":"21.97069000","wikiDataId":"Q586702"},{"id":55867,"name":"Rudabánya","stateId":1058,"stateCode":"BZ","stateName":"Borsod-Abaúj-Zemplén","countryId":99,"countryCode":"HU","countryName":"Hungary","latitude":"48.38333000","longitude":"20.63333000","wikiDataId":"Q1008635"},{"id":55882,"name":"Sajóbábony","stateId":1058,"stateCode":"BZ","stateName":"Borsod-Abaúj-Zemplén","countryId":99,"countryCode":"HU","countryName":"Hungary","latitude":"48.16667000","longitude":"20.73333000","wikiDataId":"Q1008708"},{"id":55883,"name":"Sajókaza","stateId":1058,"stateCode":"BZ","stateName":"Borsod-Abaúj-Zemplén","countryId":99,"countryCode":"HU","countryName":"Hungary","latitude":"48.28333000","longitude":"20.58333000","wikiDataId":"Q1016519"},{"id":55884,"name":"Sajólád","stateId":1058,"stateCode":"BZ","stateName":"Borsod-Abaúj-Zemplén","countryId":99,"countryCode":"HU","countryName":"Hungary","latitude":"48.05000000","longitude":"20.90000000","wikiDataId":"Q282953"},{"id":55888,"name":"Sajóörös","stateId":1058,"stateCode":"BZ","stateName":"Borsod-Abaúj-Zemplén","countryId":99,"countryCode":"HU","countryName":"Hungary","latitude":"47.95000000","longitude":"21.03333000","wikiDataId":"Q970031"},{"id":55885,"name":"Sajószentpéter","stateId":1058,"stateCode":"BZ","stateName":"Borsod-Abaúj-Zemplén","countryId":99,"countryCode":"HU","countryName":"Hungary","latitude":"48.21667000","longitude":"20.71667000","wikiDataId":"Q855086"},{"id":55886,"name":"Sajószöged","stateId":1058,"stateCode":"BZ","stateName":"Borsod-Abaúj-Zemplén","countryId":99,"countryCode":"HU","countryName":"Hungary","latitude":"47.95000000","longitude":"21.00000000","wikiDataId":"Q263570"},{"id":55887,"name":"Sajóvámos","stateId":1058,"stateCode":"BZ","stateName":"Borsod-Abaúj-Zemplén","countryId":99,"countryCode":"HU","countryName":"Hungary","latitude":"48.18171000","longitude":"20.83149000","wikiDataId":"Q689099"},{"id":55979,"name":"Sály","stateId":1058,"stateCode":"BZ","stateName":"Borsod-Abaúj-Zemplén","countryId":99,"countryCode":"HU","countryName":"Hungary","latitude":"47.95000000","longitude":"20.66667000","wikiDataId":"Q607253"},{"id":55986,"name":"Sárospatak","stateId":1058,"stateCode":"BZ","stateName":"Borsod-Abaúj-Zemplén","countryId":99,"countryCode":"HU","countryName":"Hungary","latitude":"48.32450000","longitude":"21.57383000","wikiDataId":"Q668318"},{"id":55987,"name":"Sárospataki Járás","stateId":1058,"stateCode":"BZ","stateName":"Borsod-Abaúj-Zemplén","countryId":99,"countryCode":"HU","countryName":"Hungary","latitude":"48.29575000","longitude":"21.52716000","wikiDataId":"Q853145"},{"id":55994,"name":"Sátoraljaújhely","stateId":1058,"stateCode":"BZ","stateName":"Borsod-Abaúj-Zemplén","countryId":99,"countryCode":"HU","countryName":"Hungary","latitude":"48.39492000","longitude":"21.65871000","wikiDataId":"Q116417"},{"id":55995,"name":"Sátoraljaújhelyi Járás","stateId":1058,"stateCode":"BZ","stateName":"Borsod-Abaúj-Zemplén","countryId":99,"countryCode":"HU","countryName":"Hungary","latitude":"48.45898000","longitude":"21.54394000","wikiDataId":"Q630821"},{"id":55933,"name":"Szendrő","stateId":1058,"stateCode":"BZ","stateName":"Borsod-Abaúj-Zemplén","countryId":99,"countryCode":"HU","countryName":"Hungary","latitude":"48.40000000","longitude":"20.73333000","wikiDataId":"Q590583"},{"id":55941,"name":"Szentistván","stateId":1058,"stateCode":"BZ","stateName":"Borsod-Abaúj-Zemplén","countryId":99,"countryCode":"HU","countryName":"Hungary","latitude":"47.76667000","longitude":"20.66667000","wikiDataId":"Q248474"},{"id":55948,"name":"Szerencs","stateId":1058,"stateCode":"BZ","stateName":"Borsod-Abaúj-Zemplén","countryId":99,"countryCode":"HU","countryName":"Hungary","latitude":"48.15993000","longitude":"21.20970000","wikiDataId":"Q854996"},{"id":55949,"name":"Szerencsi Járás","stateId":1058,"stateCode":"BZ","stateName":"Borsod-Abaúj-Zemplén","countryId":99,"countryCode":"HU","countryName":"Hungary","latitude":"48.14929000","longitude":"21.16865000","wikiDataId":"Q633324"},{"id":55958,"name":"Szikszó","stateId":1058,"stateCode":"BZ","stateName":"Borsod-Abaúj-Zemplén","countryId":99,"countryCode":"HU","countryName":"Hungary","latitude":"48.20000000","longitude":"20.93333000","wikiDataId":"Q854913"},{"id":55959,"name":"Szikszói Járás","stateId":1058,"stateCode":"BZ","stateName":"Borsod-Abaúj-Zemplén","countryId":99,"countryCode":"HU","countryName":"Hungary","latitude":"48.30032000","longitude":"20.95507000","wikiDataId":"Q854336"},{"id":55961,"name":"Szirmabesenyő","stateId":1058,"stateCode":"BZ","stateName":"Borsod-Abaúj-Zemplén","countryId":99,"countryCode":"HU","countryName":"Hungary","latitude":"48.15000000","longitude":"20.80000000","wikiDataId":"Q248566"},{"id":56005,"name":"Taktaharkány","stateId":1058,"stateCode":"BZ","stateName":"Borsod-Abaúj-Zemplén","countryId":99,"countryCode":"HU","countryName":"Hungary","latitude":"48.08333000","longitude":"21.13333000","wikiDataId":"Q1089620"},{"id":56006,"name":"Taktaszada","stateId":1058,"stateCode":"BZ","stateName":"Borsod-Abaúj-Zemplén","countryId":99,"countryCode":"HU","countryName":"Hungary","latitude":"48.11667000","longitude":"21.18333000","wikiDataId":"Q123719"},{"id":56062,"name":"Tállya","stateId":1058,"stateCode":"BZ","stateName":"Borsod-Abaúj-Zemplén","countryId":99,"countryCode":"HU","countryName":"Hungary","latitude":"48.23333000","longitude":"21.23333000","wikiDataId":"Q304304"},{"id":56012,"name":"Tarcal","stateId":1058,"stateCode":"BZ","stateName":"Borsod-Abaúj-Zemplén","countryId":99,"countryCode":"HU","countryName":"Hungary","latitude":"48.13333000","longitude":"21.35000000","wikiDataId":"Q923050"},{"id":56033,"name":"Tiszakarád","stateId":1058,"stateCode":"BZ","stateName":"Borsod-Abaúj-Zemplén","countryId":99,"countryCode":"HU","countryName":"Hungary","latitude":"48.20000000","longitude":"21.71667000","wikiDataId":"Q572103"},{"id":56034,"name":"Tiszakeszi","stateId":1058,"stateCode":"BZ","stateName":"Borsod-Abaúj-Zemplén","countryId":99,"countryCode":"HU","countryName":"Hungary","latitude":"47.78333000","longitude":"21.00000000","wikiDataId":"Q368964"},{"id":56038,"name":"Tiszalúc","stateId":1058,"stateCode":"BZ","stateName":"Borsod-Abaúj-Zemplén","countryId":99,"countryCode":"HU","countryName":"Hungary","latitude":"48.03774000","longitude":"21.07261000","wikiDataId":"Q239610"},{"id":56048,"name":"Tiszaújváros","stateId":1058,"stateCode":"BZ","stateName":"Borsod-Abaúj-Zemplén","countryId":99,"countryCode":"HU","countryName":"Hungary","latitude":"47.93333000","longitude":"21.08333000","wikiDataId":"Q375097"},{"id":56049,"name":"Tiszaújvárosi Járás","stateId":1058,"stateCode":"BZ","stateName":"Borsod-Abaúj-Zemplén","countryId":99,"countryCode":"HU","countryName":"Hungary","latitude":"47.92656000","longitude":"20.99321000","wikiDataId":"Q853879"},{"id":56050,"name":"Tokaj","stateId":1058,"stateCode":"BZ","stateName":"Borsod-Abaúj-Zemplén","countryId":99,"countryCode":"HU","countryName":"Hungary","latitude":"48.11667000","longitude":"21.41667000","wikiDataId":"Q582209"},{"id":56051,"name":"Tokaji Járás","stateId":1058,"stateCode":"BZ","stateName":"Borsod-Abaúj-Zemplén","countryId":99,"countryCode":"HU","countryName":"Hungary","latitude":"48.14014000","longitude":"21.37002000","wikiDataId":"Q547193"},{"id":56052,"name":"Tolcsva","stateId":1058,"stateCode":"BZ","stateName":"Borsod-Abaúj-Zemplén","countryId":99,"countryCode":"HU","countryName":"Hungary","latitude":"48.28333000","longitude":"21.45000000","wikiDataId":"Q1008032"}]