[{"id":64804,"name":"Kijabe","stateId":203,"stateCode":"31","stateName":"Nakuru","countryId":113,"countryCode":"KE","countryName":"Kenya","latitude":"-0.93334000","longitude":"36.57233000","wikiDataId":"Q2719508"},{"id":64837,"name":"Molo","stateId":203,"stateCode":"31","stateName":"Nakuru","countryId":113,"countryCode":"KE","countryName":"Kenya","latitude":"-0.24849000","longitude":"35.73194000","wikiDataId":"Q3506442"},{"id":64846,"name":"Naivasha","stateId":203,"stateCode":"31","stateName":"Nakuru","countryId":113,"countryCode":"KE","countryName":"Kenya","latitude":"-0.71383000","longitude":"36.43261000","wikiDataId":"Q1007647"},{"id":64847,"name":"Nakuru","stateId":203,"stateCode":"31","stateName":"Nakuru","countryId":113,"countryCode":"KE","countryName":"Kenya","latitude":"-0.30719000","longitude":"36.07225000","wikiDataId":"Q239421"},{"id":64864,"name":"Rongai","stateId":203,"stateCode":"31","stateName":"Nakuru","countryId":113,"countryCode":"KE","countryName":"Kenya","latitude":"-0.17344000","longitude":"35.86313000","wikiDataId":"Q984201"}]