[{"id":135416,"name":"Allein","stateId":1716,"stateCode":"23","stateName":"Aosta Valley","countryId":107,"countryCode":"IT","countryName":"Italy","latitude":"45.80723000","longitude":"7.27262000","wikiDataId":"Q18454404"},{"id":135511,"name":"Antagnod","stateId":1716,"stateCode":"23","stateName":"Aosta Valley","countryId":107,"countryCode":"IT","countryName":"Italy","latitude":"45.81484000","longitude":"7.68931000","wikiDataId":"Q2852539"},{"id":135516,"name":"Antey-Saint-Andrè","stateId":1716,"stateCode":"23","stateName":"Aosta Valley","countryId":107,"countryCode":"IT","countryName":"Italy","latitude":"45.80603000","longitude":"7.58666000","wikiDataId":"Q18437157"},{"id":135530,"name":"Aosta","stateId":1716,"stateCode":"23","stateName":"Aosta Valley","countryId":107,"countryCode":"IT","countryName":"Italy","latitude":"45.73764000","longitude":"7.31722000","wikiDataId":"Q18445825"},{"id":135618,"name":"Arnad","stateId":1716,"stateCode":"23","stateName":"Aosta Valley","countryId":107,"countryCode":"IT","countryName":"Italy","latitude":"45.64726000","longitude":"7.71701000","wikiDataId":"Q18454416"},{"id":135645,"name":"Arvier","stateId":1716,"stateCode":"23","stateName":"Aosta Valley","countryId":107,"countryCode":"IT","countryName":"Italy","latitude":"45.70205000","longitude":"7.16267000","wikiDataId":"Q18436874"},{"id":135712,"name":"Avise","stateId":1716,"stateCode":"23","stateName":"Aosta Valley","countryId":107,"countryCode":"IT","countryName":"Italy","latitude":"45.70886000","longitude":"7.13990000","wikiDataId":"Q18448272"},{"id":135716,"name":"Ayas","stateId":1716,"stateCode":"23","stateName":"Aosta Valley","countryId":107,"countryCode":"IT","countryName":"Italy","latitude":"45.81506000","longitude":"7.68911000","wikiDataId":"Q18448272"},{"id":135717,"name":"Aymavilles","stateId":1716,"stateCode":"23","stateName":"Aosta Valley","countryId":107,"countryCode":"IT","countryName":"Italy","latitude":"45.70130000","longitude":"7.24683000","wikiDataId":"Q18448272"},{"id":135838,"name":"Bard","stateId":1716,"stateCode":"23","stateName":"Aosta Valley","countryId":107,"countryCode":"IT","countryName":"Italy","latitude":"45.60936000","longitude":"7.74491000","wikiDataId":"Q3634893"},{"id":135997,"name":"Berriat","stateId":1716,"stateCode":"23","stateName":"Aosta Valley","countryId":107,"countryCode":"IT","countryName":"Italy","latitude":"45.70729000","longitude":"7.67617000","wikiDataId":"Q18495191"},{"id":136055,"name":"Bionaz","stateId":1716,"stateCode":"23","stateName":"Aosta Valley","countryId":107,"countryCode":"IT","countryName":"Italy","latitude":"45.87356000","longitude":"7.42310000","wikiDataId":"Q18503920"},{"id":136378,"name":"Brusson","stateId":1716,"stateCode":"23","stateName":"Aosta Valley","countryId":107,"countryCode":"IT","countryName":"Italy","latitude":"45.75926000","longitude":"7.72899000","wikiDataId":"Q3645550"},{"id":137627,"name":"Challand-Saint-Anselme","stateId":1716,"stateCode":"23","stateName":"Aosta Valley","countryId":107,"countryCode":"IT","countryName":"Italy","latitude":"45.71456000","longitude":"7.73451000","wikiDataId":"Q18429678"},{"id":137628,"name":"Challand-Saint-Victor","stateId":1716,"stateCode":"23","stateName":"Aosta Valley","countryId":107,"countryCode":"IT","countryName":"Italy","latitude":"45.69046000","longitude":"7.70471000","wikiDataId":"Q18429678"},{"id":137629,"name":"Chambave","stateId":1716,"stateCode":"23","stateName":"Aosta Valley","countryId":107,"countryCode":"IT","countryName":"Italy","latitude":"45.74426000","longitude":"7.54931000","wikiDataId":"Q18429678"},{"id":137630,"name":"Chamois","stateId":1716,"stateCode":"23","stateName":"Aosta Valley","countryId":107,"countryCode":"IT","countryName":"Italy","latitude":"45.83886000","longitude":"7.61871000","wikiDataId":"Q18429678"},{"id":137631,"name":"Champdepraz","stateId":1716,"stateCode":"23","stateName":"Aosta Valley","countryId":107,"countryCode":"IT","countryName":"Italy","latitude":"45.68526000","longitude":"7.65681000","wikiDataId":"Q18429678"},{"id":137632,"name":"Champorcher","stateId":1716,"stateCode":"23","stateName":"Aosta Valley","countryId":107,"countryCode":"IT","countryName":"Italy","latitude":"45.62376000","longitude":"7.62151000","wikiDataId":"Q18429678"},{"id":137633,"name":"Charvensod","stateId":1716,"stateCode":"23","stateName":"Aosta Valley","countryId":107,"countryCode":"IT","countryName":"Italy","latitude":"45.72025000","longitude":"7.32433000","wikiDataId":"Q18429678"},{"id":137634,"name":"Chatillon","stateId":1716,"stateCode":"23","stateName":"Aosta Valley","countryId":107,"countryCode":"IT","countryName":"Italy","latitude":"45.74991000","longitude":"7.61668000","wikiDataId":"Q18429678"},{"id":137635,"name":"Chef-Lieu","stateId":1716,"stateCode":"23","stateName":"Aosta Valley","countryId":107,"countryCode":"IT","countryName":"Italy","latitude":"45.75091000","longitude":"7.35372000","wikiDataId":"Q18495325"},{"id":137841,"name":"Cogne","stateId":1716,"stateCode":"23","stateName":"Aosta Valley","countryId":107,"countryCode":"IT","countryName":"Italy","latitude":"45.60742000","longitude":"7.35803000","wikiDataId":"Q30024888"},{"id":138115,"name":"Courmayeur","stateId":1716,"stateCode":"23","stateName":"Aosta Valley","countryId":107,"countryCode":"IT","countryName":"Italy","latitude":"45.79659000","longitude":"6.96893000","wikiDataId":"Q18436923"},{"id":138301,"name":"Donnas","stateId":1716,"stateCode":"23","stateName":"Aosta Valley","countryId":107,"countryCode":"IT","countryName":"Italy","latitude":"45.60286000","longitude":"7.77491000","wikiDataId":"Q379107"},{"id":138321,"name":"Doues","stateId":1716,"stateCode":"23","stateName":"Aosta Valley","countryId":107,"countryCode":"IT","countryName":"Italy","latitude":"45.81916000","longitude":"7.30600000","wikiDataId":"Q2382234"},{"id":138355,"name":"Emarese","stateId":1716,"stateCode":"23","stateName":"Aosta Valley","countryId":107,"countryCode":"IT","countryName":"Italy","latitude":"45.72489000","longitude":"7.68976000","wikiDataId":"Q18503084"},{"id":138388,"name":"Etroubles","stateId":1716,"stateCode":"23","stateName":"Aosta Valley","countryId":107,"countryCode":"IT","countryName":"Italy","latitude":"45.82082000","longitude":"7.23137000","wikiDataId":"Q18490379"},{"id":138765,"name":"Fénis","stateId":1716,"stateCode":"23","stateName":"Aosta Valley","countryId":107,"countryCode":"IT","countryName":"Italy","latitude":"45.73469000","longitude":"7.49544000","wikiDataId":"Q18496531"},{"id":138591,"name":"Fontainemore","stateId":1716,"stateCode":"23","stateName":"Aosta Valley","countryId":107,"countryCode":"IT","countryName":"Italy","latitude":"45.64746000","longitude":"7.85952000","wikiDataId":"Q3747112"},{"id":138771,"name":"Gaby","stateId":1716,"stateCode":"23","stateName":"Aosta Valley","countryId":107,"countryCode":"IT","countryName":"Italy","latitude":"45.71300000","longitude":"7.88224000","wikiDataId":"Q18490204"},{"id":138960,"name":"Gignod","stateId":1716,"stateCode":"23","stateName":"Aosta Valley","countryId":107,"countryCode":"IT","countryName":"Italy","latitude":"45.77996000","longitude":"7.29640000","wikiDataId":"Q1523719"},{"id":139063,"name":"Grand Brissogne","stateId":1716,"stateCode":"23","stateName":"Aosta Valley","countryId":107,"countryCode":"IT","countryName":"Italy","latitude":"45.72566000","longitude":"7.39260000","wikiDataId":"Q2293125"},{"id":139089,"name":"Gressan","stateId":1716,"stateCode":"23","stateName":"Aosta Valley","countryId":107,"countryCode":"IT","countryName":"Italy","latitude":"45.72050000","longitude":"7.29311000","wikiDataId":"Q18492879"},{"id":139090,"name":"Gressoney-La-Trinitè","stateId":1716,"stateCode":"23","stateName":"Aosta Valley","countryId":107,"countryCode":"IT","countryName":"Italy","latitude":"45.82967000","longitude":"7.82321000","wikiDataId":"Q18492879"},{"id":139091,"name":"Gressoney-Saint-Jean","stateId":1716,"stateCode":"23","stateName":"Aosta Valley","countryId":107,"countryCode":"IT","countryName":"Italy","latitude":"45.77272000","longitude":"7.82802000","wikiDataId":"Q1399965"},{"id":139187,"name":"Hone","stateId":1716,"stateCode":"23","stateName":"Aosta Valley","countryId":107,"countryCode":"IT","countryName":"Italy","latitude":"45.61356000","longitude":"7.73851000","wikiDataId":"Q3779689"},{"id":139211,"name":"Introd","stateId":1716,"stateCode":"23","stateName":"Aosta Valley","countryId":107,"countryCode":"IT","countryName":"Italy","latitude":"45.69306000","longitude":"7.18240000","wikiDataId":"Q18428278"},{"id":139262,"name":"Issime","stateId":1716,"stateCode":"23","stateName":"Aosta Valley","countryId":107,"countryCode":"IT","countryName":"Italy","latitude":"45.68546000","longitude":"7.85411000","wikiDataId":"Q18457884"},{"id":139264,"name":"Issogne","stateId":1716,"stateCode":"23","stateName":"Aosta Valley","countryId":107,"countryCode":"IT","countryName":"Italy","latitude":"45.65496000","longitude":"7.68571000","wikiDataId":"Q18457884"},{"id":139283,"name":"Jovencan","stateId":1716,"stateCode":"23","stateName":"Aosta Valley","countryId":107,"countryCode":"IT","countryName":"Italy","latitude":"45.71486000","longitude":"7.27260000","wikiDataId":"Q1118172"},{"id":139290,"name":"La Cretaz-Roisan","stateId":1716,"stateCode":"23","stateName":"Aosta Valley","countryId":107,"countryCode":"IT","countryName":"Italy","latitude":"45.78396000","longitude":"7.31310000","wikiDataId":"Q18495570"},{"id":139294,"name":"La Magdeleine","stateId":1716,"stateCode":"23","stateName":"Aosta Valley","countryId":107,"countryCode":"IT","countryName":"Italy","latitude":"45.80996000","longitude":"7.61871000","wikiDataId":"Q18448339"},{"id":139299,"name":"La Place","stateId":1716,"stateCode":"23","stateName":"Aosta Valley","countryId":107,"countryCode":"IT","countryName":"Italy","latitude":"45.65414000","longitude":"7.68414000","wikiDataId":"Q18495575"},{"id":139303,"name":"La Salle","stateId":1716,"stateCode":"23","stateName":"Aosta Valley","countryId":107,"countryCode":"IT","countryName":"Italy","latitude":"45.74497000","longitude":"7.07295000","wikiDataId":"Q18439398"},{"id":139306,"name":"La Thuile","stateId":1716,"stateCode":"23","stateName":"Aosta Valley","countryId":107,"countryCode":"IT","countryName":"Italy","latitude":"45.71366000","longitude":"6.95099000","wikiDataId":"Q18503347"},{"id":139383,"name":"Lassolaz","stateId":1716,"stateCode":"23","stateName":"Aosta Valley","countryId":107,"countryCode":"IT","countryName":"Italy","latitude":"45.73851000","longitude":"7.58883000","wikiDataId":"Q18495588"},{"id":139514,"name":"Lillianes","stateId":1716,"stateCode":"23","stateName":"Aosta Valley","countryId":107,"countryCode":"IT","countryName":"Italy","latitude":"45.62948000","longitude":"7.84126000","wikiDataId":"Q18439419"},{"id":140288,"name":"Mongnod","stateId":1716,"stateCode":"23","stateName":"Aosta Valley","countryId":107,"countryCode":"IT","countryName":"Italy","latitude":"45.80549000","longitude":"7.56806000","wikiDataId":"Q18495679"},{"id":140337,"name":"Montan-Angelin-Arensod","stateId":1716,"stateCode":"23","stateName":"Aosta Valley","countryId":107,"countryCode":"IT","countryName":"Italy","latitude":"45.72820000","longitude":"7.27647000","wikiDataId":"Q18495680"},{"id":140576,"name":"Montjovet","stateId":1716,"stateCode":"23","stateName":"Aosta Valley","countryId":107,"countryCode":"IT","countryName":"Italy","latitude":"45.70796000","longitude":"7.67411000","wikiDataId":"Q18495968"},{"id":140613,"name":"Morgex","stateId":1716,"stateCode":"23","stateName":"Aosta Valley","countryId":107,"countryCode":"IT","countryName":"Italy","latitude":"45.75664000","longitude":"7.04123000","wikiDataId":"Q6906139"},{"id":140860,"name":"Nus","stateId":1716,"stateCode":"23","stateName":"Aosta Valley","countryId":107,"countryCode":"IT","countryName":"Italy","latitude":"45.74026000","longitude":"7.46660000","wikiDataId":"Q18449899"},{"id":140907,"name":"Ollomont","stateId":1716,"stateCode":"23","stateName":"Aosta Valley","countryId":107,"countryCode":"IT","countryName":"Italy","latitude":"45.84976000","longitude":"7.31060000","wikiDataId":"Q18448462"},{"id":141060,"name":"Oyace","stateId":1716,"stateCode":"23","stateName":"Aosta Valley","countryId":107,"countryCode":"IT","countryName":"Italy","latitude":"45.85116000","longitude":"7.38300000","wikiDataId":"Q3887155"},{"id":58293,"name":"Paquier","stateId":1716,"stateCode":"23","stateName":"Aosta Valley","countryId":107,"countryCode":"IT","countryName":"Italy","latitude":"45.87879000","longitude":"7.62575000","wikiDataId":"Q18495750"},{"id":58430,"name":"Perloz","stateId":1716,"stateCode":"23","stateName":"Aosta Valley","countryId":107,"countryCode":"IT","countryName":"Italy","latitude":"45.61386000","longitude":"7.80811000","wikiDataId":"Q42801"},{"id":58476,"name":"Petit Fenis","stateId":1716,"stateCode":"23","stateName":"Aosta Valley","countryId":107,"countryCode":"IT","countryName":"Italy","latitude":"45.75115000","longitude":"7.46391000","wikiDataId":"Q18495770"},{"id":58732,"name":"Plan d'Introd","stateId":1716,"stateCode":"23","stateName":"Aosta Valley","countryId":107,"countryCode":"IT","countryName":"Italy","latitude":"45.69203000","longitude":"7.18328000","wikiDataId":"Q18495789"},{"id":58796,"name":"Pollein","stateId":1716,"stateCode":"23","stateName":"Aosta Valley","countryId":107,"countryCode":"IT","countryName":"Italy","latitude":"45.72780000","longitude":"7.35146000","wikiDataId":"Q610420"},{"id":58827,"name":"Pont-Bozet","stateId":1716,"stateCode":"23","stateName":"Aosta Valley","countryId":107,"countryCode":"IT","countryName":"Italy","latitude":"45.60726000","longitude":"7.68641000","wikiDataId":"Q18487770"},{"id":58829,"name":"Pont-Saint-Martin","stateId":1716,"stateCode":"23","stateName":"Aosta Valley","countryId":107,"countryCode":"IT","countryName":"Italy","latitude":"45.59536000","longitude":"7.79451000","wikiDataId":"Q18487770"},{"id":58881,"name":"Pontey","stateId":1716,"stateCode":"23","stateName":"Aosta Valley","countryId":107,"countryCode":"IT","countryName":"Italy","latitude":"45.73886000","longitude":"7.58831000","wikiDataId":"Q3908215"},{"id":59193,"name":"Prè Saint Didier","stateId":1716,"stateCode":"23","stateName":"Aosta Valley","countryId":107,"countryCode":"IT","countryName":"Italy","latitude":"45.76416000","longitude":"6.98579000","wikiDataId":"Q16318"},{"id":59225,"name":"Quart","stateId":1716,"stateCode":"23","stateName":"Aosta Valley","countryId":107,"countryCode":"IT","countryName":"Italy","latitude":"45.74096000","longitude":"7.41520000","wikiDataId":"Q18485920"},{"id":59244,"name":"Quincod","stateId":1716,"stateCode":"23","stateName":"Aosta Valley","countryId":107,"countryCode":"IT","countryName":"Italy","latitude":"45.71513000","longitude":"7.73495000","wikiDataId":"Q18495857"},{"id":59350,"name":"Rhemes-Notre-Dame","stateId":1716,"stateCode":"23","stateName":"Aosta Valley","countryId":107,"countryCode":"IT","countryName":"Italy","latitude":"45.56965000","longitude":"7.11870000","wikiDataId":"Q2613596"},{"id":59351,"name":"Rhemes-Saint-Georges","stateId":1716,"stateCode":"23","stateName":"Aosta Valley","countryId":107,"countryCode":"IT","countryName":"Italy","latitude":"45.65226000","longitude":"7.15440000","wikiDataId":"Q2613596"},{"id":59727,"name":"Saint Marcel","stateId":1716,"stateCode":"23","stateName":"Aosta Valley","countryId":107,"countryCode":"IT","countryName":"Italy","latitude":"45.73146000","longitude":"7.44820000","wikiDataId":"Q18496925"},{"id":59728,"name":"Saint Maurice","stateId":1716,"stateCode":"23","stateName":"Aosta Valley","countryId":107,"countryCode":"IT","countryName":"Italy","latitude":"45.71771000","longitude":"7.25547000","wikiDataId":"Q18495905"},{"id":59729,"name":"Saint-Christophe","stateId":1716,"stateCode":"23","stateName":"Aosta Valley","countryId":107,"countryCode":"IT","countryName":"Italy","latitude":"45.75406000","longitude":"7.34720000","wikiDataId":"Q18495905"},{"id":59730,"name":"Saint-Denis","stateId":1716,"stateCode":"23","stateName":"Aosta Valley","countryId":107,"countryCode":"IT","countryName":"Italy","latitude":"45.75256000","longitude":"7.55531000","wikiDataId":"Q18495905"},{"id":59731,"name":"Saint-Nicolas","stateId":1716,"stateCode":"23","stateName":"Aosta Valley","countryId":107,"countryCode":"IT","countryName":"Italy","latitude":"45.71656000","longitude":"7.16670000","wikiDataId":"Q30029684"},{"id":59732,"name":"Saint-Oyen","stateId":1716,"stateCode":"23","stateName":"Aosta Valley","countryId":107,"countryCode":"IT","countryName":"Italy","latitude":"45.82439000","longitude":"7.21372000","wikiDataId":"Q30029684"},{"id":59733,"name":"Saint-Pierre","stateId":1716,"stateCode":"23","stateName":"Aosta Valley","countryId":107,"countryCode":"IT","countryName":"Italy","latitude":"45.71153000","longitude":"7.22683000","wikiDataId":"Q30029684"},{"id":59734,"name":"Saint-Rhémy","stateId":1716,"stateCode":"23","stateName":"Aosta Valley","countryId":107,"countryCode":"IT","countryName":"Italy","latitude":"45.83553000","longitude":"7.18393000","wikiDataId":"Q30029684"},{"id":59735,"name":"Saint-Vincent","stateId":1716,"stateCode":"23","stateName":"Aosta Valley","countryId":107,"countryCode":"IT","countryName":"Italy","latitude":"45.75082000","longitude":"7.64815000","wikiDataId":"Q30029684"},{"id":60030,"name":"San Leonardo","stateId":1716,"stateCode":"23","stateName":"Aosta Valley","countryId":107,"countryCode":"IT","countryName":"Italy","latitude":"45.82366000","longitude":"7.18140000","wikiDataId":"Q18495921"},{"id":61328,"name":"Torgnon","stateId":1716,"stateCode":"23","stateName":"Aosta Valley","countryId":107,"countryCode":"IT","countryName":"Italy","latitude":"45.80616000","longitude":"7.56980000","wikiDataId":"Q18435771"},{"id":61677,"name":"Valgrisenche","stateId":1716,"stateCode":"23","stateName":"Aosta Valley","countryId":107,"countryCode":"IT","countryName":"Italy","latitude":"45.63036000","longitude":"7.06400000","wikiDataId":"Q18505677"},{"id":61694,"name":"Valle d'Aosta","stateId":1716,"stateCode":"23","stateName":"Aosta Valley","countryId":107,"countryCode":"IT","countryName":"Italy","latitude":"45.76667000","longitude":"7.41667000","wikiDataId":"Q18455341"},{"id":61735,"name":"Valpelline","stateId":1716,"stateCode":"23","stateName":"Aosta Valley","countryId":107,"countryCode":"IT","countryName":"Italy","latitude":"45.82486000","longitude":"7.32550000","wikiDataId":"Q18502485"},{"id":61738,"name":"Valsavarenche","stateId":1716,"stateCode":"23","stateName":"Aosta Valley","countryId":107,"countryCode":"IT","countryName":"Italy","latitude":"45.59186000","longitude":"7.21000000","wikiDataId":"Q18502485"},{"id":61744,"name":"Valtournenche","stateId":1716,"stateCode":"23","stateName":"Aosta Valley","countryId":107,"countryCode":"IT","countryName":"Italy","latitude":"45.87607000","longitude":"7.62430000","wikiDataId":"Q18502485"},{"id":61865,"name":"Verrayes","stateId":1716,"stateCode":"23","stateName":"Aosta Valley","countryId":107,"countryCode":"IT","countryName":"Italy","latitude":"45.76326000","longitude":"7.53460000","wikiDataId":"Q18504619"},{"id":61866,"name":"Verres","stateId":1716,"stateCode":"23","stateName":"Aosta Valley","countryId":107,"countryCode":"IT","countryName":"Italy","latitude":"45.66656000","longitude":"7.68911000","wikiDataId":"Q18504619"},{"id":62045,"name":"Villa-Nabian","stateId":1716,"stateCode":"23","stateName":"Aosta Valley","countryId":107,"countryCode":"IT","countryName":"Italy","latitude":"45.68970000","longitude":"7.70470000","wikiDataId":"Q18496037"},{"id":62074,"name":"Villair-Amerique","stateId":1716,"stateCode":"23","stateName":"Aosta Valley","countryId":107,"countryCode":"IT","countryName":"Italy","latitude":"45.74793000","longitude":"7.38982000","wikiDataId":"Q18496035"},{"id":62147,"name":"Ville Sur Sarre","stateId":1716,"stateCode":"23","stateName":"Aosta Valley","countryId":107,"countryCode":"IT","countryName":"Italy","latitude":"45.73339000","longitude":"7.25857000","wikiDataId":"Q18496041"},{"id":62148,"name":"Villefranche","stateId":1716,"stateCode":"23","stateName":"Aosta Valley","countryId":107,"countryCode":"IT","countryName":"Italy","latitude":"45.74064000","longitude":"7.41598000","wikiDataId":"Q18496043"},{"id":62149,"name":"Villeneuve","stateId":1716,"stateCode":"23","stateName":"Aosta Valley","countryId":107,"countryCode":"IT","countryName":"Italy","latitude":"45.70201000","longitude":"7.20682000","wikiDataId":"Q18496043"}]