[{"id":65608,"name":"Altayskiy","stateId":154,"stateCode":"VOS","stateName":"East Kazakhstan Region","countryId":112,"countryCode":"KZ","countryName":"Kazakhstan","latitude":"50.24593000","longitude":"82.36252000","wikiDataId":"Q35493"},{"id":65613,"name":"Aqtoghay","stateId":154,"stateCode":"VOS","stateName":"East Kazakhstan Region","countryId":112,"countryCode":"KZ","countryName":"Kazakhstan","latitude":"46.95000000","longitude":"79.66667000","wikiDataId":"Q622760"},{"id":65621,"name":"Asūbulaq","stateId":154,"stateCode":"VOS","stateName":"East Kazakhstan Region","countryId":112,"countryCode":"KZ","countryName":"Kazakhstan","latitude":"49.55688000","longitude":"83.06355000","wikiDataId":"Q4071858"},{"id":65626,"name":"Auezov","stateId":154,"stateCode":"VOS","stateName":"East Kazakhstan Region","countryId":112,"countryCode":"KZ","countryName":"Kazakhstan","latitude":"49.71003000","longitude":"81.58018000","wikiDataId":"Q486913"},{"id":65627,"name":"Ayagoz","stateId":154,"stateCode":"VOS","stateName":"East Kazakhstan Region","countryId":112,"countryCode":"KZ","countryName":"Kazakhstan","latitude":"47.96447000","longitude":"80.43437000","wikiDataId":"Q2391391"},{"id":65643,"name":"Belogorskīy","stateId":154,"stateCode":"VOS","stateName":"East Kazakhstan Region","countryId":112,"countryCode":"KZ","countryName":"Kazakhstan","latitude":"49.47698000","longitude":"83.14803000","wikiDataId":"Q12532833"},{"id":65645,"name":"Belousovka","stateId":154,"stateCode":"VOS","stateName":"East Kazakhstan Region","countryId":112,"countryCode":"KZ","countryName":"Kazakhstan","latitude":"50.13287000","longitude":"82.52481000","wikiDataId":"Q4738017"},{"id":65651,"name":"Borodulikha","stateId":154,"stateCode":"VOS","stateName":"East Kazakhstan Region","countryId":112,"countryCode":"KZ","countryName":"Kazakhstan","latitude":"50.71841000","longitude":"80.92950000","wikiDataId":"Q27357540"},{"id":65681,"name":"Georgīevka","stateId":154,"stateCode":"VOS","stateName":"East Kazakhstan Region","countryId":112,"countryCode":"KZ","countryName":"Kazakhstan","latitude":"49.32671000","longitude":"81.57373000","wikiDataId":"Q1192007"},{"id":65682,"name":"Glubokoye","stateId":154,"stateCode":"VOS","stateName":"East Kazakhstan Region","countryId":112,"countryCode":"KZ","countryName":"Kazakhstan","latitude":"50.13887000","longitude":"82.31114000","wikiDataId":"Q1192007"},{"id":65705,"name":"Kurchatov","stateId":154,"stateCode":"VOS","stateName":"East Kazakhstan Region","countryId":112,"countryCode":"KZ","countryName":"Kazakhstan","latitude":"50.75617000","longitude":"78.54188000","wikiDataId":"Q767177"},{"id":65706,"name":"Kurchum","stateId":154,"stateCode":"VOS","stateName":"East Kazakhstan Region","countryId":112,"countryCode":"KZ","countryName":"Kazakhstan","latitude":"48.56603000","longitude":"83.66146000","wikiDataId":"Q1046498"},{"id":65721,"name":"Maleyevsk","stateId":154,"stateCode":"VOS","stateName":"East Kazakhstan Region","countryId":112,"countryCode":"KZ","countryName":"Kazakhstan","latitude":"49.81441000","longitude":"84.29102000","wikiDataId":"Q1019392"},{"id":65738,"name":"Ognevka","stateId":154,"stateCode":"VOS","stateName":"East Kazakhstan Region","countryId":112,"countryCode":"KZ","countryName":"Kazakhstan","latitude":"49.68351000","longitude":"83.01674000","wikiDataId":"Q1520"},{"id":65749,"name":"Priisk Boko","stateId":154,"stateCode":"VOS","stateName":"East Kazakhstan Region","countryId":112,"countryCode":"KZ","countryName":"Kazakhstan","latitude":"49.06028000","longitude":"81.64528000","wikiDataId":"Q488379"},{"id":65753,"name":"Qaraūyl","stateId":154,"stateCode":"VOS","stateName":"East Kazakhstan Region","countryId":112,"countryCode":"KZ","countryName":"Kazakhstan","latitude":"48.94509000","longitude":"79.25502000","wikiDataId":"Q27352595"},{"id":65761,"name":"Ridder","stateId":154,"stateCode":"VOS","stateName":"East Kazakhstan Region","countryId":112,"countryCode":"KZ","countryName":"Kazakhstan","latitude":"50.34413000","longitude":"83.51287000","wikiDataId":"Q986100"},{"id":65774,"name":"Semey","stateId":154,"stateCode":"VOS","stateName":"East Kazakhstan Region","countryId":112,"countryCode":"KZ","countryName":"Kazakhstan","latitude":"50.42675000","longitude":"80.26669000","wikiDataId":"Q61944"},{"id":65782,"name":"Shar","stateId":154,"stateCode":"VOS","stateName":"East Kazakhstan Region","countryId":112,"countryCode":"KZ","countryName":"Kazakhstan","latitude":"49.58720000","longitude":"81.04883000","wikiDataId":"Q4507469"},{"id":65785,"name":"Shemonaīkha","stateId":154,"stateCode":"VOS","stateName":"East Kazakhstan Region","countryId":112,"countryCode":"KZ","countryName":"Kazakhstan","latitude":"50.62811000","longitude":"81.91213000","wikiDataId":"Q1047824"},{"id":65798,"name":"Suykbulak","stateId":154,"stateCode":"VOS","stateName":"East Kazakhstan Region","countryId":112,"countryCode":"KZ","countryName":"Kazakhstan","latitude":"49.70837000","longitude":"81.04854000","wikiDataId":"Q27352739"},{"id":65821,"name":"Tūghyl","stateId":154,"stateCode":"VOS","stateName":"East Kazakhstan Region","countryId":112,"countryCode":"KZ","countryName":"Kazakhstan","latitude":"47.72521000","longitude":"84.20629000","wikiDataId":"Q848638"},{"id":65822,"name":"Urzhar","stateId":154,"stateCode":"VOS","stateName":"East Kazakhstan Region","countryId":112,"countryCode":"KZ","countryName":"Kazakhstan","latitude":"47.09302000","longitude":"81.62939000","wikiDataId":"Q2073917"},{"id":65824,"name":"Ust-Kamenogorsk","stateId":154,"stateCode":"VOS","stateName":"East Kazakhstan Region","countryId":112,"countryCode":"KZ","countryName":"Kazakhstan","latitude":"49.97143000","longitude":"82.60586000","wikiDataId":"Q162548"},{"id":65853,"name":"Ūst’-Talovka","stateId":154,"stateCode":"VOS","stateName":"East Kazakhstan Region","countryId":112,"countryCode":"KZ","countryName":"Kazakhstan","latitude":"50.54927000","longitude":"81.84997000","wikiDataId":"Q2139924"},{"id":65833,"name":"Zaysan","stateId":154,"stateCode":"VOS","stateName":"East Kazakhstan Region","countryId":112,"countryCode":"KZ","countryName":"Kazakhstan","latitude":"47.46657000","longitude":"84.87144000","wikiDataId":"Q1881641"},{"id":65835,"name":"Zhalghyztobe","stateId":154,"stateCode":"VOS","stateName":"East Kazakhstan Region","countryId":112,"countryCode":"KZ","countryName":"Kazakhstan","latitude":"49.21094000","longitude":"81.21596000","wikiDataId":"Q1881641"},{"id":65838,"name":"Zhanga Buqtyrma","stateId":154,"stateCode":"VOS","stateName":"East Kazakhstan Region","countryId":112,"countryCode":"KZ","countryName":"Kazakhstan","latitude":"49.62950000","longitude":"83.52475000","wikiDataId":"Q1000852"},{"id":65845,"name":"Zhezkent","stateId":154,"stateCode":"VOS","stateName":"East Kazakhstan Region","countryId":112,"countryCode":"KZ","countryName":"Kazakhstan","latitude":"50.93112000","longitude":"81.36150000","wikiDataId":"Q2231416"},{"id":65850,"name":"Zyryanovsk","stateId":154,"stateCode":"VOS","stateName":"East Kazakhstan Region","countryId":112,"countryCode":"KZ","countryName":"Kazakhstan","latitude":"49.72654000","longitude":"84.27318000","wikiDataId":"Q2139924"}]