[{"id":772,"name":"Clorinda","stateId":3652,"stateCode":"P","stateName":"Formosa","countryId":11,"countryCode":"AR","countryName":"Argentina","latitude":"-25.28481000","longitude":"-57.71851000","wikiDataId":"Q106063"},{"id":785,"name":"Comandante Fontana","stateId":3652,"stateCode":"P","stateName":"Formosa","countryId":11,"countryCode":"AR","countryName":"Argentina","latitude":"-25.33453000","longitude":"-59.68212000","wikiDataId":"Q106069"},{"id":958,"name":"Departamento de Pilcomayo","stateId":3652,"stateCode":"P","stateName":"Formosa","countryId":11,"countryCode":"AR","countryName":"Argentina","latitude":"-25.50000000","longitude":"-58.08333000","wikiDataId":"Q1190958"},{"id":1053,"name":"El Colorado","stateId":3652,"stateCode":"P","stateName":"Formosa","countryId":11,"countryCode":"AR","countryName":"Argentina","latitude":"-26.30808000","longitude":"-59.37291000","wikiDataId":"Q994889"},{"id":1072,"name":"Estanislao del Campo","stateId":3652,"stateCode":"P","stateName":"Formosa","countryId":11,"countryCode":"AR","countryName":"Argentina","latitude":"-25.05504000","longitude":"-60.09218000","wikiDataId":"Q8843108"},{"id":1082,"name":"Formosa","stateId":3652,"stateCode":"P","stateName":"Formosa","countryId":11,"countryCode":"AR","countryName":"Argentina","latitude":"-26.18489000","longitude":"-58.17313000","wikiDataId":"Q44214"},{"id":1102,"name":"General Enrique Mosconi","stateId":3652,"stateCode":"P","stateName":"Formosa","countryId":11,"countryCode":"AR","countryName":"Argentina","latitude":"-23.21667000","longitude":"-62.30000000","wikiDataId":"Q2132246"},{"id":1138,"name":"Herradura","stateId":3652,"stateCode":"P","stateName":"Formosa","countryId":11,"countryCode":"AR","countryName":"Argentina","latitude":"-26.48705000","longitude":"-58.31198000","wikiDataId":"Q3197888"},{"id":1148,"name":"Ibarreta","stateId":3652,"stateCode":"P","stateName":"Formosa","countryId":11,"countryCode":"AR","countryName":"Argentina","latitude":"-25.21438000","longitude":"-59.85851000","wikiDataId":"Q5983760"},{"id":1151,"name":"Ingeniero Guillermo N. Juárez","stateId":3652,"stateCode":"P","stateName":"Formosa","countryId":11,"countryCode":"AR","countryName":"Argentina","latitude":"-23.90000000","longitude":"-61.85000000","wikiDataId":"Q106075"},{"id":1209,"name":"Laguna Naick-Neck","stateId":3652,"stateCode":"P","stateName":"Formosa","countryId":11,"countryCode":"AR","countryName":"Argentina","latitude":"-25.24769000","longitude":"-58.09383000","wikiDataId":"Q21826826"},{"id":1211,"name":"Laguna Yema","stateId":3652,"stateCode":"P","stateName":"Formosa","countryId":11,"countryCode":"AR","countryName":"Argentina","latitude":"-24.25391000","longitude":"-61.24466000","wikiDataId":"Q1016035"},{"id":1225,"name":"Las Lomitas","stateId":3652,"stateCode":"P","stateName":"Formosa","countryId":11,"countryCode":"AR","countryName":"Argentina","latitude":"-24.70955000","longitude":"-60.59303000","wikiDataId":"Q6492291"},{"id":1312,"name":"Palo Santo","stateId":3652,"stateCode":"P","stateName":"Formosa","countryId":11,"countryCode":"AR","countryName":"Argentina","latitude":"-25.56332000","longitude":"-59.33781000","wikiDataId":"Q9054861"},{"id":1336,"name":"Pirané","stateId":3652,"stateCode":"P","stateName":"Formosa","countryId":11,"countryCode":"AR","countryName":"Argentina","latitude":"-25.73239000","longitude":"-59.10879000","wikiDataId":"Q2031369"},{"id":1344,"name":"Pozo del Tigre","stateId":3652,"stateCode":"P","stateName":"Formosa","countryId":11,"countryCode":"AR","countryName":"Argentina","latitude":"-24.89682000","longitude":"-60.32359000","wikiDataId":"Q937642"},{"id":1381,"name":"Riacho Eh-Eh","stateId":3652,"stateCode":"P","stateName":"Formosa","countryId":11,"countryCode":"AR","countryName":"Argentina","latitude":"-25.36209000","longitude":"-58.27750000","wikiDataId":"Q21827591"},{"id":1423,"name":"San Francisco de Laishí","stateId":3652,"stateCode":"P","stateName":"Formosa","countryId":11,"countryCode":"AR","countryName":"Argentina","latitude":"-26.24262000","longitude":"-58.63039000","wikiDataId":"Q994886"},{"id":1551,"name":"Villa Escolar","stateId":3652,"stateCode":"P","stateName":"Formosa","countryId":11,"countryCode":"AR","countryName":"Argentina","latitude":"-26.62209000","longitude":"-58.67134000","wikiDataId":"Q5854222"},{"id":1553,"name":"Villa General Guemes","stateId":3652,"stateCode":"P","stateName":"Formosa","countryId":11,"countryCode":"AR","countryName":"Argentina","latitude":"-24.75530000","longitude":"-59.48940000","wikiDataId":"Q1013424"}]