[{"id":104704,"name":"Dakar","stateId":473,"stateCode":"DK","stateName":"Dakar","countryId":195,"countryCode":"SN","countryName":"Senegal","latitude":"14.69370000","longitude":"-17.44406000","wikiDataId":"Q3718"},{"id":104705,"name":"Dakar Department","stateId":473,"stateCode":"DK","stateName":"Dakar","countryId":195,"countryCode":"SN","countryName":"Senegal","latitude":"14.71403000","longitude":"-17.45534000","wikiDataId":"Q2066372"},{"id":104716,"name":"Guédiawaye Department","stateId":473,"stateCode":"DK","stateName":"Dakar","countryId":195,"countryCode":"SN","countryName":"Senegal","latitude":"14.77610000","longitude":"-17.39560000","wikiDataId":"Q957409"},{"id":104737,"name":"Mermoz Boabab","stateId":473,"stateCode":"DK","stateName":"Dakar","countryId":195,"countryCode":"SN","countryName":"Senegal","latitude":"14.70649000","longitude":"-17.47581000","wikiDataId":"Q2086960"},{"id":104744,"name":"N’diareme limamoulaye","stateId":473,"stateCode":"DK","stateName":"Dakar","countryId":195,"countryCode":"SN","countryName":"Senegal","latitude":"14.78148000","longitude":"-17.38410000","wikiDataId":"Q3090358"},{"id":104748,"name":"Pikine","stateId":473,"stateCode":"DK","stateName":"Dakar","countryId":195,"countryCode":"SN","countryName":"Senegal","latitude":"14.76457000","longitude":"-17.39071000","wikiDataId":"Q1273644"},{"id":104749,"name":"Pikine Department","stateId":473,"stateCode":"DK","stateName":"Dakar","countryId":195,"countryCode":"SN","countryName":"Senegal","latitude":"14.76515000","longitude":"-17.35198000","wikiDataId":"Q255486"},{"id":104756,"name":"Rufisque Department","stateId":473,"stateCode":"DK","stateName":"Dakar","countryId":195,"countryCode":"SN","countryName":"Senegal","latitude":"14.74339000","longitude":"-17.19841000","wikiDataId":"Q2067770"},{"id":104734,"name":"Mbacké","stateId":480,"stateCode":"DB","stateName":"Diourbel Region","countryId":195,"countryCode":"SN","countryName":"Senegal","latitude":"14.80828000","longitude":"-15.86454000","wikiDataId":"Q2068182"},{"id":104735,"name":"Mbaké","stateId":480,"stateCode":"DB","stateName":"Diourbel Region","countryId":195,"countryCode":"SN","countryName":"Senegal","latitude":"14.79032000","longitude":"-15.90803000","wikiDataId":"Q965360"},{"id":104769,"name":"Tiébo","stateId":480,"stateCode":"DB","stateName":"Diourbel Region","countryId":195,"countryCode":"SN","countryName":"Senegal","latitude":"14.63333000","longitude":"-16.23333000","wikiDataId":"Q2087361"},{"id":104770,"name":"Touba","stateId":480,"stateCode":"DB","stateName":"Diourbel Region","countryId":195,"countryCode":"SN","countryName":"Senegal","latitude":"14.85000000","longitude":"-15.88333000","wikiDataId":"Q657072"},{"id":104708,"name":"Diofior","stateId":479,"stateCode":"FK","stateName":"Fatick","countryId":195,"countryCode":"SN","countryName":"Senegal","latitude":"14.18333000","longitude":"-16.66667000","wikiDataId":"Q685330"},{"id":104710,"name":"Fatick Department","stateId":479,"stateCode":"FK","stateName":"Fatick","countryId":195,"countryCode":"SN","countryName":"Senegal","latitude":"14.25909000","longitude":"-16.49884000","wikiDataId":"Q2068250"},{"id":104711,"name":"Foundiougne","stateId":479,"stateCode":"FK","stateName":"Fatick","countryId":195,"countryCode":"SN","countryName":"Senegal","latitude":"14.13333000","longitude":"-16.46667000","wikiDataId":"Q3079946"},{"id":104715,"name":"Guinguinéo","stateId":479,"stateCode":"FK","stateName":"Fatick","countryId":195,"countryCode":"SN","countryName":"Senegal","latitude":"14.26667000","longitude":"-15.95000000","wikiDataId":"Q3100518"},{"id":104747,"name":"Passi","stateId":479,"stateCode":"FK","stateName":"Fatick","countryId":195,"countryCode":"SN","countryName":"Senegal","latitude":"13.98333000","longitude":"-16.26667000","wikiDataId":"Q3368418"},{"id":104751,"name":"Pourham","stateId":479,"stateCode":"FK","stateName":"Fatick","countryId":195,"countryCode":"SN","countryName":"Senegal","latitude":"14.35000000","longitude":"-16.41667000","wikiDataId":"Q255486"},{"id":104759,"name":"Sokone","stateId":479,"stateCode":"FK","stateName":"Fatick","countryId":195,"countryCode":"SN","countryName":"Senegal","latitude":"13.88333000","longitude":"-16.36667000","wikiDataId":"Q3489051"},{"id":104719,"name":"Kaffrine","stateId":475,"stateCode":"KA","stateName":"Kaffrine","countryId":195,"countryCode":"SN","countryName":"Senegal","latitude":"14.10594000","longitude":"-15.55080000","wikiDataId":"Q2623649"},{"id":104726,"name":"Koungheul","stateId":475,"stateCode":"KA","stateName":"Kaffrine","countryId":195,"countryCode":"SN","countryName":"Senegal","latitude":"13.98333000","longitude":"-14.80000000","wikiDataId":"Q3100527"},{"id":104712,"name":"Gandiaye","stateId":483,"stateCode":"KL","stateName":"Kaolack","countryId":195,"countryCode":"SN","countryName":"Senegal","latitude":"14.23333000","longitude":"-16.26667000","wikiDataId":"Q3095100"},{"id":104721,"name":"Kaolack","stateId":483,"stateCode":"KL","stateName":"Kaolack","countryId":195,"countryCode":"SN","countryName":"Senegal","latitude":"14.15197000","longitude":"-16.07259000","wikiDataId":"Q847677"},{"id":104741,"name":"Ndofane","stateId":483,"stateCode":"KL","stateName":"Kaolack","countryId":195,"countryCode":"SN","countryName":"Senegal","latitude":"13.91667000","longitude":"-15.93333000","wikiDataId":"Q3337496"},{"id":104743,"name":"Nioro du Rip","stateId":483,"stateCode":"KL","stateName":"Kaolack","countryId":195,"countryCode":"SN","countryName":"Senegal","latitude":"13.75000000","longitude":"-15.80000000","wikiDataId":"Q3090358"},{"id":104709,"name":"Département de Salémata","stateId":481,"stateCode":"KE","stateName":"Kédougou","countryId":195,"countryCode":"SN","countryName":"Senegal","latitude":"12.59971000","longitude":"-12.77619000","wikiDataId":"Q2075446"},{"id":104727,"name":"Kédougou","stateId":481,"stateCode":"KE","stateName":"Kédougou","countryId":195,"countryCode":"SN","countryName":"Senegal","latitude":"12.55561000","longitude":"-12.18076000","wikiDataId":"Q586498"},{"id":104728,"name":"Kédougou Department","stateId":481,"stateCode":"KE","stateName":"Kédougou","countryId":195,"countryCode":"SN","countryName":"Senegal","latitude":"12.81716000","longitude":"-12.17834000","wikiDataId":"Q2083190"},{"id":104758,"name":"Saraya","stateId":481,"stateCode":"KE","stateName":"Kédougou","countryId":195,"countryCode":"SN","countryName":"Senegal","latitude":"13.00150000","longitude":"-11.79627000","wikiDataId":"Q942594"},{"id":104724,"name":"Kolda","stateId":474,"stateCode":"KD","stateName":"Kolda","countryId":195,"countryCode":"SN","countryName":"Senegal","latitude":"12.89390000","longitude":"-14.94125000","wikiDataId":"Q1011890"},{"id":104725,"name":"Kolda Department","stateId":474,"stateCode":"KD","stateName":"Kolda","countryId":195,"countryCode":"SN","countryName":"Senegal","latitude":"12.88300000","longitude":"-14.95000000","wikiDataId":"Q2084154"},{"id":104731,"name":"Marsassoum","stateId":474,"stateCode":"KD","stateName":"Kolda","countryId":195,"countryCode":"SN","countryName":"Senegal","latitude":"12.82750000","longitude":"-15.98056000","wikiDataId":"Q3294983"},{"id":104771,"name":"Vélingara","stateId":474,"stateCode":"KD","stateName":"Kolda","countryId":195,"countryCode":"SN","countryName":"Senegal","latitude":"13.15000000","longitude":"-14.11667000","wikiDataId":"Q1014390"},{"id":104706,"name":"Dara","stateId":485,"stateCode":"LG","stateName":"Louga","countryId":195,"countryCode":"SN","countryName":"Senegal","latitude":"15.34844000","longitude":"-15.47993000","wikiDataId":"Q3012013"},{"id":104717,"name":"Guéoul","stateId":485,"stateCode":"LG","stateName":"Louga","countryId":195,"countryCode":"SN","countryName":"Senegal","latitude":"15.48333000","longitude":"-16.35000000","wikiDataId":"Q3122437"},{"id":104729,"name":"Linguere Department","stateId":485,"stateCode":"LG","stateName":"Louga","countryId":195,"countryCode":"SN","countryName":"Senegal","latitude":"15.35900000","longitude":"-15.15800000","wikiDataId":"Q2084742"},{"id":104730,"name":"Louga","stateId":485,"stateCode":"LG","stateName":"Louga","countryId":195,"countryCode":"SN","countryName":"Senegal","latitude":"15.61867000","longitude":"-16.22436000","wikiDataId":"Q280243"},{"id":104739,"name":"Ndibène Dahra","stateId":485,"stateCode":"LG","stateName":"Louga","countryId":195,"countryCode":"SN","countryName":"Senegal","latitude":"15.33380000","longitude":"-15.47660000","wikiDataId":"Q2981190"},{"id":104707,"name":"Diawara","stateId":476,"stateCode":"MT","stateName":"Matam","countryId":195,"countryCode":"SN","countryName":"Senegal","latitude":"15.02196000","longitude":"-12.54374000","wikiDataId":"Q3026446"},{"id":104720,"name":"Kanel","stateId":476,"stateCode":"MT","stateName":"Matam","countryId":195,"countryCode":"SN","countryName":"Senegal","latitude":"15.49160000","longitude":"-13.17627000","wikiDataId":"Q3192625"},{"id":104732,"name":"Matam","stateId":476,"stateCode":"MT","stateName":"Matam","countryId":195,"countryCode":"SN","countryName":"Senegal","latitude":"15.65587000","longitude":"-13.25544000","wikiDataId":"Q1151582"},{"id":104733,"name":"Matam Department","stateId":476,"stateCode":"MT","stateName":"Matam","countryId":195,"countryCode":"SN","countryName":"Senegal","latitude":"15.73191000","longitude":"-13.63393000","wikiDataId":"Q2085162"},{"id":104745,"name":"Ouro Sogui","stateId":476,"stateCode":"MT","stateName":"Matam","countryId":195,"countryCode":"SN","countryName":"Senegal","latitude":"15.60588000","longitude":"-13.32230000","wikiDataId":"Q2472697"},{"id":104753,"name":"Ranérou","stateId":476,"stateCode":"MT","stateName":"Matam","countryId":195,"countryCode":"SN","countryName":"Senegal","latitude":"15.30000000","longitude":"-13.96667000","wikiDataId":"Q3400742"},{"id":104761,"name":"Sémé","stateId":476,"stateCode":"MT","stateName":"Matam","countryId":195,"countryCode":"SN","countryName":"Senegal","latitude":"15.19422000","longitude":"-12.94482000","wikiDataId":"Q671704"},{"id":104772,"name":"Waoundé","stateId":476,"stateCode":"MT","stateName":"Matam","countryId":195,"countryCode":"SN","countryName":"Senegal","latitude":"15.26367000","longitude":"-12.86821000","wikiDataId":"Q1014390"},{"id":104713,"name":"Goléré","stateId":477,"stateCode":"SL","stateName":"Saint-Louis","countryId":195,"countryCode":"SN","countryName":"Senegal","latitude":"16.25575000","longitude":"-14.10165000","wikiDataId":"Q3095100"},{"id":104740,"name":"Ndioum","stateId":477,"stateCode":"SL","stateName":"Saint-Louis","countryId":195,"countryCode":"SN","countryName":"Senegal","latitude":"16.51293000","longitude":"-14.64706000","wikiDataId":"Q3337485"},{"id":104750,"name":"Polel Diaoubé","stateId":477,"stateCode":"SL","stateName":"Saint-Louis","countryId":195,"countryCode":"SN","countryName":"Senegal","latitude":"15.26667000","longitude":"-13.00000000","wikiDataId":"Q255486"},{"id":104754,"name":"Richard-Toll","stateId":477,"stateCode":"SL","stateName":"Saint-Louis","countryId":195,"countryCode":"SN","countryName":"Senegal","latitude":"16.46250000","longitude":"-15.70083000","wikiDataId":"Q1153061"},{"id":104755,"name":"Rosso","stateId":477,"stateCode":"SL","stateName":"Saint-Louis","countryId":195,"countryCode":"SN","countryName":"Senegal","latitude":"16.42028000","longitude":"-15.79834000","wikiDataId":"Q1153061"},{"id":104757,"name":"Saint-Louis","stateId":477,"stateCode":"SL","stateName":"Saint-Louis","countryId":195,"countryCode":"SN","countryName":"Senegal","latitude":"16.01793000","longitude":"-16.48962000","wikiDataId":"Q273779"},{"id":104714,"name":"Goudomp Department","stateId":482,"stateCode":"SE","stateName":"Sédhiou","countryId":195,"countryCode":"SN","countryName":"Senegal","latitude":"12.57778000","longitude":"-15.87222000","wikiDataId":"Q2066279"},{"id":104760,"name":"Sédhiou","stateId":482,"stateCode":"SE","stateName":"Sédhiou","countryId":195,"countryCode":"SN","countryName":"Senegal","latitude":"12.70806000","longitude":"-15.55694000","wikiDataId":"Q671704"},{"id":104762,"name":"Tambacounda","stateId":486,"stateCode":"TC","stateName":"Tambacounda Region","countryId":195,"countryCode":"SN","countryName":"Senegal","latitude":"13.77073000","longitude":"-13.66734000","wikiDataId":"Q977305"},{"id":104763,"name":"Tambacounda Department","stateId":486,"stateCode":"TC","stateName":"Tambacounda Region","countryId":195,"countryCode":"SN","countryName":"Senegal","latitude":"13.60500000","longitude":"-13.64700000","wikiDataId":"Q2086236"},{"id":104718,"name":"Joal-Fadiout","stateId":484,"stateCode":"TH","stateName":"Thiès Region","countryId":195,"countryCode":"SN","countryName":"Senegal","latitude":"14.16667000","longitude":"-16.83333000","wikiDataId":"Q1340331"},{"id":104722,"name":"Kayar","stateId":484,"stateCode":"TH","stateName":"Thiès Region","countryId":195,"countryCode":"SN","countryName":"Senegal","latitude":"14.91893000","longitude":"-17.11978000","wikiDataId":"Q847677"},{"id":104723,"name":"Khombole","stateId":484,"stateCode":"TH","stateName":"Thiès Region","countryId":195,"countryCode":"SN","countryName":"Senegal","latitude":"14.76667000","longitude":"-16.70000000","wikiDataId":"Q2277705"},{"id":104736,"name":"Mbour","stateId":484,"stateCode":"TH","stateName":"Thiès Region","countryId":195,"countryCode":"SN","countryName":"Senegal","latitude":"14.40569000","longitude":"-16.85559000","wikiDataId":"Q2086960"},{"id":104738,"name":"Mékhé","stateId":484,"stateCode":"TH","stateName":"Thiès Region","countryId":195,"countryCode":"SN","countryName":"Senegal","latitude":"15.10970000","longitude":"-16.62180000","wikiDataId":"Q2981190"},{"id":104742,"name":"Nguékhokh","stateId":484,"stateCode":"TH","stateName":"Thiès Region","countryId":195,"countryCode":"SN","countryName":"Senegal","latitude":"14.51255000","longitude":"-17.00447000","wikiDataId":"Q3339368"},{"id":104752,"name":"Pout","stateId":484,"stateCode":"TH","stateName":"Thiès Region","countryId":195,"countryCode":"SN","countryName":"Senegal","latitude":"14.77099000","longitude":"-17.06107000","wikiDataId":"Q3400742"},{"id":104764,"name":"Thiès","stateId":484,"stateCode":"TH","stateName":"Thiès Region","countryId":195,"countryCode":"SN","countryName":"Senegal","latitude":"14.73004000","longitude":"-16.86974000","wikiDataId":"Q2087146"},{"id":104765,"name":"Thiès Nones","stateId":484,"stateCode":"TH","stateName":"Thiès Region","countryId":195,"countryCode":"SN","countryName":"Senegal","latitude":"14.78333000","longitude":"-16.96667000","wikiDataId":"Q2087146"},{"id":104766,"name":"Tiadiaye","stateId":484,"stateCode":"TH","stateName":"Thiès Region","countryId":195,"countryCode":"SN","countryName":"Senegal","latitude":"14.41667000","longitude":"-16.70000000","wikiDataId":"Q3523969"},{"id":104768,"name":"Tivaouane","stateId":484,"stateCode":"TH","stateName":"Thiès Region","countryId":195,"countryCode":"SN","countryName":"Senegal","latitude":"15.08519000","longitude":"-16.71058000","wikiDataId":"Q2087361"},{"id":104773,"name":"Warang","stateId":484,"stateCode":"TH","stateName":"Thiès Region","countryId":195,"countryCode":"SN","countryName":"Senegal","latitude":"14.37349000","longitude":"-16.94366000","wikiDataId":"Q1014390"},{"id":104702,"name":"Adéane","stateId":478,"stateCode":"ZG","stateName":"Ziguinchor","countryId":195,"countryCode":"SN","countryName":"Senegal","latitude":"12.63000000","longitude":"-16.01694000","wikiDataId":"Q2825448"},{"id":104703,"name":"Bignona","stateId":478,"stateCode":"ZG","stateName":"Ziguinchor","countryId":195,"countryCode":"SN","countryName":"Senegal","latitude":"12.81028000","longitude":"-16.22639000","wikiDataId":"Q286563"},{"id":104746,"name":"Oussouye","stateId":478,"stateCode":"ZG","stateName":"Ziguinchor","countryId":195,"countryCode":"SN","countryName":"Senegal","latitude":"12.48500000","longitude":"-16.54694000","wikiDataId":"Q768591"},{"id":104767,"name":"Tionk Essil","stateId":478,"stateCode":"ZG","stateName":"Ziguinchor","countryId":195,"countryCode":"SN","countryName":"Senegal","latitude":"12.78556000","longitude":"-16.52167000","wikiDataId":"Q3523969"},{"id":104774,"name":"Ziguinchor","stateId":478,"stateCode":"ZG","stateName":"Ziguinchor","countryId":195,"countryCode":"SN","countryName":"Senegal","latitude":"12.56801000","longitude":"-16.27326000","wikiDataId":"Q202776"}]