[{"id":107182,"name":"Ardeşen","stateId":2219,"stateCode":"53","stateName":"Rize","countryId":225,"countryCode":"TR","countryName":"Turkey","latitude":"41.19111000","longitude":"40.98750000","wikiDataId":"Q638539"},{"id":153358,"name":"Çamlıhemşin","stateId":2219,"stateCode":"53","stateName":"Rize","countryId":225,"countryCode":"TR","countryName":"Turkey","latitude":"41.04593800","longitude":"41.00527500","wikiDataId":"Q2670821"},{"id":108800,"name":"Çayeli","stateId":2219,"stateCode":"53","stateName":"Rize","countryId":225,"countryCode":"TR","countryName":"Turkey","latitude":"41.08941000","longitude":"40.73696000","wikiDataId":"Q2248873"},{"id":153359,"name":"Derepazarı","stateId":2219,"stateCode":"53","stateName":"Rize","countryId":225,"countryCode":"TR","countryName":"Turkey","latitude":"41.02472200","longitude":"40.42555600","wikiDataId":"Q2670684"},{"id":107644,"name":"Fındıklı","stateId":2219,"stateCode":"53","stateName":"Rize","countryId":225,"countryCode":"TR","countryName":"Turkey","latitude":"41.27110000","longitude":"41.14449000","wikiDataId":"Q1921294"},{"id":107743,"name":"Güneysu","stateId":2219,"stateCode":"53","stateName":"Rize","countryId":225,"countryCode":"TR","countryName":"Turkey","latitude":"40.98130000","longitude":"40.60465000","wikiDataId":"Q2671034"},{"id":107821,"name":"Hemşin","stateId":2219,"stateCode":"53","stateName":"Rize","countryId":225,"countryCode":"TR","countryName":"Turkey","latitude":"41.05922000","longitude":"40.90140000","wikiDataId":"Q1025138"},{"id":108889,"name":"İkizdere","stateId":2219,"stateCode":"53","stateName":"Rize","countryId":225,"countryCode":"TR","countryName":"Turkey","latitude":"40.77713000","longitude":"40.56076000","wikiDataId":"Q2670748"},{"id":108922,"name":"İyidere","stateId":2219,"stateCode":"53","stateName":"Rize","countryId":225,"countryCode":"TR","countryName":"Turkey","latitude":"41.00905000","longitude":"40.37776000","wikiDataId":"Q2598753"},{"id":107877,"name":"Kalkandere","stateId":2219,"stateCode":"53","stateName":"Rize","countryId":225,"countryCode":"TR","countryName":"Turkey","latitude":"40.92143000","longitude":"40.43999000","wikiDataId":"Q2670776"},{"id":108371,"name":"Merkez","stateId":2219,"stateCode":"53","stateName":"Rize","countryId":225,"countryCode":"TR","countryName":"Turkey","latitude":"41.02083000","longitude":"40.52194000","wikiDataId":"Q201101"},{"id":108321,"name":"Pazar","stateId":2219,"stateCode":"53","stateName":"Rize","countryId":225,"countryCode":"TR","countryName":"Turkey","latitude":"41.17917000","longitude":"40.88417000","wikiDataId":"Q1920516"}]