[{"id":131330,"name":"Chama","stateId":1989,"stateCode":"10","stateName":"Muchinga Province","countryId":246,"countryCode":"ZM","countryName":"Zambia","latitude":"-11.21303000","longitude":"33.15210000","wikiDataId":"Q1060403"},{"id":131337,"name":"Chinsali","stateId":1989,"stateCode":"10","stateName":"Muchinga Province","countryId":246,"countryCode":"ZM","countryName":"Zambia","latitude":"-10.54142000","longitude":"32.08162000","wikiDataId":"Q1074444"},{"id":131342,"name":"Isoka","stateId":1989,"stateCode":"10","stateName":"Muchinga Province","countryId":246,"countryCode":"ZM","countryName":"Zambia","latitude":"-10.16062000","longitude":"32.63353000","wikiDataId":"Q1674448"},{"id":131374,"name":"Mpika","stateId":1989,"stateCode":"10","stateName":"Muchinga Province","countryId":246,"countryCode":"ZM","countryName":"Zambia","latitude":"-11.83431000","longitude":"31.45287000","wikiDataId":"Q1004510"},{"id":131385,"name":"Nakonde","stateId":1989,"stateCode":"10","stateName":"Muchinga Province","countryId":246,"countryCode":"ZM","countryName":"Zambia","latitude":"-9.34213000","longitude":"32.74500000","wikiDataId":"Q31966657"}]