[{"id":22011,"name":"Acherítou","stateId":749,"stateCode":"04","stateName":"Famagusta District (Mağusa)","countryId":57,"countryCode":"CY","countryName":"Cyprus","latitude":"35.10022000","longitude":"33.86155000","wikiDataId":"Q489776"},{"id":22102,"name":"Áchna","stateId":749,"stateCode":"04","stateName":"Famagusta District (Mağusa)","countryId":57,"countryCode":"CY","countryName":"Cyprus","latitude":"35.05515000","longitude":"33.78388000","wikiDataId":"Q81490"},{"id":22014,"name":"Ammochostos Municipality","stateId":749,"stateCode":"04","stateName":"Famagusta District (Mağusa)","countryId":57,"countryCode":"CY","countryName":"Cyprus","latitude":"35.11755000","longitude":"33.94335000","wikiDataId":"Q56118759"},{"id":22020,"name":"Avgórou","stateId":749,"stateCode":"04","stateName":"Famagusta District (Mağusa)","countryId":57,"countryCode":"CY","countryName":"Cyprus","latitude":"35.03615000","longitude":"33.83918000","wikiDataId":"Q3560533"},{"id":22021,"name":"Ayia Napa","stateId":749,"stateCode":"04","stateName":"Famagusta District (Mağusa)","countryId":57,"countryCode":"CY","countryName":"Cyprus","latitude":"34.98213000","longitude":"34.00183000","wikiDataId":"Q393593"},{"id":22023,"name":"Derýneia","stateId":749,"stateCode":"04","stateName":"Famagusta District (Mağusa)","countryId":57,"countryCode":"CY","countryName":"Cyprus","latitude":"35.06484000","longitude":"33.96083000","wikiDataId":"Q777760"},{"id":22029,"name":"Famagusta","stateId":749,"stateCode":"04","stateName":"Famagusta District (Mağusa)","countryId":57,"countryCode":"CY","countryName":"Cyprus","latitude":"35.12054000","longitude":"33.93894000","wikiDataId":"Q193190"},{"id":22030,"name":"Frénaros","stateId":749,"stateCode":"04","stateName":"Famagusta District (Mağusa)","countryId":57,"countryCode":"CY","countryName":"Cyprus","latitude":"35.04121000","longitude":"33.92242000","wikiDataId":"Q1455222"},{"id":22052,"name":"Lefkónoiko","stateId":749,"stateCode":"04","stateName":"Famagusta District (Mağusa)","countryId":57,"countryCode":"CY","countryName":"Cyprus","latitude":"35.25980000","longitude":"33.73189000","wikiDataId":"Q171882"},{"id":22054,"name":"Leonárisso","stateId":749,"stateCode":"04","stateName":"Famagusta District (Mağusa)","countryId":57,"countryCode":"CY","countryName":"Cyprus","latitude":"35.46892000","longitude":"34.13886000","wikiDataId":"Q28870916"},{"id":22056,"name":"Liopétri","stateId":749,"stateCode":"04","stateName":"Famagusta District (Mağusa)","countryId":57,"countryCode":"CY","countryName":"Cyprus","latitude":"35.00885000","longitude":"33.89256000","wikiDataId":"Q546060"},{"id":22072,"name":"Paralímni","stateId":749,"stateCode":"04","stateName":"Famagusta District (Mağusa)","countryId":57,"countryCode":"CY","countryName":"Cyprus","latitude":"35.03945000","longitude":"33.98181000","wikiDataId":"Q954174"},{"id":22078,"name":"Protaras","stateId":749,"stateCode":"04","stateName":"Famagusta District (Mağusa)","countryId":57,"countryCode":"CY","countryName":"Cyprus","latitude":"35.01250000","longitude":"34.05833000","wikiDataId":"Q2113430"},{"id":22090,"name":"Rizokárpaso","stateId":749,"stateCode":"04","stateName":"Famagusta District (Mağusa)","countryId":57,"countryCode":"CY","countryName":"Cyprus","latitude":"35.59719000","longitude":"34.37916000","wikiDataId":"Q1968566"},{"id":22095,"name":"Tríkomo","stateId":749,"stateCode":"04","stateName":"Famagusta District (Mağusa)","countryId":57,"countryCode":"CY","countryName":"Cyprus","latitude":"35.28628000","longitude":"33.89167000","wikiDataId":"Q7846552"}]