[{"id":85777,"name":"Adamówka","stateId":1626,"stateCode":"PK","stateName":"Podkarpackie Voivodeship","countryId":176,"countryCode":"PL","countryName":"Poland","latitude":"50.25857000","longitude":"22.69595000","wikiDataId":"Q2332206"},{"id":85778,"name":"Albigowa","stateId":1626,"stateCode":"PK","stateName":"Podkarpackie Voivodeship","countryId":176,"countryCode":"PL","countryName":"Poland","latitude":"50.01425000","longitude":"22.22414000","wikiDataId":"Q4712370"},{"id":85789,"name":"Babica","stateId":1626,"stateCode":"PK","stateName":"Podkarpackie Voivodeship","countryId":176,"countryCode":"PL","countryName":"Poland","latitude":"49.93476000","longitude":"21.87035000","wikiDataId":"Q4837848"},{"id":85796,"name":"Baligród","stateId":1626,"stateCode":"PK","stateName":"Podkarpackie Voivodeship","countryId":176,"countryCode":"PL","countryName":"Poland","latitude":"49.33090000","longitude":"22.28566000","wikiDataId":"Q3496277"},{"id":85806,"name":"Baranów Sandomierski","stateId":1626,"stateCode":"PK","stateName":"Podkarpackie Voivodeship","countryId":176,"countryCode":"PL","countryName":"Poland","latitude":"50.49912000","longitude":"21.54204000","wikiDataId":"Q1837259"},{"id":85825,"name":"Besko","stateId":1626,"stateCode":"PK","stateName":"Podkarpackie Voivodeship","countryId":176,"countryCode":"PL","countryName":"Poland","latitude":"49.58757000","longitude":"21.95292000","wikiDataId":"Q1999113"},{"id":85842,"name":"Białobrzegi","stateId":1626,"stateCode":"PK","stateName":"Podkarpackie Voivodeship","countryId":176,"countryCode":"PL","countryName":"Poland","latitude":"50.10252000","longitude":"22.31907000","wikiDataId":"Q2496435"},{"id":85857,"name":"Bieliny","stateId":1626,"stateCode":"PK","stateName":"Podkarpackie Voivodeship","countryId":176,"countryCode":"PL","countryName":"Poland","latitude":"50.44237000","longitude":"22.30482000","wikiDataId":"Q4904489"},{"id":85872,"name":"Bircza","stateId":1626,"stateCode":"PK","stateName":"Podkarpackie Voivodeship","countryId":176,"countryCode":"PL","countryName":"Poland","latitude":"49.69173000","longitude":"22.47854000","wikiDataId":"Q2481888"},{"id":85882,"name":"Blizne","stateId":1626,"stateCode":"PK","stateName":"Podkarpackie Voivodeship","countryId":176,"countryCode":"PL","countryName":"Poland","latitude":"49.75332000","longitude":"21.97351000","wikiDataId":"Q4927002"},{"id":86015,"name":"Błażowa","stateId":1626,"stateCode":"PK","stateName":"Podkarpackie Voivodeship","countryId":176,"countryCode":"PL","countryName":"Poland","latitude":"49.88521000","longitude":"22.10037000","wikiDataId":"Q122758"},{"id":85898,"name":"Boguchwała","stateId":1626,"stateCode":"PK","stateName":"Podkarpackie Voivodeship","countryId":176,"countryCode":"PL","countryName":"Poland","latitude":"49.98473000","longitude":"21.94528000","wikiDataId":"Q890681"},{"id":85905,"name":"Bojanów","stateId":1626,"stateCode":"PK","stateName":"Podkarpackie Voivodeship","countryId":176,"countryCode":"PL","countryName":"Poland","latitude":"50.42531000","longitude":"21.95111000","wikiDataId":"Q2174309"},{"id":85924,"name":"Borowa","stateId":1626,"stateCode":"PK","stateName":"Podkarpackie Voivodeship","countryId":176,"countryCode":"PL","countryName":"Poland","latitude":"50.38548000","longitude":"21.35150000","wikiDataId":"Q2061801"},{"id":85967,"name":"Brzeźnica","stateId":1626,"stateCode":"PK","stateName":"Podkarpackie Voivodeship","countryId":176,"countryCode":"PL","countryName":"Poland","latitude":"50.10065000","longitude":"21.48025000","wikiDataId":"Q4981461"},{"id":85970,"name":"Brzostek","stateId":1626,"stateCode":"PK","stateName":"Podkarpackie Voivodeship","countryId":176,"countryCode":"PL","countryName":"Poland","latitude":"49.87954000","longitude":"21.41102000","wikiDataId":"Q776418"},{"id":85975,"name":"Brzóza Królewska","stateId":1626,"stateCode":"PK","stateName":"Podkarpackie Voivodeship","countryId":176,"countryCode":"PL","countryName":"Poland","latitude":"50.23908000","longitude":"22.32559000","wikiDataId":"Q2207059"},{"id":85976,"name":"Brzóza Stadnicka","stateId":1626,"stateCode":"PK","stateName":"Podkarpackie Voivodeship","countryId":176,"countryCode":"PL","countryName":"Poland","latitude":"50.19965000","longitude":"22.28233000","wikiDataId":"Q2746617"},{"id":85972,"name":"Brzozów","stateId":1626,"stateCode":"PK","stateName":"Podkarpackie Voivodeship","countryId":176,"countryCode":"PL","countryName":"Poland","latitude":"49.69501000","longitude":"22.01926000","wikiDataId":"Q653797"},{"id":85974,"name":"Brzyska","stateId":1626,"stateCode":"PK","stateName":"Podkarpackie Voivodeship","countryId":176,"countryCode":"PL","countryName":"Poland","latitude":"49.82226000","longitude":"21.39004000","wikiDataId":"Q4981732"},{"id":85992,"name":"Bukowsko","stateId":1626,"stateCode":"PK","stateName":"Podkarpackie Voivodeship","countryId":176,"countryCode":"PL","countryName":"Poland","latitude":"49.48039000","longitude":"22.06329000","wikiDataId":"Q2664126"},{"id":86035,"name":"Chmielnik","stateId":1626,"stateCode":"PK","stateName":"Podkarpackie Voivodeship","countryId":176,"countryCode":"PL","countryName":"Poland","latitude":"49.97386000","longitude":"22.14535000","wikiDataId":"Q1865439"},{"id":86051,"name":"Chorkówka","stateId":1626,"stateCode":"PK","stateName":"Podkarpackie Voivodeship","countryId":176,"countryCode":"PL","countryName":"Poland","latitude":"49.64668000","longitude":"21.67156000","wikiDataId":"Q2804753"},{"id":86068,"name":"Chwałowice","stateId":1626,"stateCode":"PK","stateName":"Podkarpackie Voivodeship","countryId":176,"countryCode":"PL","countryName":"Poland","latitude":"50.76665000","longitude":"21.88683000","wikiDataId":"Q5118490"},{"id":86086,"name":"Cieszanów","stateId":1626,"stateCode":"PK","stateName":"Podkarpackie Voivodeship","countryId":176,"countryCode":"PL","countryName":"Poland","latitude":"50.24564000","longitude":"23.13163000","wikiDataId":"Q653855"},{"id":86091,"name":"Cisna","stateId":1626,"stateCode":"PK","stateName":"Podkarpackie Voivodeship","countryId":176,"countryCode":"PL","countryName":"Poland","latitude":"49.21328000","longitude":"22.32795000","wikiDataId":"Q2402303"},{"id":86095,"name":"Cmolas","stateId":1626,"stateCode":"PK","stateName":"Podkarpackie Voivodeship","countryId":176,"countryCode":"PL","countryName":"Poland","latitude":"50.29526000","longitude":"21.74417000","wikiDataId":"Q5137322"},{"id":86104,"name":"Czarna","stateId":1626,"stateCode":"PK","stateName":"Podkarpackie Voivodeship","countryId":176,"countryCode":"PL","countryName":"Poland","latitude":"50.06717000","longitude":"21.25614000","wikiDataId":"Q3009567"},{"id":86120,"name":"Czaszyn","stateId":1626,"stateCode":"PK","stateName":"Podkarpackie Voivodeship","countryId":176,"countryCode":"PL","countryName":"Poland","latitude":"49.44854000","longitude":"22.21650000","wikiDataId":"Q1928935"},{"id":86127,"name":"Czermin","stateId":1626,"stateCode":"PK","stateName":"Podkarpackie Voivodeship","countryId":176,"countryCode":"PL","countryName":"Poland","latitude":"50.33911000","longitude":"21.33356000","wikiDataId":"Q34798995"},{"id":86146,"name":"Czudec","stateId":1626,"stateCode":"PK","stateName":"Podkarpackie Voivodeship","countryId":176,"countryCode":"PL","countryName":"Poland","latitude":"49.94487000","longitude":"21.84134000","wikiDataId":"Q2124583"},{"id":86247,"name":"Dębica","stateId":1626,"stateCode":"PK","stateName":"Podkarpackie Voivodeship","countryId":176,"countryCode":"PL","countryName":"Poland","latitude":"50.05146000","longitude":"21.41141000","wikiDataId":"Q947404"},{"id":86250,"name":"Dębno","stateId":1626,"stateCode":"PK","stateName":"Podkarpackie Voivodeship","countryId":176,"countryCode":"PL","countryName":"Poland","latitude":"50.19811000","longitude":"22.51837000","wikiDataId":"Q5321015"},{"id":86257,"name":"Dębów","stateId":1626,"stateCode":"PK","stateName":"Podkarpackie Voivodeship","countryId":176,"countryCode":"PL","countryName":"Poland","latitude":"50.04490000","longitude":"22.43614000","wikiDataId":"Q4352602"},{"id":86255,"name":"Dębowiec","stateId":1626,"stateCode":"PK","stateName":"Podkarpackie Voivodeship","countryId":176,"countryCode":"PL","countryName":"Poland","latitude":"49.68374000","longitude":"21.46068000","wikiDataId":"Q2214289"},{"id":86258,"name":"Długie","stateId":1626,"stateCode":"PK","stateName":"Podkarpackie Voivodeship","countryId":176,"countryCode":"PL","countryName":"Poland","latitude":"49.57866000","longitude":"22.04338000","wikiDataId":"Q454902"},{"id":86185,"name":"Domaradz","stateId":1626,"stateCode":"PK","stateName":"Podkarpackie Voivodeship","countryId":176,"countryCode":"PL","countryName":"Poland","latitude":"49.78675000","longitude":"21.94571000","wikiDataId":"Q2461567"},{"id":86204,"name":"Dubiecko","stateId":1626,"stateCode":"PK","stateName":"Podkarpackie Voivodeship","countryId":176,"countryCode":"PL","countryName":"Poland","latitude":"49.82608000","longitude":"22.39117000","wikiDataId":"Q2612477"},{"id":86207,"name":"Dukla","stateId":1626,"stateCode":"PK","stateName":"Podkarpackie Voivodeship","countryId":176,"countryCode":"PL","countryName":"Poland","latitude":"49.55554000","longitude":"21.68317000","wikiDataId":"Q336386"},{"id":86211,"name":"Dydnia","stateId":1626,"stateCode":"PK","stateName":"Podkarpackie Voivodeship","countryId":176,"countryCode":"PL","countryName":"Poland","latitude":"49.68640000","longitude":"22.17196000","wikiDataId":"Q2019720"},{"id":86213,"name":"Dynów","stateId":1626,"stateCode":"PK","stateName":"Podkarpackie Voivodeship","countryId":176,"countryCode":"PL","countryName":"Poland","latitude":"49.81506000","longitude":"22.23388000","wikiDataId":"Q910985"},{"id":86229,"name":"Dzików Stary","stateId":1626,"stateCode":"PK","stateName":"Podkarpackie Voivodeship","countryId":176,"countryCode":"PL","countryName":"Poland","latitude":"50.24699000","longitude":"22.92984000","wikiDataId":"Q2653684"},{"id":86228,"name":"Dzikowiec","stateId":1626,"stateCode":"PK","stateName":"Podkarpackie Voivodeship","countryId":176,"countryCode":"PL","countryName":"Poland","latitude":"50.27288000","longitude":"21.84365000","wikiDataId":"Q1269474"},{"id":86274,"name":"Fredropol","stateId":1626,"stateCode":"PK","stateName":"Podkarpackie Voivodeship","countryId":176,"countryCode":"PL","countryName":"Poland","latitude":"49.69578000","longitude":"22.74625000","wikiDataId":"Q5499581"},{"id":86279,"name":"Frysztak","stateId":1626,"stateCode":"PK","stateName":"Podkarpackie Voivodeship","countryId":176,"countryCode":"PL","countryName":"Poland","latitude":"49.84164000","longitude":"21.60942000","wikiDataId":"Q498777"},{"id":86289,"name":"Gać","stateId":1626,"stateCode":"PK","stateName":"Podkarpackie Voivodeship","countryId":176,"countryCode":"PL","countryName":"Poland","latitude":"50.02693000","longitude":"22.35898000","wikiDataId":"Q2328456"},{"id":86296,"name":"Giedlarowa","stateId":1626,"stateCode":"PK","stateName":"Podkarpackie Voivodeship","countryId":176,"countryCode":"PL","countryName":"Poland","latitude":"50.22689000","longitude":"22.40593000","wikiDataId":"Q5559762"},{"id":86428,"name":"Głogów Małopolski","stateId":1626,"stateCode":"PK","stateName":"Podkarpackie Voivodeship","countryId":176,"countryCode":"PL","countryName":"Poland","latitude":"50.15122000","longitude":"21.96287000","wikiDataId":"Q664113"},{"id":86433,"name":"Głuchów","stateId":1626,"stateCode":"PK","stateName":"Podkarpackie Voivodeship","countryId":176,"countryCode":"PL","countryName":"Poland","latitude":"50.08171000","longitude":"22.27135000","wikiDataId":"Q731057"},{"id":86324,"name":"Golcowa","stateId":1626,"stateCode":"PK","stateName":"Podkarpackie Voivodeship","countryId":176,"countryCode":"PL","countryName":"Poland","latitude":"49.77162000","longitude":"22.02501000","wikiDataId":"Q2236552"},{"id":86413,"name":"Górki","stateId":1626,"stateCode":"PK","stateName":"Podkarpackie Voivodeship","countryId":176,"countryCode":"PL","countryName":"Poland","latitude":"49.64385000","longitude":"22.04304000","wikiDataId":"Q5626211"},{"id":86335,"name":"Gorliczyna","stateId":1626,"stateCode":"PK","stateName":"Podkarpackie Voivodeship","countryId":176,"countryCode":"PL","countryName":"Poland","latitude":"50.09217000","longitude":"22.48764000","wikiDataId":"Q11701101"},{"id":86416,"name":"Górno","stateId":1626,"stateCode":"PK","stateName":"Podkarpackie Voivodeship","countryId":176,"countryCode":"PL","countryName":"Poland","latitude":"50.28243000","longitude":"22.14500000","wikiDataId":"Q663967"},{"id":86338,"name":"Gorzyce","stateId":1626,"stateCode":"PK","stateName":"Podkarpackie Voivodeship","countryId":176,"countryCode":"PL","countryName":"Poland","latitude":"50.12841000","longitude":"22.57926000","wikiDataId":"Q5587084"},{"id":86366,"name":"Grabownica Starzeńska","stateId":1626,"stateCode":"PK","stateName":"Podkarpackie Voivodeship","countryId":176,"countryCode":"PL","countryName":"Poland","latitude":"49.65896000","longitude":"22.07754000","wikiDataId":"Q2442681"},{"id":86403,"name":"Grębów","stateId":1626,"stateCode":"PK","stateName":"Podkarpackie Voivodeship","countryId":176,"countryCode":"PL","countryName":"Poland","latitude":"50.56536000","longitude":"21.87404000","wikiDataId":"Q2326461"},{"id":86377,"name":"Grodzisko Dolne","stateId":1626,"stateCode":"PK","stateName":"Podkarpackie Voivodeship","countryId":176,"countryCode":"PL","countryName":"Poland","latitude":"50.16238000","longitude":"22.46292000","wikiDataId":"Q2706336"},{"id":86378,"name":"Grodzisko Górne","stateId":1626,"stateCode":"PK","stateName":"Podkarpackie Voivodeship","countryId":176,"countryCode":"PL","countryName":"Poland","latitude":"50.18690000","longitude":"22.43786000","wikiDataId":"Q5610074"},{"id":86398,"name":"Grzęska","stateId":1626,"stateCode":"PK","stateName":"Podkarpackie Voivodeship","countryId":176,"countryCode":"PL","countryName":"Poland","latitude":"50.08303000","longitude":"22.45399000","wikiDataId":"Q5612736"},{"id":86406,"name":"Gwoźnica Górna","stateId":1626,"stateCode":"PK","stateName":"Podkarpackie Voivodeship","countryId":176,"countryCode":"PL","countryName":"Poland","latitude":"49.82791000","longitude":"21.99772000","wikiDataId":"Q5623732"},{"id":86438,"name":"Haczów","stateId":1626,"stateCode":"PK","stateName":"Podkarpackie Voivodeship","countryId":176,"countryCode":"PL","countryName":"Poland","latitude":"49.66152000","longitude":"21.89790000","wikiDataId":"Q995762"},{"id":86441,"name":"Handzlówka","stateId":1626,"stateCode":"PK","stateName":"Podkarpackie Voivodeship","countryId":176,"countryCode":"PL","countryName":"Poland","latitude":"49.99527000","longitude":"22.22311000","wikiDataId":"Q5647743"},{"id":86442,"name":"Harasiuki","stateId":1626,"stateCode":"PK","stateName":"Podkarpackie Voivodeship","countryId":176,"countryCode":"PL","countryName":"Poland","latitude":"50.47515000","longitude":"22.47288000","wikiDataId":"Q5647743"},{"id":86451,"name":"Horyniec-Zdrój","stateId":1626,"stateCode":"PK","stateName":"Podkarpackie Voivodeship","countryId":176,"countryCode":"PL","countryName":"Poland","latitude":"50.19152000","longitude":"23.36277000","wikiDataId":"Q1983997"},{"id":86453,"name":"Humniska","stateId":1626,"stateCode":"PK","stateName":"Podkarpackie Voivodeship","countryId":176,"countryCode":"PL","countryName":"Poland","latitude":"49.67507000","longitude":"22.05368000","wikiDataId":"Q935120"},{"id":86454,"name":"Husów","stateId":1626,"stateCode":"PK","stateName":"Podkarpackie Voivodeship","countryId":176,"countryCode":"PL","countryName":"Poland","latitude":"49.97971000","longitude":"22.28645000","wikiDataId":"Q935120"},{"id":86456,"name":"Hyżne","stateId":1626,"stateCode":"PK","stateName":"Podkarpackie Voivodeship","countryId":176,"countryCode":"PL","countryName":"Poland","latitude":"49.91769000","longitude":"22.18131000","wikiDataId":"Q474139"},{"id":86464,"name":"Iwierzyce","stateId":1626,"stateCode":"PK","stateName":"Podkarpackie Voivodeship","countryId":176,"countryCode":"PL","countryName":"Poland","latitude":"50.02958000","longitude":"21.75396000","wikiDataId":"Q2436395"},{"id":86466,"name":"Iwonicz-Zdrój","stateId":1626,"stateCode":"PK","stateName":"Podkarpackie Voivodeship","countryId":176,"countryCode":"PL","countryName":"Poland","latitude":"49.56319000","longitude":"21.78992000","wikiDataId":"Q655412"},{"id":86478,"name":"Jabłonica Polska","stateId":1626,"stateCode":"PK","stateName":"Podkarpackie Voivodeship","countryId":176,"countryCode":"PL","countryName":"Poland","latitude":"49.69784000","longitude":"21.89961000","wikiDataId":"Q3252354"},{"id":86479,"name":"Jabłonka","stateId":1626,"stateCode":"PK","stateName":"Podkarpackie Voivodeship","countryId":176,"countryCode":"PL","countryName":"Poland","latitude":"49.69417000","longitude":"22.11565000","wikiDataId":"Q2678469"},{"id":86490,"name":"Jagiełła","stateId":1626,"stateCode":"PK","stateName":"Podkarpackie Voivodeship","countryId":176,"countryCode":"PL","countryName":"Poland","latitude":"50.09460000","longitude":"22.57261000","wikiDataId":"Q1871384"},{"id":86508,"name":"Jarocin","stateId":1626,"stateCode":"PK","stateName":"Podkarpackie Voivodeship","countryId":176,"countryCode":"PL","countryName":"Poland","latitude":"50.56459000","longitude":"22.32121000","wikiDataId":"Q2148486"},{"id":86511,"name":"Jarosław","stateId":1626,"stateCode":"PK","stateName":"Podkarpackie Voivodeship","countryId":176,"countryCode":"PL","countryName":"Poland","latitude":"50.01623000","longitude":"22.67776000","wikiDataId":"Q721928"},{"id":86515,"name":"Jasienica Rosielna","stateId":1626,"stateCode":"PK","stateName":"Podkarpackie Voivodeship","countryId":176,"countryCode":"PL","countryName":"Poland","latitude":"49.75144000","longitude":"21.94176000","wikiDataId":"Q2186511"},{"id":86519,"name":"Jasionów","stateId":1626,"stateCode":"PK","stateName":"Podkarpackie Voivodeship","countryId":176,"countryCode":"PL","countryName":"Poland","latitude":"49.65841000","longitude":"21.97678000","wikiDataId":"Q5191490"},{"id":86539,"name":"Jaśliska","stateId":1626,"stateCode":"PK","stateName":"Podkarpackie Voivodeship","countryId":176,"countryCode":"PL","countryName":"Poland","latitude":"49.44229000","longitude":"21.80795000","wikiDataId":"Q3496269"},{"id":86530,"name":"Jasło","stateId":1626,"stateCode":"PK","stateName":"Podkarpackie Voivodeship","countryId":176,"countryCode":"PL","countryName":"Poland","latitude":"49.74506000","longitude":"21.47252000","wikiDataId":"Q848983"},{"id":86532,"name":"Jawornik","stateId":1626,"stateCode":"PK","stateName":"Podkarpackie Voivodeship","countryId":176,"countryCode":"PL","countryName":"Poland","latitude":"49.84640000","longitude":"21.89404000","wikiDataId":"Q6166168"},{"id":86534,"name":"Jawornik Polski","stateId":1626,"stateCode":"PK","stateName":"Podkarpackie Voivodeship","countryId":176,"countryCode":"PL","countryName":"Poland","latitude":"49.89082000","longitude":"22.28868000","wikiDataId":"Q2149342"},{"id":86540,"name":"Jedlicze","stateId":1626,"stateCode":"PK","stateName":"Podkarpackie Voivodeship","countryId":176,"countryCode":"PL","countryName":"Poland","latitude":"49.71749000","longitude":"21.64886000","wikiDataId":"Q655210"},{"id":86559,"name":"Jeżowe","stateId":1626,"stateCode":"PK","stateName":"Podkarpackie Voivodeship","countryId":176,"countryCode":"PL","countryName":"Poland","latitude":"50.37486000","longitude":"22.12749000","wikiDataId":"Q2672122"},{"id":86562,"name":"Jodłowa","stateId":1626,"stateCode":"PK","stateName":"Podkarpackie Voivodeship","countryId":176,"countryCode":"PL","countryName":"Poland","latitude":"49.87229000","longitude":"21.27897000","wikiDataId":"Q6208182"},{"id":86563,"name":"Jodłówka","stateId":1626,"stateCode":"PK","stateName":"Podkarpackie Voivodeship","countryId":176,"countryCode":"PL","countryName":"Poland","latitude":"49.89430000","longitude":"22.46653000","wikiDataId":"Q11727612"},{"id":86598,"name":"Kamień","stateId":1626,"stateCode":"PK","stateName":"Podkarpackie Voivodeship","countryId":176,"countryCode":"PL","countryName":"Poland","latitude":"50.34064000","longitude":"22.13539000","wikiDataId":"Q2440583"},{"id":86629,"name":"Kańczuga","stateId":1626,"stateCode":"PK","stateName":"Podkarpackie Voivodeship","countryId":176,"countryCode":"PL","countryName":"Poland","latitude":"49.98346000","longitude":"22.41168000","wikiDataId":"Q653844"},{"id":86855,"name":"Kępie Żaleszańskie","stateId":1626,"stateCode":"PK","stateName":"Podkarpackie Voivodeship","countryId":176,"countryCode":"PL","countryName":"Poland","latitude":"50.63983000","longitude":"21.88133000","wikiDataId":"Q6454546"},{"id":86632,"name":"Kielanówka","stateId":1626,"stateCode":"PK","stateName":"Podkarpackie Voivodeship","countryId":176,"countryCode":"PL","countryName":"Poland","latitude":"50.02616000","longitude":"21.92905000","wikiDataId":"Q6405232"},{"id":86677,"name":"Kolbuszowa","stateId":1626,"stateCode":"PK","stateName":"Podkarpackie Voivodeship","countryId":176,"countryCode":"PL","countryName":"Poland","latitude":"50.24410000","longitude":"21.77610000","wikiDataId":"Q991797"},{"id":86741,"name":"Kołaczyce","stateId":1626,"stateCode":"PK","stateName":"Podkarpackie Voivodeship","countryId":176,"countryCode":"PL","countryName":"Poland","latitude":"49.80743000","longitude":"21.43407000","wikiDataId":"Q2218834"},{"id":86685,"name":"Komańcza","stateId":1626,"stateCode":"PK","stateName":"Podkarpackie Voivodeship","countryId":176,"countryCode":"PL","countryName":"Poland","latitude":"49.33922000","longitude":"22.06166000","wikiDataId":"Q1025253"},{"id":86747,"name":"Kończyce","stateId":1626,"stateCode":"PK","stateName":"Podkarpackie Voivodeship","countryId":176,"countryCode":"PL","countryName":"Poland","latitude":"50.42575000","longitude":"22.15376000","wikiDataId":"Q6435575"},{"id":86692,"name":"Konieczkowa","stateId":1626,"stateCode":"PK","stateName":"Podkarpackie Voivodeship","countryId":176,"countryCode":"PL","countryName":"Poland","latitude":"49.84208000","longitude":"21.92820000","wikiDataId":"Q6429346"},{"id":86702,"name":"Korczyna","stateId":1626,"stateCode":"PK","stateName":"Podkarpackie Voivodeship","countryId":176,"countryCode":"PL","countryName":"Poland","latitude":"49.71555000","longitude":"21.80941000","wikiDataId":"Q2024269"},{"id":86711,"name":"Kosina","stateId":1626,"stateCode":"PK","stateName":"Podkarpackie Voivodeship","countryId":176,"countryCode":"PL","countryName":"Poland","latitude":"50.07213000","longitude":"22.32903000","wikiDataId":"Q3112345"},{"id":86761,"name":"Kraczkowa","stateId":1626,"stateCode":"PK","stateName":"Podkarpackie Voivodeship","countryId":176,"countryCode":"PL","countryName":"Poland","latitude":"50.03796000","longitude":"22.16801000","wikiDataId":"Q6435791"},{"id":86764,"name":"Kramarzówka","stateId":1626,"stateCode":"PK","stateName":"Podkarpackie Voivodeship","countryId":176,"countryCode":"PL","countryName":"Poland","latitude":"49.86034000","longitude":"22.50137000","wikiDataId":"Q6436013"},{"id":86767,"name":"Krasiczyn","stateId":1626,"stateCode":"PK","stateName":"Podkarpackie Voivodeship","countryId":176,"countryCode":"PL","countryName":"Poland","latitude":"49.77644000","longitude":"22.65252000","wikiDataId":"Q2753756"},{"id":86769,"name":"Krasne","stateId":1626,"stateCode":"PK","stateName":"Podkarpackie Voivodeship","countryId":176,"countryCode":"PL","countryName":"Poland","latitude":"50.05626000","longitude":"22.08638000","wikiDataId":"Q6436225"},{"id":86778,"name":"Krempna","stateId":1626,"stateCode":"PK","stateName":"Podkarpackie Voivodeship","countryId":176,"countryCode":"PL","countryName":"Poland","latitude":"49.51128000","longitude":"21.50042000","wikiDataId":"Q2686684"},{"id":86786,"name":"Krościenko Wyżne","stateId":1626,"stateCode":"PK","stateName":"Podkarpackie Voivodeship","countryId":176,"countryCode":"PL","countryName":"Poland","latitude":"49.67946000","longitude":"21.82898000","wikiDataId":"Q2309186"},{"id":86782,"name":"Krosno","stateId":1626,"stateCode":"PK","stateName":"Podkarpackie Voivodeship","countryId":176,"countryCode":"PL","countryName":"Poland","latitude":"49.68866000","longitude":"21.77058000","wikiDataId":"Q826068"},{"id":86803,"name":"Krzeczowice","stateId":1626,"stateCode":"PK","stateName":"Podkarpackie Voivodeship","countryId":176,"countryCode":"PL","countryName":"Poland","latitude":"49.98920000","longitude":"22.46378000","wikiDataId":"Q931135"},{"id":86805,"name":"Krzemienica","stateId":1626,"stateCode":"PK","stateName":"Podkarpackie Voivodeship","countryId":176,"countryCode":"PL","countryName":"Poland","latitude":"50.06210000","longitude":"22.18054000","wikiDataId":"Q6439943"},{"id":86810,"name":"Krzeszów","stateId":1626,"stateCode":"PK","stateName":"Podkarpackie Voivodeship","countryId":176,"countryCode":"PL","countryName":"Poland","latitude":"50.40381000","longitude":"22.34241000","wikiDataId":"Q950681"},{"id":86818,"name":"Krzywcza","stateId":1626,"stateCode":"PK","stateName":"Podkarpackie Voivodeship","countryId":176,"countryCode":"PL","countryName":"Poland","latitude":"49.79894000","longitude":"22.54549000","wikiDataId":"Q2106325"},{"id":86841,"name":"Kuryłówka","stateId":1626,"stateCode":"PK","stateName":"Podkarpackie Voivodeship","countryId":176,"countryCode":"PL","countryName":"Poland","latitude":"50.29976000","longitude":"22.46601000","wikiDataId":"Q3077810"},{"id":86873,"name":"Laszki","stateId":1626,"stateCode":"PK","stateName":"Podkarpackie Voivodeship","countryId":176,"countryCode":"PL","countryName":"Poland","latitude":"50.02020000","longitude":"22.89997000","wikiDataId":"Q2049768"},{"id":86875,"name":"Lecka","stateId":1626,"stateCode":"PK","stateName":"Podkarpackie Voivodeship","countryId":176,"countryCode":"PL","countryName":"Poland","latitude":"49.87860000","longitude":"22.01368000","wikiDataId":"Q11753599"},{"id":86881,"name":"Lesko","stateId":1626,"stateCode":"PK","stateName":"Podkarpackie Voivodeship","countryId":176,"countryCode":"PL","countryName":"Poland","latitude":"49.47010000","longitude":"22.33042000","wikiDataId":"Q611086"},{"id":86894,"name":"Leżajsk","stateId":1626,"stateCode":"PK","stateName":"Podkarpackie Voivodeship","countryId":176,"countryCode":"PL","countryName":"Poland","latitude":"50.26257000","longitude":"22.41932000","wikiDataId":"Q614145"},{"id":86911,"name":"Lipnica","stateId":1626,"stateCode":"PK","stateName":"Podkarpackie Voivodeship","countryId":176,"countryCode":"PL","countryName":"Poland","latitude":"50.28939000","longitude":"21.88811000","wikiDataId":"Q11757731"},{"id":86930,"name":"Lubaczów","stateId":1626,"stateCode":"PK","stateName":"Podkarpackie Voivodeship","countryId":176,"countryCode":"PL","countryName":"Poland","latitude":"50.15700000","longitude":"23.12339000","wikiDataId":"Q931022"},{"id":86937,"name":"Lubenia","stateId":1626,"stateCode":"PK","stateName":"Podkarpackie Voivodeship","countryId":176,"countryCode":"PL","countryName":"Poland","latitude":"49.93078000","longitude":"21.92665000","wikiDataId":"Q4541185"},{"id":86969,"name":"Lutoryż","stateId":1626,"stateCode":"PK","stateName":"Podkarpackie Voivodeship","countryId":176,"countryCode":"PL","countryName":"Poland","latitude":"49.96712000","longitude":"21.91240000","wikiDataId":"Q6705912"},{"id":86970,"name":"Lutowiska","stateId":1626,"stateCode":"PK","stateName":"Podkarpackie Voivodeship","countryId":176,"countryCode":"PL","countryName":"Poland","latitude":"49.25318000","longitude":"22.69252000","wikiDataId":"Q821399"},{"id":88777,"name":"Łańcut","stateId":1626,"stateCode":"PK","stateName":"Podkarpackie Voivodeship","countryId":176,"countryCode":"PL","countryName":"Poland","latitude":"50.06871000","longitude":"22.22912000","wikiDataId":"Q345331"},{"id":88822,"name":"Łęki","stateId":1626,"stateCode":"PK","stateName":"Podkarpackie Voivodeship","countryId":176,"countryCode":"PL","countryName":"Poland","latitude":"49.80996000","longitude":"21.66023000","wikiDataId":"Q8081364"},{"id":88823,"name":"Łęki Dolne","stateId":1626,"stateCode":"PK","stateName":"Podkarpackie Voivodeship","countryId":176,"countryCode":"PL","countryName":"Poland","latitude":"49.97386000","longitude":"21.24739000","wikiDataId":"Q2694097"},{"id":88824,"name":"Łęki Górne","stateId":1626,"stateCode":"PK","stateName":"Podkarpackie Voivodeship","countryId":176,"countryCode":"PL","countryName":"Poland","latitude":"49.97386000","longitude":"21.17426000","wikiDataId":"Q585998"},{"id":88827,"name":"Łętownia","stateId":1626,"stateCode":"PK","stateName":"Podkarpackie Voivodeship","countryId":176,"countryCode":"PL","countryName":"Poland","latitude":"50.32481000","longitude":"22.23401000","wikiDataId":"Q8081385"},{"id":88789,"name":"Łopuszka Wielka","stateId":1626,"stateCode":"PK","stateName":"Podkarpackie Voivodeship","countryId":176,"countryCode":"PL","countryName":"Poland","latitude":"49.93454000","longitude":"22.39305000","wikiDataId":"Q8080749"},{"id":86981,"name":"Majdan Królewski","stateId":1626,"stateCode":"PK","stateName":"Podkarpackie Voivodeship","countryId":176,"countryCode":"PL","countryName":"Poland","latitude":"50.37935000","longitude":"21.74615000","wikiDataId":"Q2616257"},{"id":86989,"name":"Manasterz","stateId":1626,"stateCode":"PK","stateName":"Podkarpackie Voivodeship","countryId":176,"countryCode":"PL","countryName":"Poland","latitude":"49.93520000","longitude":"22.34602000","wikiDataId":"Q6747047"},{"id":86995,"name":"Markowa","stateId":1626,"stateCode":"PK","stateName":"Podkarpackie Voivodeship","countryId":176,"countryCode":"PL","countryName":"Poland","latitude":"50.02633000","longitude":"22.33160000","wikiDataId":"Q179716"},{"id":87013,"name":"Medyka","stateId":1626,"stateCode":"PK","stateName":"Podkarpackie Voivodeship","countryId":176,"countryCode":"PL","countryName":"Poland","latitude":"49.80526000","longitude":"22.92229000","wikiDataId":"Q1916757"},{"id":87033,"name":"Miejsce Piastowe","stateId":1626,"stateCode":"PK","stateName":"Podkarpackie Voivodeship","countryId":176,"countryCode":"PL","countryName":"Poland","latitude":"49.63440000","longitude":"21.78735000","wikiDataId":"Q2396786"},{"id":87035,"name":"Mielec","stateId":1626,"stateCode":"PK","stateName":"Podkarpackie Voivodeship","countryId":176,"countryCode":"PL","countryName":"Poland","latitude":"50.28709000","longitude":"21.42390000","wikiDataId":"Q658861"},{"id":87054,"name":"Mirocin","stateId":1626,"stateCode":"PK","stateName":"Podkarpackie Voivodeship","countryId":176,"countryCode":"PL","countryName":"Poland","latitude":"50.04237000","longitude":"22.55596000","wikiDataId":"Q6873860"},{"id":87139,"name":"Narol","stateId":1626,"stateCode":"PK","stateName":"Podkarpackie Voivodeship","countryId":176,"countryCode":"PL","countryName":"Poland","latitude":"50.34925000","longitude":"23.32679000","wikiDataId":"Q2325806"},{"id":87147,"name":"Niebieszczany","stateId":1626,"stateCode":"PK","stateName":"Podkarpackie Voivodeship","countryId":176,"countryCode":"PL","countryName":"Poland","latitude":"49.50348000","longitude":"22.15651000","wikiDataId":"Q7030984"},{"id":87148,"name":"Niebocko","stateId":1626,"stateCode":"PK","stateName":"Podkarpackie Voivodeship","countryId":176,"countryCode":"PL","countryName":"Poland","latitude":"49.67774000","longitude":"22.10484000","wikiDataId":"Q7030993"},{"id":87150,"name":"Niebylec","stateId":1626,"stateCode":"PK","stateName":"Podkarpackie Voivodeship","countryId":176,"countryCode":"PL","countryName":"Poland","latitude":"49.85669000","longitude":"21.90348000","wikiDataId":"Q611605"},{"id":87152,"name":"Niechobrz","stateId":1626,"stateCode":"PK","stateName":"Podkarpackie Voivodeship","countryId":176,"countryCode":"PL","countryName":"Poland","latitude":"49.99472000","longitude":"21.87824000","wikiDataId":"Q377288"},{"id":87158,"name":"Niedźwiada","stateId":1626,"stateCode":"PK","stateName":"Podkarpackie Voivodeship","countryId":176,"countryCode":"PL","countryName":"Poland","latitude":"49.98937000","longitude":"21.52162000","wikiDataId":"Q11791424"},{"id":87165,"name":"Nienadowa","stateId":1626,"stateCode":"PK","stateName":"Podkarpackie Voivodeship","countryId":176,"countryCode":"PL","countryName":"Poland","latitude":"49.82901000","longitude":"22.42704000","wikiDataId":"Q630967"},{"id":87169,"name":"Nisko","stateId":1626,"stateCode":"PK","stateName":"Podkarpackie Voivodeship","countryId":176,"countryCode":"PL","countryName":"Poland","latitude":"50.51987000","longitude":"22.13968000","wikiDataId":"Q983983"},{"id":87170,"name":"Niwiska","stateId":1626,"stateCode":"PK","stateName":"Podkarpackie Voivodeship","countryId":176,"countryCode":"PL","countryName":"Poland","latitude":"50.22492000","longitude":"21.63036000","wikiDataId":"Q2998061"},{"id":87171,"name":"Nowa Dęba","stateId":1626,"stateCode":"PK","stateName":"Podkarpackie Voivodeship","countryId":176,"countryCode":"PL","countryName":"Poland","latitude":"50.42974000","longitude":"21.75078000","wikiDataId":"Q610917"},{"id":87174,"name":"Nowa Sarzyna","stateId":1626,"stateCode":"PK","stateName":"Podkarpackie Voivodeship","countryId":176,"countryCode":"PL","countryName":"Poland","latitude":"50.32086000","longitude":"22.34456000","wikiDataId":"Q1946089"},{"id":87190,"name":"Nowe Sioło","stateId":1626,"stateCode":"PK","stateName":"Podkarpackie Voivodeship","countryId":176,"countryCode":"PL","countryName":"Poland","latitude":"50.23194000","longitude":"23.15884000","wikiDataId":"Q7066577"},{"id":87199,"name":"Nowosielce","stateId":1626,"stateCode":"PK","stateName":"Podkarpackie Voivodeship","countryId":176,"countryCode":"PL","countryName":"Poland","latitude":"50.05747000","longitude":"22.41056000","wikiDataId":"Q2128709"},{"id":87200,"name":"Nowosielce-Gniewosz","stateId":1626,"stateCode":"PK","stateName":"Podkarpackie Voivodeship","countryId":176,"countryCode":"PL","countryName":"Poland","latitude":"49.56842000","longitude":"22.06947000","wikiDataId":"Q7066855"},{"id":87210,"name":"Nowy Żmigród","stateId":1626,"stateCode":"PK","stateName":"Podkarpackie Voivodeship","countryId":176,"countryCode":"PL","countryName":"Poland","latitude":"49.60353000","longitude":"21.52376000","wikiDataId":"Q4026813"},{"id":87211,"name":"Nozdrzec","stateId":1626,"stateCode":"PK","stateName":"Podkarpackie Voivodeship","countryId":176,"countryCode":"PL","countryName":"Poland","latitude":"49.77323000","longitude":"22.19865000","wikiDataId":"Q9299648"},{"id":87229,"name":"Odrzykoń","stateId":1626,"stateCode":"PK","stateName":"Podkarpackie Voivodeship","countryId":176,"countryCode":"PL","countryName":"Poland","latitude":"49.74057000","longitude":"21.74074000","wikiDataId":"Q7078353"},{"id":87239,"name":"Oleszyce","stateId":1626,"stateCode":"PK","stateName":"Podkarpackie Voivodeship","countryId":176,"countryCode":"PL","countryName":"Poland","latitude":"50.16750000","longitude":"23.03481000","wikiDataId":"Q867005"},{"id":87244,"name":"Olszanica","stateId":1626,"stateCode":"PK","stateName":"Podkarpackie Voivodeship","countryId":176,"countryCode":"PL","countryName":"Poland","latitude":"49.47741000","longitude":"22.44382000","wikiDataId":"Q11798098"},{"id":87275,"name":"Orły","stateId":1626,"stateCode":"PK","stateName":"Podkarpackie Voivodeship","countryId":176,"countryCode":"PL","countryName":"Poland","latitude":"49.87107000","longitude":"22.80298000","wikiDataId":"Q2912283"},{"id":87272,"name":"Orzechówka","stateId":1626,"stateCode":"PK","stateName":"Podkarpackie Voivodeship","countryId":176,"countryCode":"PL","countryName":"Poland","latitude":"49.73080000","longitude":"21.94519000","wikiDataId":"Q7105362"},{"id":87288,"name":"Osiek Jasielski","stateId":1626,"stateCode":"PK","stateName":"Podkarpackie Voivodeship","countryId":176,"countryCode":"PL","countryName":"Poland","latitude":"49.63784000","longitude":"21.48840000","wikiDataId":"Q7106783"},{"id":87308,"name":"Ostrów","stateId":1626,"stateCode":"PK","stateName":"Podkarpackie Voivodeship","countryId":176,"countryCode":"PL","countryName":"Poland","latitude":"49.96812000","longitude":"22.78710000","wikiDataId":"Q580114"},{"id":87334,"name":"Padew Narodowa","stateId":1626,"stateCode":"PK","stateName":"Podkarpackie Voivodeship","countryId":176,"countryCode":"PL","countryName":"Poland","latitude":"50.43947000","longitude":"21.50059000","wikiDataId":"Q2192731"},{"id":87343,"name":"Pantalowice","stateId":1626,"stateCode":"PK","stateName":"Podkarpackie Voivodeship","countryId":176,"countryCode":"PL","countryName":"Poland","latitude":"49.95210000","longitude":"22.43563000","wikiDataId":"Q253433"},{"id":87356,"name":"Pawłosiów","stateId":1626,"stateCode":"PK","stateName":"Podkarpackie Voivodeship","countryId":176,"countryCode":"PL","countryName":"Poland","latitude":"49.99533000","longitude":"22.64763000","wikiDataId":"Q7156373"},{"id":87391,"name":"Pilzno","stateId":1626,"stateCode":"PK","stateName":"Podkarpackie Voivodeship","countryId":176,"countryCode":"PL","countryName":"Poland","latitude":"49.97883000","longitude":"21.29228000","wikiDataId":"Q1051750"},{"id":87397,"name":"Piskorowice","stateId":1626,"stateCode":"PK","stateName":"Podkarpackie Voivodeship","countryId":176,"countryCode":"PL","countryName":"Poland","latitude":"50.23579000","longitude":"22.52867000","wikiDataId":"Q11818491"},{"id":87433,"name":"Polańczyk","stateId":1626,"stateCode":"PK","stateName":"Podkarpackie Voivodeship","countryId":176,"countryCode":"PL","countryName":"Poland","latitude":"49.36969000","longitude":"22.42112000","wikiDataId":"Q2618428"},{"id":87778,"name":"Połomia","stateId":1626,"stateCode":"PK","stateName":"Podkarpackie Voivodeship","countryId":176,"countryCode":"PL","countryName":"Poland","latitude":"49.90475000","longitude":"21.89198000","wikiDataId":"Q7237129"},{"id":87444,"name":"Poraż","stateId":1626,"stateCode":"PK","stateName":"Podkarpackie Voivodeship","countryId":176,"countryCode":"PL","countryName":"Poland","latitude":"49.48597000","longitude":"22.22500000","wikiDataId":"Q7229953"},{"id":87468,"name":"Powiat bieszczadzki","stateId":1626,"stateCode":"PK","stateName":"Podkarpackie Voivodeship","countryId":176,"countryCode":"PL","countryName":"Poland","latitude":"49.33681000","longitude":"22.64451000","wikiDataId":"Q163121"},{"id":87477,"name":"Powiat brzozowski","stateId":1626,"stateCode":"PK","stateName":"Podkarpackie Voivodeship","countryId":176,"countryCode":"PL","countryName":"Poland","latitude":"49.72759000","longitude":"22.09039000","wikiDataId":"Q1147627"},{"id":87497,"name":"Powiat dębicki","stateId":1626,"stateCode":"PK","stateName":"Podkarpackie Voivodeship","countryId":176,"countryCode":"PL","countryName":"Poland","latitude":"49.99923000","longitude":"21.35398000","wikiDataId":"Q1147644"},{"id":87528,"name":"Powiat jarosławski","stateId":1626,"stateCode":"PK","stateName":"Podkarpackie Voivodeship","countryId":176,"countryCode":"PL","countryName":"Poland","latitude":"50.02516000","longitude":"22.78238000","wikiDataId":"Q643915"},{"id":87529,"name":"Powiat jasielski","stateId":1626,"stateCode":"PK","stateName":"Podkarpackie Voivodeship","countryId":176,"countryCode":"PL","countryName":"Poland","latitude":"49.64263000","longitude":"21.44637000","wikiDataId":"Q1340537"},{"id":87540,"name":"Powiat kolbuszowski","stateId":1626,"stateCode":"PK","stateName":"Podkarpackie Voivodeship","countryId":176,"countryCode":"PL","countryName":"Poland","latitude":"50.31632000","longitude":"21.81315000","wikiDataId":"Q740897"},{"id":87555,"name":"Powiat krośnieński","stateId":1626,"stateCode":"PK","stateName":"Podkarpackie Voivodeship","countryId":176,"countryCode":"PL","countryName":"Poland","latitude":"49.59959000","longitude":"21.76943000","wikiDataId":"Q1149128"},{"id":87566,"name":"Powiat leski","stateId":1626,"stateCode":"PK","stateName":"Podkarpackie Voivodeship","countryId":176,"countryCode":"PL","countryName":"Poland","latitude":"49.31970000","longitude":"22.36907000","wikiDataId":"Q1335605"},{"id":87568,"name":"Powiat leżajski","stateId":1626,"stateCode":"PK","stateName":"Podkarpackie Voivodeship","countryId":176,"countryCode":"PL","countryName":"Poland","latitude":"50.26159000","longitude":"22.43828000","wikiDataId":"Q1310064"},{"id":87573,"name":"Powiat lubaczowski","stateId":1626,"stateCode":"PK","stateName":"Podkarpackie Voivodeship","countryId":176,"countryCode":"PL","countryName":"Poland","latitude":"50.19585000","longitude":"23.17328000","wikiDataId":"Q1147572"},{"id":87748,"name":"Powiat łańcucki","stateId":1626,"stateCode":"PK","stateName":"Podkarpackie Voivodeship","countryId":176,"countryCode":"PL","countryName":"Poland","latitude":"50.08659000","longitude":"22.26892000","wikiDataId":"Q1340547"},{"id":87584,"name":"Powiat mielecki","stateId":1626,"stateCode":"PK","stateName":"Podkarpackie Voivodeship","countryId":176,"countryCode":"PL","countryName":"Poland","latitude":"50.31387000","longitude":"21.39136000","wikiDataId":"Q1147184"},{"id":87600,"name":"Powiat niżański","stateId":1626,"stateCode":"PK","stateName":"Podkarpackie Voivodeship","countryId":176,"countryCode":"PL","countryName":"Poland","latitude":"50.46411000","longitude":"22.27645000","wikiDataId":"Q629018"},{"id":87645,"name":"Powiat przemyski","stateId":1626,"stateCode":"PK","stateName":"Podkarpackie Voivodeship","countryId":176,"countryCode":"PL","countryName":"Poland","latitude":"49.76060000","longitude":"22.67372000","wikiDataId":"Q608078"},{"id":87646,"name":"Powiat przeworski","stateId":1626,"stateCode":"PK","stateName":"Podkarpackie Voivodeship","countryId":176,"countryCode":"PL","countryName":"Poland","latitude":"50.08913000","longitude":"22.53682000","wikiDataId":"Q1335579"},{"id":87662,"name":"Powiat ropczycko-sędziszowski","stateId":1626,"stateCode":"PK","stateName":"Podkarpackie Voivodeship","countryId":176,"countryCode":"PL","countryName":"Poland","latitude":"50.04815000","longitude":"21.64385000","wikiDataId":"Q1335538"},{"id":87666,"name":"Powiat rzeszowski","stateId":1626,"stateCode":"PK","stateName":"Podkarpackie Voivodeship","countryId":176,"countryCode":"PL","countryName":"Poland","latitude":"50.09944000","longitude":"21.95892000","wikiDataId":"Q1335628"},{"id":87668,"name":"Powiat sanocki","stateId":1626,"stateCode":"PK","stateName":"Podkarpackie Voivodeship","countryId":176,"countryCode":"PL","countryName":"Poland","latitude":"49.43001000","longitude":"22.13619000","wikiDataId":"Q1340594"},{"id":87679,"name":"Powiat stalowowolski","stateId":1626,"stateCode":"PK","stateName":"Podkarpackie Voivodeship","countryId":176,"countryCode":"PL","countryName":"Poland","latitude":"50.59103000","longitude":"22.05203000","wikiDataId":"Q692459"},{"id":87687,"name":"Powiat strzyżowski","stateId":1626,"stateCode":"PK","stateName":"Podkarpackie Voivodeship","countryId":176,"countryCode":"PL","countryName":"Poland","latitude":"49.87698000","longitude":"21.74949000","wikiDataId":"Q954889"},{"id":87701,"name":"Powiat tarnobrzeski","stateId":1626,"stateCode":"PK","stateName":"Podkarpackie Voivodeship","countryId":176,"countryCode":"PL","countryName":"Poland","latitude":"50.52303000","longitude":"21.71585000","wikiDataId":"Q1147594"},{"id":87794,"name":"Pruchnik","stateId":1626,"stateCode":"PK","stateName":"Podkarpackie Voivodeship","countryId":176,"countryCode":"PL","countryName":"Poland","latitude":"49.90620000","longitude":"22.51554000","wikiDataId":"Q2114405"},{"id":87804,"name":"Przecław","stateId":1626,"stateCode":"PK","stateName":"Podkarpackie Voivodeship","countryId":176,"countryCode":"PL","countryName":"Poland","latitude":"50.19339000","longitude":"21.48007000","wikiDataId":"Q2372031"},{"id":87808,"name":"Przedmieście Dubieckie","stateId":1626,"stateCode":"PK","stateName":"Podkarpackie Voivodeship","countryId":176,"countryCode":"PL","countryName":"Poland","latitude":"49.83710000","longitude":"22.37177000","wikiDataId":"Q7253347"},{"id":87836,"name":"Przędzel","stateId":1626,"stateCode":"PK","stateName":"Podkarpackie Voivodeship","countryId":176,"countryCode":"PL","countryName":"Poland","latitude":"50.49465000","longitude":"22.21925000","wikiDataId":"Q7253793"},{"id":87812,"name":"Przemyśl","stateId":1626,"stateCode":"PK","stateName":"Podkarpackie Voivodeship","countryId":176,"countryCode":"PL","countryName":"Poland","latitude":"49.78498000","longitude":"22.76728000","wikiDataId":"Q208473"},{"id":87816,"name":"Przeworsk","stateId":1626,"stateCode":"PK","stateName":"Podkarpackie Voivodeship","countryId":176,"countryCode":"PL","countryName":"Poland","latitude":"50.05912000","longitude":"22.49408000","wikiDataId":"Q983875"},{"id":87823,"name":"Przybyszówka","stateId":1626,"stateCode":"PK","stateName":"Podkarpackie Voivodeship","countryId":176,"countryCode":"PL","countryName":"Poland","latitude":"50.04788000","longitude":"21.92579000","wikiDataId":"Q7253535"},{"id":87857,"name":"Pysznica","stateId":1626,"stateCode":"PK","stateName":"Podkarpackie Voivodeship","countryId":176,"countryCode":"PL","countryName":"Poland","latitude":"50.56999000","longitude":"22.12913000","wikiDataId":"Q518094"},{"id":87876,"name":"Racławice","stateId":1626,"stateCode":"PK","stateName":"Podkarpackie Voivodeship","countryId":176,"countryCode":"PL","countryName":"Poland","latitude":"50.51370000","longitude":"22.16552000","wikiDataId":"Q7279892"},{"id":87887,"name":"Radomyśl","stateId":1626,"stateCode":"PK","stateName":"Podkarpackie Voivodeship","countryId":176,"countryCode":"PL","countryName":"Poland","latitude":"50.68101000","longitude":"21.94365000","wikiDataId":"Q2758675"},{"id":87888,"name":"Radomyśl Wielki","stateId":1626,"stateCode":"PK","stateName":"Podkarpackie Voivodeship","countryId":176,"countryCode":"PL","countryName":"Poland","latitude":"50.19693000","longitude":"21.27693000","wikiDataId":"Q867431"},{"id":87893,"name":"Radymno","stateId":1626,"stateCode":"PK","stateName":"Podkarpackie Voivodeship","countryId":176,"countryCode":"PL","countryName":"Poland","latitude":"49.94720000","longitude":"22.82375000","wikiDataId":"Q336217"},{"id":87910,"name":"Rakszawa","stateId":1626,"stateCode":"PK","stateName":"Podkarpackie Voivodeship","countryId":176,"countryCode":"PL","countryName":"Poland","latitude":"50.16051000","longitude":"22.23907000","wikiDataId":"Q7286797"},{"id":87912,"name":"Raniżów","stateId":1626,"stateCode":"PK","stateName":"Podkarpackie Voivodeship","countryId":176,"countryCode":"PL","countryName":"Poland","latitude":"50.25873000","longitude":"21.97137000","wikiDataId":"Q2858475"},{"id":87950,"name":"Rogóźno","stateId":1626,"stateCode":"PK","stateName":"Podkarpackie Voivodeship","countryId":176,"countryCode":"PL","countryName":"Poland","latitude":"50.07367000","longitude":"22.37486000","wikiDataId":"Q7359649"},{"id":87956,"name":"Rokietnica","stateId":1626,"stateCode":"PK","stateName":"Podkarpackie Voivodeship","countryId":176,"countryCode":"PL","countryName":"Poland","latitude":"49.89983000","longitude":"22.64171000","wikiDataId":"Q2639348"},{"id":87961,"name":"Ropczyce","stateId":1626,"stateCode":"PK","stateName":"Podkarpackie Voivodeship","countryId":176,"countryCode":"PL","countryName":"Poland","latitude":"50.05229000","longitude":"21.60891000","wikiDataId":"Q336375"},{"id":87963,"name":"Rozbórz","stateId":1626,"stateCode":"PK","stateName":"Podkarpackie Voivodeship","countryId":176,"countryCode":"PL","countryName":"Poland","latitude":"50.05615000","longitude":"22.54686000","wikiDataId":"Q921428"},{"id":87976,"name":"Rudna Mała","stateId":1626,"stateCode":"PK","stateName":"Podkarpackie Voivodeship","countryId":176,"countryCode":"PL","countryName":"Poland","latitude":"50.09889000","longitude":"21.96021000","wikiDataId":"Q7377052"},{"id":87977,"name":"Rudna Wielka","stateId":1626,"stateCode":"PK","stateName":"Podkarpackie Voivodeship","countryId":176,"countryCode":"PL","countryName":"Poland","latitude":"50.08799000","longitude":"21.94759000","wikiDataId":"Q606218"},{"id":87981,"name":"Rudnik nad Sanem","stateId":1626,"stateCode":"PK","stateName":"Podkarpackie Voivodeship","countryId":176,"countryCode":"PL","countryName":"Poland","latitude":"50.44152000","longitude":"22.24856000","wikiDataId":"Q1028027"},{"id":88009,"name":"Rymanów","stateId":1626,"stateCode":"PK","stateName":"Podkarpackie Voivodeship","countryId":176,"countryCode":"PL","countryName":"Poland","latitude":"49.57649000","longitude":"21.86811000","wikiDataId":"Q2588425"},{"id":88020,"name":"Rzepedź","stateId":1626,"stateCode":"PK","stateName":"Podkarpackie Voivodeship","countryId":176,"countryCode":"PL","countryName":"Poland","latitude":"49.36997000","longitude":"22.11174000","wikiDataId":"Q2038797"},{"id":88024,"name":"Rzeszów","stateId":1626,"stateCode":"PK","stateName":"Podkarpackie Voivodeship","countryId":176,"countryCode":"PL","countryName":"Poland","latitude":"50.00545000","longitude":"21.98848000","wikiDataId":"Q598"},{"id":88049,"name":"Sanok","stateId":1626,"stateCode":"PK","stateName":"Podkarpackie Voivodeship","countryId":176,"countryCode":"PL","countryName":"Poland","latitude":"49.55573000","longitude":"22.20560000","wikiDataId":"Q201729"},{"id":88329,"name":"Sędziszów Małopolski","stateId":1626,"stateCode":"PK","stateName":"Podkarpackie Voivodeship","countryId":176,"countryCode":"PL","countryName":"Poland","latitude":"50.07069000","longitude":"21.70062000","wikiDataId":"Q867704"},{"id":88066,"name":"Siedleczka","stateId":1626,"stateCode":"PK","stateName":"Podkarpackie Voivodeship","countryId":176,"countryCode":"PL","countryName":"Poland","latitude":"49.96061000","longitude":"22.37949000","wikiDataId":"Q9336384"},{"id":88068,"name":"Siedliska","stateId":1626,"stateCode":"PK","stateName":"Podkarpackie Voivodeship","countryId":176,"countryCode":"PL","countryName":"Poland","latitude":"49.95409000","longitude":"21.94742000","wikiDataId":"Q7509695"},{"id":88077,"name":"Sieniawa","stateId":1626,"stateCode":"PK","stateName":"Podkarpackie Voivodeship","countryId":176,"countryCode":"PL","countryName":"Poland","latitude":"50.17790000","longitude":"22.60954000","wikiDataId":"Q377994"},{"id":88092,"name":"Sietesz","stateId":1626,"stateCode":"PK","stateName":"Podkarpackie Voivodeship","countryId":176,"countryCode":"PL","countryName":"Poland","latitude":"49.98622000","longitude":"22.34671000","wikiDataId":"Q2110057"},{"id":88114,"name":"Skołyszyn","stateId":1626,"stateCode":"PK","stateName":"Podkarpackie Voivodeship","countryId":176,"countryCode":"PL","countryName":"Poland","latitude":"49.74955000","longitude":"21.33665000","wikiDataId":"Q984046"},{"id":88343,"name":"Słotowa","stateId":1626,"stateCode":"PK","stateName":"Podkarpackie Voivodeship","countryId":176,"countryCode":"PL","countryName":"Poland","latitude":"49.94603000","longitude":"21.29425000","wikiDataId":"Q7667383"},{"id":88136,"name":"Sokolniki","stateId":1626,"stateCode":"PK","stateName":"Podkarpackie Voivodeship","countryId":176,"countryCode":"PL","countryName":"Poland","latitude":"50.63803000","longitude":"21.80649000","wikiDataId":"Q9339216"},{"id":88139,"name":"Sokołów Małopolski","stateId":1626,"stateCode":"PK","stateName":"Podkarpackie Voivodeship","countryId":176,"countryCode":"PL","countryName":"Poland","latitude":"50.22909000","longitude":"22.11968000","wikiDataId":"Q867039"},{"id":88147,"name":"Sonina","stateId":1626,"stateCode":"PK","stateName":"Podkarpackie Voivodeship","countryId":176,"countryCode":"PL","countryName":"Poland","latitude":"50.06089000","longitude":"22.26551000","wikiDataId":"Q1866589"},{"id":88157,"name":"Sośnica","stateId":1626,"stateCode":"PK","stateName":"Podkarpackie Voivodeship","countryId":176,"countryCode":"PL","countryName":"Poland","latitude":"49.90083000","longitude":"22.87469000","wikiDataId":"Q979851"},{"id":88165,"name":"Stalowa Wola","stateId":1626,"stateCode":"PK","stateName":"Podkarpackie Voivodeship","countryId":176,"countryCode":"PL","countryName":"Poland","latitude":"50.58286000","longitude":"22.05334000","wikiDataId":"Q751140"},{"id":88178,"name":"Stara Wieś","stateId":1626,"stateCode":"PK","stateName":"Podkarpackie Voivodeship","countryId":176,"countryCode":"PL","countryName":"Poland","latitude":"49.71505000","longitude":"22.00441000","wikiDataId":"Q737696"},{"id":88186,"name":"Stare Miasto","stateId":1626,"stateCode":"PK","stateName":"Podkarpackie Voivodeship","countryId":176,"countryCode":"PL","countryName":"Poland","latitude":"50.28879000","longitude":"22.42928000","wikiDataId":"Q7601719"},{"id":88210,"name":"Strachocina","stateId":1626,"stateCode":"PK","stateName":"Podkarpackie Voivodeship","countryId":176,"countryCode":"PL","countryName":"Poland","latitude":"49.60815000","longitude":"22.08836000","wikiDataId":"Q4496040"},{"id":88212,"name":"Straszydle","stateId":1626,"stateCode":"PK","stateName":"Podkarpackie Voivodeship","countryId":176,"countryCode":"PL","countryName":"Poland","latitude":"49.90038000","longitude":"21.98124000","wikiDataId":"Q7483884"},{"id":88236,"name":"Strzyżów","stateId":1626,"stateCode":"PK","stateName":"Podkarpackie Voivodeship","countryId":176,"countryCode":"PL","countryName":"Poland","latitude":"49.87074000","longitude":"21.79413000","wikiDataId":"Q835423"},{"id":88238,"name":"Stubno","stateId":1626,"stateCode":"PK","stateName":"Podkarpackie Voivodeship","countryId":176,"countryCode":"PL","countryName":"Poland","latitude":"49.89806000","longitude":"22.95602000","wikiDataId":"Q3331113"},{"id":88859,"name":"Świlcza","stateId":1626,"stateCode":"PK","stateName":"Podkarpackie Voivodeship","countryId":176,"countryCode":"PL","countryName":"Poland","latitude":"50.07179000","longitude":"21.89798000","wikiDataId":"Q2133589"},{"id":88359,"name":"Tarnobrzeg","stateId":1626,"stateCode":"PK","stateName":"Podkarpackie Voivodeship","countryId":176,"countryCode":"PL","countryName":"Poland","latitude":"50.57304000","longitude":"21.67937000","wikiDataId":"Q28516"},{"id":88362,"name":"Tarnowiec","stateId":1626,"stateCode":"PK","stateName":"Podkarpackie Voivodeship","countryId":176,"countryCode":"PL","countryName":"Poland","latitude":"49.73108000","longitude":"21.57663000","wikiDataId":"Q7686444"},{"id":88393,"name":"Tryńcza","stateId":1626,"stateCode":"PK","stateName":"Podkarpackie Voivodeship","countryId":176,"countryCode":"PL","countryName":"Poland","latitude":"50.16087000","longitude":"22.55008000","wikiDataId":"Q489390"},{"id":88394,"name":"Trzciana","stateId":1626,"stateCode":"PK","stateName":"Podkarpackie Voivodeship","countryId":176,"countryCode":"PL","countryName":"Poland","latitude":"50.07190000","longitude":"21.83850000","wikiDataId":"Q7848851"},{"id":88398,"name":"Trzcinica","stateId":1626,"stateCode":"PK","stateName":"Podkarpackie Voivodeship","countryId":176,"countryCode":"PL","countryName":"Poland","latitude":"49.74301000","longitude":"21.41750000","wikiDataId":"Q339214"},{"id":88409,"name":"Trzebownisko","stateId":1626,"stateCode":"PK","stateName":"Podkarpackie Voivodeship","countryId":176,"countryCode":"PL","countryName":"Poland","latitude":"50.07829000","longitude":"22.03712000","wikiDataId":"Q2859269"},{"id":88428,"name":"Turze Pole","stateId":1626,"stateCode":"PK","stateName":"Podkarpackie Voivodeship","countryId":176,"countryCode":"PL","countryName":"Poland","latitude":"49.66329000","longitude":"22.00476000","wikiDataId":"Q7856576"},{"id":88437,"name":"Tyczyn","stateId":1626,"stateCode":"PK","stateName":"Podkarpackie Voivodeship","countryId":176,"countryCode":"PL","countryName":"Poland","latitude":"49.96384000","longitude":"22.03398000","wikiDataId":"Q1946067"},{"id":88442,"name":"Tyrawa Wołoska","stateId":1626,"stateCode":"PK","stateName":"Podkarpackie Voivodeship","countryId":176,"countryCode":"PL","countryName":"Poland","latitude":"49.57744000","longitude":"22.36988000","wikiDataId":"Q1817136"},{"id":88448,"name":"Uherce Mineralne","stateId":1626,"stateCode":"PK","stateName":"Podkarpackie Voivodeship","countryId":176,"countryCode":"PL","countryName":"Poland","latitude":"49.46455000","longitude":"22.39829000","wikiDataId":"Q2016446"},{"id":88453,"name":"Ulanów","stateId":1626,"stateCode":"PK","stateName":"Podkarpackie Voivodeship","countryId":176,"countryCode":"PL","countryName":"Poland","latitude":"50.49031000","longitude":"22.26362000","wikiDataId":"Q867437"},{"id":88460,"name":"Urzejowice","stateId":1626,"stateCode":"PK","stateName":"Podkarpackie Voivodeship","countryId":176,"countryCode":"PL","countryName":"Poland","latitude":"50.01182000","longitude":"22.46189000","wikiDataId":"Q930602"},{"id":88465,"name":"Ustrzyki Dolne","stateId":1626,"stateCode":"PK","stateName":"Podkarpackie Voivodeship","countryId":176,"countryCode":"PL","countryName":"Poland","latitude":"49.43040000","longitude":"22.59381000","wikiDataId":"Q1906346"},{"id":88470,"name":"Wadowice Górne","stateId":1626,"stateCode":"PK","stateName":"Podkarpackie Voivodeship","countryId":176,"countryCode":"PL","countryName":"Poland","latitude":"50.26312000","longitude":"21.30215000","wikiDataId":"Q1822332"},{"id":88492,"name":"Wesoła","stateId":1626,"stateCode":"PK","stateName":"Podkarpackie Voivodeship","countryId":176,"countryCode":"PL","countryName":"Poland","latitude":"49.79977000","longitude":"22.10029000","wikiDataId":"Q7984092"},{"id":88555,"name":"Wiązownica","stateId":1626,"stateCode":"PK","stateName":"Podkarpackie Voivodeship","countryId":176,"countryCode":"PL","countryName":"Poland","latitude":"50.08066000","longitude":"22.70668000","wikiDataId":"Q2237742"},{"id":88508,"name":"Wielkie Oczy","stateId":1626,"stateCode":"PK","stateName":"Podkarpackie Voivodeship","countryId":176,"countryCode":"PL","countryName":"Poland","latitude":"50.02357000","longitude":"23.16407000","wikiDataId":"Q2497774"},{"id":88509,"name":"Wielopole Skrzyńskie","stateId":1626,"stateCode":"PK","stateName":"Podkarpackie Voivodeship","countryId":176,"countryCode":"PL","countryName":"Poland","latitude":"49.94564000","longitude":"21.61491000","wikiDataId":"Q670095"},{"id":88516,"name":"Wierzawice","stateId":1626,"stateCode":"PK","stateName":"Podkarpackie Voivodeship","countryId":176,"countryCode":"PL","countryName":"Poland","latitude":"50.23623000","longitude":"22.45090000","wikiDataId":"Q7999197"},{"id":88519,"name":"Wierzbna","stateId":1626,"stateCode":"PK","stateName":"Podkarpackie Voivodeship","countryId":176,"countryCode":"PL","countryName":"Poland","latitude":"50.03311000","longitude":"22.60128000","wikiDataId":"Q7999246"},{"id":88564,"name":"Wiśniowa","stateId":1626,"stateCode":"PK","stateName":"Podkarpackie Voivodeship","countryId":176,"countryCode":"PL","countryName":"Poland","latitude":"49.86897000","longitude":"21.65508000","wikiDataId":"Q2706617"},{"id":88571,"name":"Wojaszówka","stateId":1626,"stateCode":"PK","stateName":"Podkarpackie Voivodeship","countryId":176,"countryCode":"PL","countryName":"Poland","latitude":"49.77777000","longitude":"21.67079000","wikiDataId":"Q3039554"},{"id":88592,"name":"Wola Żarczycka","stateId":1626,"stateCode":"PK","stateName":"Podkarpackie Voivodeship","countryId":176,"countryCode":"PL","countryName":"Poland","latitude":"50.29120000","longitude":"22.25023000","wikiDataId":"Q592357"},{"id":88627,"name":"Wólka Niedźwiedzka","stateId":1626,"stateCode":"PK","stateName":"Podkarpackie Voivodeship","countryId":176,"countryCode":"PL","countryName":"Poland","latitude":"50.24226000","longitude":"22.18826000","wikiDataId":"Q1886965"},{"id":88628,"name":"Wólka Pełkińska","stateId":1626,"stateCode":"PK","stateName":"Podkarpackie Voivodeship","countryId":176,"countryCode":"PL","countryName":"Poland","latitude":"50.09553000","longitude":"22.62342000","wikiDataId":"Q8040922"},{"id":88629,"name":"Wólka Podleśna","stateId":1626,"stateCode":"PK","stateName":"Podkarpackie Voivodeship","countryId":176,"countryCode":"PL","countryName":"Poland","latitude":"50.11785000","longitude":"22.11213000","wikiDataId":"Q8040926"},{"id":88630,"name":"Wólka Tanewska","stateId":1626,"stateCode":"PK","stateName":"Podkarpackie Voivodeship","countryId":176,"countryCode":"PL","countryName":"Poland","latitude":"50.50005000","longitude":"22.26113000","wikiDataId":"Q8040966"},{"id":88615,"name":"Wysoka","stateId":1626,"stateCode":"PK","stateName":"Podkarpackie Voivodeship","countryId":176,"countryCode":"PL","countryName":"Poland","latitude":"50.04474000","longitude":"22.26002000","wikiDataId":"Q8040546"},{"id":88619,"name":"Wysoka Głogowska","stateId":1626,"stateCode":"PK","stateName":"Podkarpackie Voivodeship","countryId":176,"countryCode":"PL","countryName":"Poland","latitude":"50.16019000","longitude":"22.02124000","wikiDataId":"Q8040556"},{"id":88620,"name":"Wysoka Strzyżowska","stateId":1626,"stateCode":"PK","stateName":"Podkarpackie Voivodeship","countryId":176,"countryCode":"PL","countryName":"Poland","latitude":"49.83056000","longitude":"21.74074000","wikiDataId":"Q8040563"},{"id":88669,"name":"Zagórz","stateId":1626,"stateCode":"PK","stateName":"Podkarpackie Voivodeship","countryId":176,"countryCode":"PL","countryName":"Poland","latitude":"49.51457000","longitude":"22.26706000","wikiDataId":"Q1946049"},{"id":88671,"name":"Zagórzyce","stateId":1626,"stateCode":"PK","stateName":"Podkarpackie Voivodeship","countryId":176,"countryCode":"PL","countryName":"Poland","latitude":"50.01690000","longitude":"21.67517000","wikiDataId":"Q8064437"},{"id":88674,"name":"Zaklików","stateId":1626,"stateCode":"PK","stateName":"Podkarpackie Voivodeship","countryId":176,"countryCode":"PL","countryName":"Poland","latitude":"50.75769000","longitude":"22.10226000","wikiDataId":"Q2319835"},{"id":88684,"name":"Zalesie","stateId":1626,"stateCode":"PK","stateName":"Podkarpackie Voivodeship","countryId":176,"countryCode":"PL","countryName":"Poland","latitude":"50.01226000","longitude":"22.53262000","wikiDataId":"Q8065455"},{"id":88687,"name":"Zaleszany","stateId":1626,"stateCode":"PK","stateName":"Podkarpackie Voivodeship","countryId":176,"countryCode":"PL","countryName":"Poland","latitude":"50.64799000","longitude":"21.89069000","wikiDataId":"Q1918447"},{"id":88695,"name":"Zarszyn","stateId":1626,"stateCode":"PK","stateName":"Podkarpackie Voivodeship","countryId":176,"countryCode":"PL","countryName":"Poland","latitude":"49.58178000","longitude":"22.01283000","wikiDataId":"Q2458160"},{"id":88696,"name":"Zarzecze","stateId":1626,"stateCode":"PK","stateName":"Podkarpackie Voivodeship","countryId":176,"countryCode":"PL","countryName":"Poland","latitude":"50.52767000","longitude":"22.19522000","wikiDataId":"Q8066970"},{"id":88718,"name":"Zdziechowice Drugie","stateId":1626,"stateCode":"PK","stateName":"Podkarpackie Voivodeship","countryId":176,"countryCode":"PL","countryName":"Poland","latitude":"50.78478000","longitude":"22.10999000","wikiDataId":"Q8068079"},{"id":88727,"name":"Zgłobień","stateId":1626,"stateCode":"PK","stateName":"Podkarpackie Voivodeship","countryId":176,"countryCode":"PL","countryName":"Poland","latitude":"50.01270000","longitude":"21.85490000","wikiDataId":"Q1823397"},{"id":88732,"name":"Zmiennica","stateId":1626,"stateCode":"PK","stateName":"Podkarpackie Voivodeship","countryId":176,"countryCode":"PL","countryName":"Poland","latitude":"49.67652000","longitude":"21.96596000","wikiDataId":"Q8073099"},{"id":88891,"name":"Żołynia","stateId":1626,"stateCode":"PK","stateName":"Podkarpackie Voivodeship","countryId":176,"countryCode":"PL","countryName":"Poland","latitude":"50.16200000","longitude":"22.30825000","wikiDataId":"Q2363612"},{"id":88893,"name":"Żurawica","stateId":1626,"stateCode":"PK","stateName":"Podkarpackie Voivodeship","countryId":176,"countryCode":"PL","countryName":"Poland","latitude":"49.82348000","longitude":"22.78925000","wikiDataId":"Q161893"},{"id":88894,"name":"Żurawiczki","stateId":1626,"stateCode":"PK","stateName":"Podkarpackie Voivodeship","countryId":176,"countryCode":"PL","countryName":"Poland","latitude":"50.01370000","longitude":"22.49949000","wikiDataId":"Q8083422"},{"id":88898,"name":"Żyraków","stateId":1626,"stateCode":"PK","stateName":"Podkarpackie Voivodeship","countryId":176,"countryCode":"PL","countryName":"Poland","latitude":"50.08545000","longitude":"21.39622000","wikiDataId":"Q8083507"}]