[{"id":9276,"name":"Boboshevo","stateId":4703,"stateCode":"10","stateName":"Kyustendil Province","countryId":34,"countryCode":"BG","countryName":"Bulgaria","latitude":"42.15296000","longitude":"23.00146000","wikiDataId":"Q405726"},{"id":9277,"name":"Bobov Dol","stateId":4703,"stateCode":"10","stateName":"Kyustendil Province","countryId":34,"countryCode":"BG","countryName":"Bulgaria","latitude":"42.36256000","longitude":"23.00324000","wikiDataId":"Q405175"},{"id":9321,"name":"Dupnitsa","stateId":4703,"stateCode":"10","stateName":"Kyustendil Province","countryId":34,"countryCode":"BG","countryName":"Bulgaria","latitude":"42.26667000","longitude":"23.11667000","wikiDataId":"Q405279"},{"id":9367,"name":"Kocherinovo","stateId":4703,"stateCode":"10","stateName":"Kyustendil Province","countryId":34,"countryCode":"BG","countryName":"Bulgaria","latitude":"42.08439000","longitude":"23.05710000","wikiDataId":"Q407307"},{"id":9381,"name":"Kyustendil","stateId":4703,"stateCode":"10","stateName":"Kyustendil Province","countryId":34,"countryCode":"BG","countryName":"Bulgaria","latitude":"42.28389000","longitude":"22.69111000","wikiDataId":"Q189305"},{"id":9407,"name":"Nevestino","stateId":4703,"stateCode":"10","stateName":"Kyustendil Province","countryId":34,"countryCode":"BG","countryName":"Bulgaria","latitude":"42.25551000","longitude":"22.85175000","wikiDataId":"Q2994062"},{"id":9430,"name":"Obshtina Boboshevo","stateId":4703,"stateCode":"10","stateName":"Kyustendil Province","countryId":34,"countryCode":"BG","countryName":"Bulgaria","latitude":"42.18333000","longitude":"23.02731000","wikiDataId":"Q2401745"},{"id":9431,"name":"Obshtina Bobov Dol","stateId":4703,"stateCode":"10","stateName":"Kyustendil Province","countryId":34,"countryCode":"BG","countryName":"Bulgaria","latitude":"42.31667000","longitude":"22.98333000","wikiDataId":"Q2401761"},{"id":9467,"name":"Obshtina Dupnitsa","stateId":4703,"stateCode":"10","stateName":"Kyustendil Province","countryId":34,"countryCode":"BG","countryName":"Bulgaria","latitude":"42.28333000","longitude":"23.15000000","wikiDataId":"Q2401780"},{"id":9504,"name":"Obshtina Kocherinovo","stateId":4703,"stateCode":"10","stateName":"Kyustendil Province","countryId":34,"countryCode":"BG","countryName":"Bulgaria","latitude":"42.09909000","longitude":"23.02942000","wikiDataId":"Q944028"},{"id":9518,"name":"Obshtina Kyustendil","stateId":4703,"stateCode":"10","stateName":"Kyustendil Province","countryId":34,"countryCode":"BG","countryName":"Bulgaria","latitude":"42.28333000","longitude":"22.68333000","wikiDataId":"Q1003231"},{"id":9539,"name":"Obshtina Nevestino","stateId":4703,"stateCode":"10","stateName":"Kyustendil Province","countryId":34,"countryCode":"BG","countryName":"Bulgaria","latitude":"42.16667000","longitude":"22.83333000","wikiDataId":"Q2401796"},{"id":9572,"name":"Obshtina Rila","stateId":4703,"stateCode":"10","stateName":"Kyustendil Province","countryId":34,"countryCode":"BG","countryName":"Bulgaria","latitude":"42.15000000","longitude":"23.31667000","wikiDataId":"Q2403120"},{"id":9583,"name":"Obshtina Sapareva Banya","stateId":4703,"stateCode":"10","stateName":"Kyustendil Province","countryId":34,"countryCode":"BG","countryName":"Bulgaria","latitude":"42.28333000","longitude":"23.31667000","wikiDataId":"Q543012"},{"id":9614,"name":"Obshtina Treklyano","stateId":4703,"stateCode":"10","stateName":"Kyustendil Province","countryId":34,"countryCode":"BG","countryName":"Bulgaria","latitude":"42.55000000","longitude":"22.60000000","wikiDataId":"Q2994074"},{"id":9671,"name":"Rila","stateId":4703,"stateCode":"10","stateName":"Kyustendil Province","countryId":34,"countryCode":"BG","countryName":"Bulgaria","latitude":"42.13333000","longitude":"23.13333000","wikiDataId":"Q406517"},{"id":9682,"name":"Sapareva Banya","stateId":4703,"stateCode":"10","stateName":"Kyustendil Province","countryId":34,"countryCode":"BG","countryName":"Bulgaria","latitude":"42.28333000","longitude":"23.26667000","wikiDataId":"Q405166"}]