[{"id":20491,"name":"Agua de Dios","stateId":2875,"stateCode":"CUN","stateName":"Cundinamarca","countryId":48,"countryCode":"CO","countryName":"Colombia","latitude":"4.37648000","longitude":"-74.66995000","wikiDataId":"Q1525734"},{"id":20501,"name":"Albán","stateId":2875,"stateCode":"CUN","stateName":"Cundinamarca","countryId":48,"countryCode":"CO","countryName":"Colombia","latitude":"4.89432000","longitude":"-74.44388000","wikiDataId":"Q1576197"},{"id":20516,"name":"Anapoima","stateId":2875,"stateCode":"CUN","stateName":"Cundinamarca","countryId":48,"countryCode":"CO","countryName":"Colombia","latitude":"4.55099000","longitude":"-74.53517000","wikiDataId":"Q1577095"},{"id":20523,"name":"Anolaima","stateId":2875,"stateCode":"CUN","stateName":"Cundinamarca","countryId":48,"countryCode":"CO","countryName":"Colombia","latitude":"4.83362000","longitude":"-74.49950000","wikiDataId":"Q1524766"},{"id":20530,"name":"Apulo","stateId":2875,"stateCode":"CUN","stateName":"Cundinamarca","countryId":48,"countryCode":"CO","countryName":"Colombia","latitude":"4.51952000","longitude":"-74.59293000","wikiDataId":"Q23684351"},{"id":20538,"name":"Arbeláez","stateId":2875,"stateCode":"CUN","stateName":"Cundinamarca","countryId":48,"countryCode":"CO","countryName":"Colombia","latitude":"4.21251000","longitude":"-74.41464000","wikiDataId":"Q925824"},{"id":20581,"name":"Beltrán","stateId":2875,"stateCode":"CUN","stateName":"Cundinamarca","countryId":48,"countryCode":"CO","countryName":"Colombia","latitude":"4.71947000","longitude":"-74.75660000","wikiDataId":"Q432570"},{"id":20592,"name":"Bituima","stateId":2875,"stateCode":"CUN","stateName":"Cundinamarca","countryId":48,"countryCode":"CO","countryName":"Colombia","latitude":"4.87252000","longitude":"-74.53925000","wikiDataId":"Q1655019"},{"id":143873,"name":"Bogotá D.C.","stateId":2875,"stateCode":"CUN","stateName":"Cundinamarca","countryId":48,"countryCode":"CO","countryName":"Colombia","latitude":"4.61263889","longitude":"-74.07050000","wikiDataId":"Q2841"},{"id":20595,"name":"Bojacá","stateId":2875,"stateCode":"CUN","stateName":"Cundinamarca","countryId":48,"countryCode":"CO","countryName":"Colombia","latitude":"4.73176000","longitude":"-74.34129000","wikiDataId":"Q1577083"},{"id":20615,"name":"Cabrera","stateId":2875,"stateCode":"CUN","stateName":"Cundinamarca","countryId":48,"countryCode":"CO","countryName":"Colombia","latitude":"3.98598000","longitude":"-74.48283000","wikiDataId":"Q922111"},{"id":20619,"name":"Cachipay","stateId":2875,"stateCode":"CUN","stateName":"Cundinamarca","countryId":48,"countryCode":"CO","countryName":"Colombia","latitude":"5.26667000","longitude":"-74.56667000","wikiDataId":"Q23696124"},{"id":20626,"name":"Cajicá","stateId":2875,"stateCode":"CUN","stateName":"Cundinamarca","countryId":48,"countryCode":"CO","countryName":"Colombia","latitude":"4.91857000","longitude":"-74.02799000","wikiDataId":"Q23696182"},{"id":20646,"name":"Caparrapí","stateId":2875,"stateCode":"CUN","stateName":"Cundinamarca","countryId":48,"countryCode":"CO","countryName":"Colombia","latitude":"5.34644000","longitude":"-74.49147000","wikiDataId":"Q1524797"},{"id":20648,"name":"Caqueza","stateId":2875,"stateCode":"CUN","stateName":"Cundinamarca","countryId":48,"countryCode":"CO","countryName":"Colombia","latitude":"4.38708000","longitude":"-73.95722000","wikiDataId":"Q1574750"},{"id":20655,"name":"Carmen de Carupa","stateId":2875,"stateCode":"CUN","stateName":"Cundinamarca","countryId":48,"countryCode":"CO","countryName":"Colombia","latitude":"5.34862000","longitude":"-73.90168000","wikiDataId":"Q639256"},{"id":20675,"name":"Chaguaní","stateId":2875,"stateCode":"CUN","stateName":"Cundinamarca","countryId":48,"countryCode":"CO","countryName":"Colombia","latitude":"4.94829000","longitude":"-74.59392000","wikiDataId":"Q1654559"},{"id":20705,"name":"Chía","stateId":2875,"stateCode":"CUN","stateName":"Cundinamarca","countryId":48,"countryCode":"CO","countryName":"Colombia","latitude":"4.84452000","longitude":"-74.05848000","wikiDataId":"Q1093102"},{"id":20691,"name":"Chipaque","stateId":2875,"stateCode":"CUN","stateName":"Cundinamarca","countryId":48,"countryCode":"CO","countryName":"Colombia","latitude":"4.44250000","longitude":"-74.04417000","wikiDataId":"Q740349"},{"id":20702,"name":"Choachí","stateId":2875,"stateCode":"CUN","stateName":"Cundinamarca","countryId":48,"countryCode":"CO","countryName":"Colombia","latitude":"4.52897000","longitude":"-73.92273000","wikiDataId":"Q936199"},{"id":20703,"name":"Chocontá","stateId":2875,"stateCode":"CUN","stateName":"Cundinamarca","countryId":48,"countryCode":"CO","countryName":"Colombia","latitude":"5.14468000","longitude":"-73.68578000","wikiDataId":"Q1525247"},{"id":20718,"name":"Cogua","stateId":2875,"stateCode":"CUN","stateName":"Cundinamarca","countryId":48,"countryCode":"CO","countryName":"Colombia","latitude":"5.06051000","longitude":"-73.97925000","wikiDataId":"Q1524844"},{"id":20741,"name":"Cota","stateId":2875,"stateCode":"CUN","stateName":"Cundinamarca","countryId":48,"countryCode":"CO","countryName":"Colombia","latitude":"4.80938000","longitude":"-74.09800000","wikiDataId":"Q579820"},{"id":20752,"name":"Cucunubá","stateId":2875,"stateCode":"CUN","stateName":"Cundinamarca","countryId":48,"countryCode":"CO","countryName":"Colombia","latitude":"5.24958000","longitude":"-73.76610000","wikiDataId":"Q1575538"},{"id":20803,"name":"El Colegio","stateId":2875,"stateCode":"CUN","stateName":"Cundinamarca","countryId":48,"countryCode":"CO","countryName":"Colombia","latitude":"4.56047000","longitude":"-74.42614000","wikiDataId":"Q935205"},{"id":20817,"name":"El Peñón","stateId":2875,"stateCode":"CUN","stateName":"Cundinamarca","countryId":48,"countryCode":"CO","countryName":"Colombia","latitude":"5.25264000","longitude":"-74.29069000","wikiDataId":"Q23691792"},{"id":20826,"name":"El Rosal","stateId":2875,"stateCode":"CUN","stateName":"Cundinamarca","countryId":48,"countryCode":"CO","countryName":"Colombia","latitude":"4.85314000","longitude":"-74.25996000","wikiDataId":"Q602957"},{"id":20842,"name":"Facatativá","stateId":2875,"stateCode":"CUN","stateName":"Cundinamarca","countryId":48,"countryCode":"CO","countryName":"Colombia","latitude":"4.81367000","longitude":"-74.35453000","wikiDataId":"Q1947594"},{"id":20854,"name":"Fomeque","stateId":2875,"stateCode":"CUN","stateName":"Cundinamarca","countryId":48,"countryCode":"CO","countryName":"Colombia","latitude":"4.52806000","longitude":"-73.78879000","wikiDataId":"Q1575413"},{"id":20857,"name":"Fosca","stateId":2875,"stateCode":"CUN","stateName":"Cundinamarca","countryId":48,"countryCode":"CO","countryName":"Colombia","latitude":"4.33916000","longitude":"-73.93852000","wikiDataId":"Q1577716"},{"id":20866,"name":"Funza","stateId":2875,"stateCode":"CUN","stateName":"Cundinamarca","countryId":48,"countryCode":"CO","countryName":"Colombia","latitude":"4.71638000","longitude":"-74.21195000","wikiDataId":"Q608955"},{"id":20869,"name":"Fúquene","stateId":2875,"stateCode":"CUN","stateName":"Cundinamarca","countryId":48,"countryCode":"CO","countryName":"Colombia","latitude":"5.41988000","longitude":"-73.76997000","wikiDataId":"Q1656191"},{"id":20867,"name":"Fusagasugá","stateId":2875,"stateCode":"CUN","stateName":"Cundinamarca","countryId":48,"countryCode":"CO","countryName":"Colombia","latitude":"4.33646000","longitude":"-74.36378000","wikiDataId":"Q2077525"},{"id":20870,"name":"Gachala","stateId":2875,"stateCode":"CUN","stateName":"Cundinamarca","countryId":48,"countryCode":"CO","countryName":"Colombia","latitude":"4.66667000","longitude":"-73.50000000","wikiDataId":"Q1656191"},{"id":20872,"name":"Gachancipá","stateId":2875,"stateCode":"CUN","stateName":"Cundinamarca","countryId":48,"countryCode":"CO","countryName":"Colombia","latitude":"4.99111000","longitude":"-73.87154000","wikiDataId":"Q1575577"},{"id":20874,"name":"Gachetá","stateId":2875,"stateCode":"CUN","stateName":"Cundinamarca","countryId":48,"countryCode":"CO","countryName":"Colombia","latitude":"4.87104000","longitude":"-73.61730000","wikiDataId":"Q1577746"},{"id":20879,"name":"Gama","stateId":2875,"stateCode":"CUN","stateName":"Cundinamarca","countryId":48,"countryCode":"CO","countryName":"Colombia","latitude":"4.76288000","longitude":"-73.61091000","wikiDataId":"Q1656344"},{"id":20886,"name":"Girardot","stateId":2875,"stateCode":"CUN","stateName":"Cundinamarca","countryId":48,"countryCode":"CO","countryName":"Colombia","latitude":"4.31802000","longitude":"-74.83504000","wikiDataId":"Q186193"},{"id":20892,"name":"Granada","stateId":2875,"stateCode":"CUN","stateName":"Cundinamarca","countryId":48,"countryCode":"CO","countryName":"Colombia","latitude":"5.06667000","longitude":"-74.56667000","wikiDataId":"Q23690741"},{"id":20898,"name":"Guachetá","stateId":2875,"stateCode":"CUN","stateName":"Cundinamarca","countryId":48,"countryCode":"CO","countryName":"Colombia","latitude":"5.38425000","longitude":"-73.68617000","wikiDataId":"Q955108"},{"id":20903,"name":"Guaduas","stateId":2875,"stateCode":"CUN","stateName":"Cundinamarca","countryId":48,"countryCode":"CO","countryName":"Colombia","latitude":"5.07430000","longitude":"-74.59854000","wikiDataId":"Q685990"},{"id":20914,"name":"Guasca","stateId":2875,"stateCode":"CUN","stateName":"Cundinamarca","countryId":48,"countryCode":"CO","countryName":"Colombia","latitude":"4.86601000","longitude":"-73.87748000","wikiDataId":"Q179672"},{"id":20916,"name":"Guataquí","stateId":2875,"stateCode":"CUN","stateName":"Cundinamarca","countryId":48,"countryCode":"CO","countryName":"Colombia","latitude":"4.51573000","longitude":"-74.78935000","wikiDataId":"Q1654896"},{"id":20917,"name":"Guatavita","stateId":2875,"stateCode":"CUN","stateName":"Cundinamarca","countryId":48,"countryCode":"CO","countryName":"Colombia","latitude":"4.93658000","longitude":"-73.83314000","wikiDataId":"Q1576750"},{"id":20921,"name":"Guayabal de Siquima","stateId":2875,"stateCode":"CUN","stateName":"Cundinamarca","countryId":48,"countryCode":"CO","countryName":"Colombia","latitude":"4.87881000","longitude":"-74.48306000","wikiDataId":"Q584880"},{"id":20923,"name":"Guayabetal","stateId":2875,"stateCode":"CUN","stateName":"Cundinamarca","countryId":48,"countryCode":"CO","countryName":"Colombia","latitude":"4.21472000","longitude":"-73.81719000","wikiDataId":"Q1656121"},{"id":20925,"name":"Gutiérrez","stateId":2875,"stateCode":"CUN","stateName":"Cundinamarca","countryId":48,"countryCode":"CO","countryName":"Colombia","latitude":"4.18486000","longitude":"-74.01168000","wikiDataId":"Q1654682"},{"id":20963,"name":"Jerusalén","stateId":2875,"stateCode":"CUN","stateName":"Cundinamarca","countryId":48,"countryCode":"CO","countryName":"Colombia","latitude":"4.56309000","longitude":"-74.69519000","wikiDataId":"Q23689265"},{"id":20968,"name":"Junín","stateId":2875,"stateCode":"CUN","stateName":"Cundinamarca","countryId":48,"countryCode":"CO","countryName":"Colombia","latitude":"4.70725000","longitude":"-73.69549000","wikiDataId":"Q1579341"},{"id":20972,"name":"La Calera","stateId":2875,"stateCode":"CUN","stateName":"Cundinamarca","countryId":48,"countryCode":"CO","countryName":"Colombia","latitude":"4.68678000","longitude":"-73.93590000","wikiDataId":"Q1440823"},{"id":20993,"name":"La Mesa","stateId":2875,"stateCode":"CUN","stateName":"Cundinamarca","countryId":48,"countryCode":"CO","countryName":"Colombia","latitude":"4.65374000","longitude":"-74.47316000","wikiDataId":"Q936790"},{"id":20995,"name":"La Palma","stateId":2875,"stateCode":"CUN","stateName":"Cundinamarca","countryId":48,"countryCode":"CO","countryName":"Colombia","latitude":"5.31732000","longitude":"-74.43003000","wikiDataId":"Q1578797"},{"id":20999,"name":"La Peña","stateId":2875,"stateCode":"CUN","stateName":"Cundinamarca","countryId":48,"countryCode":"CO","countryName":"Colombia","latitude":"5.19847000","longitude":"-74.39368000","wikiDataId":"Q23688588"},{"id":21012,"name":"La Vega","stateId":2875,"stateCode":"CUN","stateName":"Cundinamarca","countryId":48,"countryCode":"CO","countryName":"Colombia","latitude":"4.97382000","longitude":"-74.34476000","wikiDataId":"Q2022377"},{"id":21026,"name":"Lenguazaque","stateId":2875,"stateCode":"CUN","stateName":"Cundinamarca","countryId":48,"countryCode":"CO","countryName":"Colombia","latitude":"5.30711000","longitude":"-73.71152000","wikiDataId":"Q516210"},{"id":21045,"name":"Macheta","stateId":2875,"stateCode":"CUN","stateName":"Cundinamarca","countryId":48,"countryCode":"CO","countryName":"Colombia","latitude":"5.08333000","longitude":"-73.61667000","wikiDataId":"Q1576486"},{"id":21047,"name":"Madrid","stateId":2875,"stateCode":"CUN","stateName":"Cundinamarca","countryId":48,"countryCode":"CO","countryName":"Colombia","latitude":"4.75564000","longitude":"-74.27708000","wikiDataId":"Q2316396"},{"id":21060,"name":"Manta","stateId":2875,"stateCode":"CUN","stateName":"Cundinamarca","countryId":48,"countryCode":"CO","countryName":"Colombia","latitude":"4.95720000","longitude":"-73.58583000","wikiDataId":"Q1654947"},{"id":21075,"name":"Medina","stateId":2875,"stateCode":"CUN","stateName":"Cundinamarca","countryId":48,"countryCode":"CO","countryName":"Colombia","latitude":"4.51005000","longitude":"-73.34982000","wikiDataId":"Q1579406"},{"id":21109,"name":"Mosquera","stateId":2875,"stateCode":"CUN","stateName":"Cundinamarca","countryId":48,"countryCode":"CO","countryName":"Colombia","latitude":"4.68935000","longitude":"-74.23599000","wikiDataId":"Q2432909"},{"id":21127,"name":"Nariño","stateId":2875,"stateCode":"CUN","stateName":"Cundinamarca","countryId":48,"countryCode":"CO","countryName":"Colombia","latitude":"4.39913000","longitude":"-74.82239000","wikiDataId":"Q1847862"},{"id":21132,"name":"Nemocón","stateId":2875,"stateCode":"CUN","stateName":"Cundinamarca","countryId":48,"countryCode":"CO","countryName":"Colombia","latitude":"5.06767000","longitude":"-73.87769000","wikiDataId":"Q1574741"},{"id":21133,"name":"Nilo","stateId":2875,"stateCode":"CUN","stateName":"Cundinamarca","countryId":48,"countryCode":"CO","countryName":"Colombia","latitude":"4.30604000","longitude":"-74.62083000","wikiDataId":"Q1524825"},{"id":21134,"name":"Nimaima","stateId":2875,"stateCode":"CUN","stateName":"Cundinamarca","countryId":48,"countryCode":"CO","countryName":"Colombia","latitude":"5.12614000","longitude":"-74.38495000","wikiDataId":"Q1654819"},{"id":21136,"name":"Nocaima","stateId":2875,"stateCode":"CUN","stateName":"Cundinamarca","countryId":48,"countryCode":"CO","countryName":"Colombia","latitude":"5.06696000","longitude":"-74.38439000","wikiDataId":"Q1577029"},{"id":21159,"name":"Pacho","stateId":2875,"stateCode":"CUN","stateName":"Cundinamarca","countryId":48,"countryCode":"CO","countryName":"Colombia","latitude":"5.13055555","longitude":"-74.15833333","wikiDataId":"Q680909"},{"id":21165,"name":"Paime","stateId":2875,"stateCode":"CUN","stateName":"Cundinamarca","countryId":48,"countryCode":"CO","countryName":"Colombia","latitude":"5.37054000","longitude":"-74.15219000","wikiDataId":"Q597973"},{"id":21179,"name":"Pandi","stateId":2875,"stateCode":"CUN","stateName":"Cundinamarca","countryId":48,"countryCode":"CO","countryName":"Colombia","latitude":"4.18032000","longitude":"-74.47099000","wikiDataId":"Q1656274"},{"id":21182,"name":"Paratebueno","stateId":2875,"stateCode":"CUN","stateName":"Cundinamarca","countryId":48,"countryCode":"CO","countryName":"Colombia","latitude":"4.37575000","longitude":"-73.21547000","wikiDataId":"Q932870"},{"id":21183,"name":"Pasca","stateId":2875,"stateCode":"CUN","stateName":"Cundinamarca","countryId":48,"countryCode":"CO","countryName":"Colombia","latitude":"4.30722000","longitude":"-74.30056000","wikiDataId":"Q2241175"},{"id":21254,"name":"Puerto Salgar","stateId":2875,"stateCode":"CUN","stateName":"Cundinamarca","countryId":48,"countryCode":"CO","countryName":"Colombia","latitude":"5.61892000","longitude":"-74.58483000","wikiDataId":"Q1524761"},{"id":21261,"name":"Pulí","stateId":2875,"stateCode":"CUN","stateName":"Cundinamarca","countryId":48,"countryCode":"CO","countryName":"Colombia","latitude":"4.68116000","longitude":"-74.71406000","wikiDataId":"Q1656309"},{"id":21270,"name":"Quebradanegra","stateId":2875,"stateCode":"CUN","stateName":"Cundinamarca","countryId":48,"countryCode":"CO","countryName":"Colombia","latitude":"5.08262000","longitude":"-74.52117000","wikiDataId":"Q1656162"},{"id":21271,"name":"Quetame","stateId":2875,"stateCode":"CUN","stateName":"Cundinamarca","countryId":48,"countryCode":"CO","countryName":"Colombia","latitude":"4.33234000","longitude":"-73.86141000","wikiDataId":"Q1577699"},{"id":21275,"name":"Quipile","stateId":2875,"stateCode":"CUN","stateName":"Cundinamarca","countryId":48,"countryCode":"CO","countryName":"Colombia","latitude":"4.74517000","longitude":"-74.53378000","wikiDataId":"Q941367"},{"id":21287,"name":"Ricaurte","stateId":2875,"stateCode":"CUN","stateName":"Cundinamarca","countryId":48,"countryCode":"CO","countryName":"Colombia","latitude":"4.28075000","longitude":"-74.76469000","wikiDataId":"Q2226527"},{"id":21338,"name":"San Antonio del Tequendama","stateId":2875,"stateCode":"CUN","stateName":"Cundinamarca","countryId":48,"countryCode":"CO","countryName":"Colombia","latitude":"4.61667000","longitude":"-74.35000000","wikiDataId":"Q1526235"},{"id":21342,"name":"San Bernardo","stateId":2875,"stateCode":"CUN","stateName":"Cundinamarca","countryId":48,"countryCode":"CO","countryName":"Colombia","latitude":"4.12956000","longitude":"-74.35903000","wikiDataId":"Q1525355"},{"id":21348,"name":"San Cayetano","stateId":2875,"stateCode":"CUN","stateName":"Cundinamarca","countryId":48,"countryCode":"CO","countryName":"Colombia","latitude":"5.31693000","longitude":"-74.07141000","wikiDataId":"Q610537"},{"id":21358,"name":"San Francisco","stateId":2875,"stateCode":"CUN","stateName":"Cundinamarca","countryId":48,"countryCode":"CO","countryName":"Colombia","latitude":"4.96335000","longitude":"-74.26613000","wikiDataId":"Q1576269"},{"id":21375,"name":"San Juan de Río Seco","stateId":2875,"stateCode":"CUN","stateName":"Cundinamarca","countryId":48,"countryCode":"CO","countryName":"Colombia","latitude":"4.83077000","longitude":"-74.68248000","wikiDataId":"Q1526281"},{"id":21446,"name":"Sasaima","stateId":2875,"stateCode":"CUN","stateName":"Cundinamarca","countryId":48,"countryCode":"CO","countryName":"Colombia","latitude":"4.96705000","longitude":"-74.43512000","wikiDataId":"Q1575923"},{"id":21450,"name":"Sesquilé","stateId":2875,"stateCode":"CUN","stateName":"Cundinamarca","countryId":48,"countryCode":"CO","countryName":"Colombia","latitude":"5.04463000","longitude":"-73.79724000","wikiDataId":"Q1576281"},{"id":21453,"name":"Sibaté","stateId":2875,"stateCode":"CUN","stateName":"Cundinamarca","countryId":48,"countryCode":"CO","countryName":"Colombia","latitude":"4.49154000","longitude":"-74.25957000","wikiDataId":"Q1391630"},{"id":21456,"name":"Silvania","stateId":2875,"stateCode":"CUN","stateName":"Cundinamarca","countryId":48,"countryCode":"CO","countryName":"Colombia","latitude":"4.40367000","longitude":"-74.38670000","wikiDataId":"Q1441993"},{"id":21459,"name":"Simijaca","stateId":2875,"stateCode":"CUN","stateName":"Cundinamarca","countryId":48,"countryCode":"CO","countryName":"Colombia","latitude":"5.50415000","longitude":"-73.86944000","wikiDataId":"Q1576943"},{"id":21464,"name":"Soacha","stateId":2875,"stateCode":"CUN","stateName":"Cundinamarca","countryId":48,"countryCode":"CO","countryName":"Colombia","latitude":"4.57937000","longitude":"-74.21682000","wikiDataId":"Q1011151"},{"id":21478,"name":"Sopó","stateId":2875,"stateCode":"CUN","stateName":"Cundinamarca","countryId":48,"countryCode":"CO","countryName":"Colombia","latitude":"4.90750000","longitude":"-73.93840000","wikiDataId":"Q1440902"},{"id":21486,"name":"Subachoque","stateId":2875,"stateCode":"CUN","stateName":"Cundinamarca","countryId":48,"countryCode":"CO","countryName":"Colombia","latitude":"4.92614000","longitude":"-74.17299000","wikiDataId":"Q959079"},{"id":21490,"name":"Suesca","stateId":2875,"stateCode":"CUN","stateName":"Cundinamarca","countryId":48,"countryCode":"CO","countryName":"Colombia","latitude":"5.10289000","longitude":"-73.79845000","wikiDataId":"Q1525782"},{"id":21491,"name":"Supatá","stateId":2875,"stateCode":"CUN","stateName":"Cundinamarca","countryId":48,"countryCode":"CO","countryName":"Colombia","latitude":"5.06097000","longitude":"-74.23721000","wikiDataId":"Q1654867"},{"id":21494,"name":"Susa","stateId":2875,"stateCode":"CUN","stateName":"Cundinamarca","countryId":48,"countryCode":"CO","countryName":"Colombia","latitude":"5.42700000","longitude":"-73.84786000","wikiDataId":"Q598748"},{"id":21497,"name":"Sutatausa","stateId":2875,"stateCode":"CUN","stateName":"Cundinamarca","countryId":48,"countryCode":"CO","countryName":"Colombia","latitude":"5.24779000","longitude":"-73.85238000","wikiDataId":"Q1654822"},{"id":21503,"name":"Tabio","stateId":2875,"stateCode":"CUN","stateName":"Cundinamarca","countryId":48,"countryCode":"CO","countryName":"Colombia","latitude":"4.91726000","longitude":"-74.09364000","wikiDataId":"Q1441966"},{"id":21517,"name":"Tausa","stateId":2875,"stateCode":"CUN","stateName":"Cundinamarca","countryId":48,"countryCode":"CO","countryName":"Colombia","latitude":"5.19903000","longitude":"-73.89128000","wikiDataId":"Q1577109"},{"id":21518,"name":"Tena","stateId":2875,"stateCode":"CUN","stateName":"Cundinamarca","countryId":48,"countryCode":"CO","countryName":"Colombia","latitude":"4.66001000","longitude":"-74.39258000","wikiDataId":"Q1575522"},{"id":21520,"name":"Tenjo","stateId":2875,"stateCode":"CUN","stateName":"Cundinamarca","countryId":48,"countryCode":"CO","countryName":"Colombia","latitude":"4.87270000","longitude":"-74.14435000","wikiDataId":"Q1525701"},{"id":21522,"name":"Tibacuy","stateId":2875,"stateCode":"CUN","stateName":"Cundinamarca","countryId":48,"countryCode":"CO","countryName":"Colombia","latitude":"4.30606000","longitude":"-74.51639000","wikiDataId":"Q1654475"},{"id":21525,"name":"Tibirita","stateId":2875,"stateCode":"CUN","stateName":"Cundinamarca","countryId":48,"countryCode":"CO","countryName":"Colombia","latitude":"5.05227000","longitude":"-73.50459000","wikiDataId":"Q1655992"},{"id":21534,"name":"Tocaima","stateId":2875,"stateCode":"CUN","stateName":"Cundinamarca","countryId":48,"countryCode":"CO","countryName":"Colombia","latitude":"4.46073000","longitude":"-74.65722000","wikiDataId":"Q1525235"},{"id":21535,"name":"Tocancipá","stateId":2875,"stateCode":"CUN","stateName":"Cundinamarca","countryId":48,"countryCode":"CO","countryName":"Colombia","latitude":"4.96531000","longitude":"-73.91301000","wikiDataId":"Q1442348"},{"id":21541,"name":"Topaipí","stateId":2875,"stateCode":"CUN","stateName":"Cundinamarca","countryId":48,"countryCode":"CO","countryName":"Colombia","latitude":"5.33457000","longitude":"-74.30292000","wikiDataId":"Q1656355"},{"id":21565,"name":"Ubalá","stateId":2875,"stateCode":"CUN","stateName":"Cundinamarca","countryId":48,"countryCode":"CO","countryName":"Colombia","latitude":"4.74778000","longitude":"-72.53694000","wikiDataId":"Q1525790"},{"id":21566,"name":"Ubaque","stateId":2875,"stateCode":"CUN","stateName":"Cundinamarca","countryId":48,"countryCode":"CO","countryName":"Colombia","latitude":"4.48667000","longitude":"-73.93748000","wikiDataId":"Q1574736"},{"id":21569,"name":"Une","stateId":2875,"stateCode":"CUN","stateName":"Cundinamarca","countryId":48,"countryCode":"CO","countryName":"Colombia","latitude":"4.30691000","longitude":"-74.07104000","wikiDataId":"Q1577653"},{"id":21640,"name":"Útica","stateId":2875,"stateCode":"CUN","stateName":"Cundinamarca","countryId":48,"countryCode":"CO","countryName":"Colombia","latitude":"5.16977000","longitude":"-74.50134000","wikiDataId":"Q23681561"},{"id":21587,"name":"Venecia","stateId":2875,"stateCode":"CUN","stateName":"Cundinamarca","countryId":48,"countryCode":"CO","countryName":"Colombia","latitude":"4.08808000","longitude":"-74.47746000","wikiDataId":"Q2434762"},{"id":21590,"name":"Vergara","stateId":2875,"stateCode":"CUN","stateName":"Cundinamarca","countryId":48,"countryCode":"CO","countryName":"Colombia","latitude":"5.13600000","longitude":"-74.31539000","wikiDataId":"Q1575601"},{"id":21593,"name":"Vianí","stateId":2875,"stateCode":"CUN","stateName":"Cundinamarca","countryId":48,"countryCode":"CO","countryName":"Colombia","latitude":"4.89579000","longitude":"-74.55398000","wikiDataId":"Q1656656"},{"id":21599,"name":"Villa de San Diego de Ubate","stateId":2875,"stateCode":"CUN","stateName":"Cundinamarca","countryId":48,"countryCode":"CO","countryName":"Colombia","latitude":"5.31544000","longitude":"-73.82045000","wikiDataId":"Q1409503"},{"id":21603,"name":"Villagómez","stateId":2875,"stateCode":"CUN","stateName":"Cundinamarca","countryId":48,"countryCode":"CO","countryName":"Colombia","latitude":"5.27372000","longitude":"-74.19614000","wikiDataId":"Q1655514"},{"id":21610,"name":"Villapinzón","stateId":2875,"stateCode":"CUN","stateName":"Cundinamarca","countryId":48,"countryCode":"CO","countryName":"Colombia","latitude":"5.21617000","longitude":"-73.59490000","wikiDataId":"Q1526073"},{"id":21613,"name":"Villeta","stateId":2875,"stateCode":"CUN","stateName":"Cundinamarca","countryId":48,"countryCode":"CO","countryName":"Colombia","latitude":"5.00008000","longitude":"-74.50498000","wikiDataId":"Q1440837"},{"id":21614,"name":"Viotá","stateId":2875,"stateCode":"CUN","stateName":"Cundinamarca","countryId":48,"countryCode":"CO","countryName":"Colombia","latitude":"4.43713000","longitude":"-74.52157000","wikiDataId":"Q1524864"},{"id":21619,"name":"Yacopí","stateId":2875,"stateCode":"CUN","stateName":"Cundinamarca","countryId":48,"countryCode":"CO","countryName":"Colombia","latitude":"5.45948000","longitude":"-74.33823000","wikiDataId":"Q1525351"},{"id":21635,"name":"Zipacón","stateId":2875,"stateCode":"CUN","stateName":"Cundinamarca","countryId":48,"countryCode":"CO","countryName":"Colombia","latitude":"4.75881000","longitude":"-74.38017000","wikiDataId":"Q1654791"},{"id":21636,"name":"Zipaquirá","stateId":2875,"stateCode":"CUN","stateName":"Cundinamarca","countryId":48,"countryCode":"CO","countryName":"Colombia","latitude":"5.02208000","longitude":"-74.00481000","wikiDataId":"Q205429"}]