[{"id":53439,"name":"Camotán","stateId":3666,"stateCode":"CQ","stateName":"Chiquimula Department","countryId":90,"countryCode":"GT","countryName":"Guatemala","latitude":"14.82017000","longitude":"-89.37224000","wikiDataId":"Q388686"},{"id":53455,"name":"Chiquimula","stateId":3666,"stateCode":"CQ","stateName":"Chiquimula Department","countryId":90,"countryCode":"GT","countryName":"Guatemala","latitude":"14.80000000","longitude":"-89.54583000","wikiDataId":"Q1025536"},{"id":53471,"name":"Concepción Las Minas","stateId":3666,"stateCode":"CQ","stateName":"Chiquimula Department","countryId":90,"countryCode":"GT","countryName":"Guatemala","latitude":"14.52173000","longitude":"-89.45717000","wikiDataId":"Q1954363"},{"id":53492,"name":"Esquipulas","stateId":3666,"stateCode":"CQ","stateName":"Chiquimula Department","countryId":90,"countryCode":"GT","countryName":"Guatemala","latitude":"14.56571000","longitude":"-89.35166000","wikiDataId":"Q3058634"},{"id":53505,"name":"Ipala","stateId":3666,"stateCode":"CQ","stateName":"Chiquimula Department","countryId":90,"countryCode":"GT","countryName":"Guatemala","latitude":"14.61667000","longitude":"-89.61667000","wikiDataId":"Q1748611"},{"id":53514,"name":"Jocotán","stateId":3666,"stateCode":"CQ","stateName":"Chiquimula Department","countryId":90,"countryCode":"GT","countryName":"Guatemala","latitude":"14.82072000","longitude":"-89.38991000","wikiDataId":"Q1954342"},{"id":53611,"name":"Olopa","stateId":3666,"stateCode":"CQ","stateName":"Chiquimula Department","countryId":90,"countryCode":"GT","countryName":"Guatemala","latitude":"14.69229000","longitude":"-89.35003000","wikiDataId":"Q2025333"},{"id":53639,"name":"Quezaltepeque","stateId":3666,"stateCode":"CQ","stateName":"Chiquimula Department","countryId":90,"countryCode":"GT","countryName":"Guatemala","latitude":"14.63553000","longitude":"-89.44241000","wikiDataId":"Q1981325"},{"id":53679,"name":"San Jacinto","stateId":3666,"stateCode":"CQ","stateName":"Chiquimula Department","countryId":90,"countryCode":"GT","countryName":"Guatemala","latitude":"14.66667000","longitude":"-89.50000000","wikiDataId":"Q978109"},{"id":53685,"name":"San José La Arada","stateId":3666,"stateCode":"CQ","stateName":"Chiquimula Department","countryId":90,"countryCode":"GT","countryName":"Guatemala","latitude":"14.71667000","longitude":"-89.58333000","wikiDataId":"Q1749098"},{"id":53695,"name":"San Juan Ermita","stateId":3666,"stateCode":"CQ","stateName":"Chiquimula Department","countryId":90,"countryCode":"GT","countryName":"Guatemala","latitude":"14.76471000","longitude":"-89.43014000","wikiDataId":"Q2025266"}]