[{"id":62289,"name":"12th Street","stateId":3742,"stateCode":"10","stateName":"Westmoreland Parish","countryId":108,"countryCode":"JM","countryName":"Jamaica","latitude":"18.21097000","longitude":"-78.13603000","wikiDataId":"Q18436859"},{"id":62310,"name":"Amity","stateId":3742,"stateCode":"10","stateName":"Westmoreland Parish","countryId":108,"countryCode":"JM","countryName":"Jamaica","latitude":"18.27361000","longitude":"-77.89805000","wikiDataId":"Q4732659"},{"id":62320,"name":"Ashton","stateId":3742,"stateCode":"10","stateName":"Westmoreland Parish","countryId":108,"countryCode":"JM","countryName":"Jamaica","latitude":"18.23139000","longitude":"-77.92074000","wikiDataId":"Q567350"},{"id":62336,"name":"Barneyside","stateId":3742,"stateCode":"10","stateName":"Westmoreland Parish","countryId":108,"countryCode":"JM","countryName":"Jamaica","latitude":"18.27670000","longitude":"-77.96964000","wikiDataId":"Q1880599"},{"id":62340,"name":"Bath","stateId":3742,"stateCode":"10","stateName":"Westmoreland Parish","countryId":108,"countryCode":"JM","countryName":"Jamaica","latitude":"18.25734000","longitude":"-78.11751000","wikiDataId":"Q1880599"},{"id":62341,"name":"Bath Mountain","stateId":3742,"stateCode":"10","stateName":"Westmoreland Parish","countryId":108,"countryCode":"JM","countryName":"Jamaica","latitude":"18.34428000","longitude":"-78.09928000","wikiDataId":"Q1880599"},{"id":62343,"name":"Beaufort","stateId":3742,"stateCode":"10","stateName":"Westmoreland Parish","countryId":108,"countryCode":"JM","countryName":"Jamaica","latitude":"18.23417000","longitude":"-77.95007000","wikiDataId":"Q1880599"},{"id":62346,"name":"Beeston Spring","stateId":3742,"stateCode":"10","stateName":"Westmoreland Parish","countryId":108,"countryCode":"JM","countryName":"Jamaica","latitude":"18.16012000","longitude":"-77.97545000","wikiDataId":"Q1880599"},{"id":62350,"name":"Belvedere","stateId":3742,"stateCode":"10","stateName":"Westmoreland Parish","countryId":108,"countryCode":"JM","countryName":"Jamaica","latitude":"18.25219000","longitude":"-77.93208000","wikiDataId":"Q1880599"},{"id":62353,"name":"Berkshire","stateId":3742,"stateCode":"10","stateName":"Westmoreland Parish","countryId":108,"countryCode":"JM","countryName":"Jamaica","latitude":"18.21293000","longitude":"-77.90373000","wikiDataId":"Q1880599"},{"id":62356,"name":"Bethel Town","stateId":3742,"stateCode":"10","stateName":"Westmoreland Parish","countryId":108,"countryCode":"JM","countryName":"Jamaica","latitude":"18.29503000","longitude":"-77.95112000","wikiDataId":"Q4897936"},{"id":62359,"name":"Big Bridge","stateId":3742,"stateCode":"10","stateName":"Westmoreland Parish","countryId":108,"countryCode":"JM","countryName":"Jamaica","latitude":"18.23318000","longitude":"-78.16717000","wikiDataId":"Q4897936"},{"id":62367,"name":"Bluefields","stateId":3742,"stateCode":"10","stateName":"Westmoreland Parish","countryId":108,"countryCode":"JM","countryName":"Jamaica","latitude":"18.16602000","longitude":"-78.02702000","wikiDataId":"Q522341"},{"id":62368,"name":"Bog","stateId":3742,"stateCode":"10","stateName":"Westmoreland Parish","countryId":108,"countryCode":"JM","countryName":"Jamaica","latitude":"18.15631000","longitude":"-77.94364000","wikiDataId":"Q522341"},{"id":62394,"name":"Broughton","stateId":3742,"stateCode":"10","stateName":"Westmoreland Parish","countryId":108,"countryCode":"JM","countryName":"Jamaica","latitude":"18.21747000","longitude":"-78.22894000","wikiDataId":"Q890358"},{"id":62404,"name":"Burnt Savannah","stateId":3742,"stateCode":"10","stateName":"Westmoreland Parish","countryId":108,"countryCode":"JM","countryName":"Jamaica","latitude":"18.31676000","longitude":"-78.12628000","wikiDataId":"Q1001895"},{"id":62411,"name":"Cairn Curran","stateId":3742,"stateCode":"10","stateName":"Westmoreland Parish","countryId":108,"countryCode":"JM","countryName":"Jamaica","latitude":"18.22840000","longitude":"-78.01130000","wikiDataId":"Q1001895"},{"id":62413,"name":"Caledonia","stateId":3742,"stateCode":"10","stateName":"Westmoreland Parish","countryId":108,"countryCode":"JM","countryName":"Jamaica","latitude":"18.25866000","longitude":"-78.01173000","wikiDataId":"Q1001895"},{"id":62420,"name":"Carmel","stateId":3742,"stateCode":"10","stateName":"Westmoreland Parish","countryId":108,"countryCode":"JM","countryName":"Jamaica","latitude":"18.17326000","longitude":"-77.93929000","wikiDataId":"Q1001895"},{"id":62434,"name":"Cave","stateId":3742,"stateCode":"10","stateName":"Westmoreland Parish","countryId":108,"countryCode":"JM","countryName":"Jamaica","latitude":"18.21019000","longitude":"-78.04070000","wikiDataId":"Q1001895"},{"id":62445,"name":"Chantilly","stateId":3742,"stateCode":"10","stateName":"Westmoreland Parish","countryId":108,"countryCode":"JM","countryName":"Jamaica","latitude":"18.23059000","longitude":"-78.12462000","wikiDataId":"Q1001895"},{"id":62475,"name":"Content","stateId":3742,"stateCode":"10","stateName":"Westmoreland Parish","countryId":108,"countryCode":"JM","countryName":"Jamaica","latitude":"18.18288000","longitude":"-77.99915000","wikiDataId":"Q1127696"},{"id":62482,"name":"Cornwall Mountian","stateId":3742,"stateCode":"10","stateName":"Westmoreland Parish","countryId":108,"countryCode":"JM","countryName":"Jamaica","latitude":"18.28722000","longitude":"-77.98674000","wikiDataId":"Q1127696"},{"id":62503,"name":"Darliston","stateId":3742,"stateCode":"10","stateName":"Westmoreland Parish","countryId":108,"countryCode":"JM","countryName":"Jamaica","latitude":"18.23731000","longitude":"-77.97626000","wikiDataId":"Q1166379"},{"id":62508,"name":"Delveland","stateId":3742,"stateCode":"10","stateName":"Westmoreland Parish","countryId":108,"countryCode":"JM","countryName":"Jamaica","latitude":"18.29709000","longitude":"-78.23962000","wikiDataId":"Q1166379"},{"id":62513,"name":"Dillion Bigwoods","stateId":3742,"stateCode":"10","stateName":"Westmoreland Parish","countryId":108,"countryCode":"JM","countryName":"Jamaica","latitude":"18.20944000","longitude":"-77.99078000","wikiDataId":"Q1166379"},{"id":62527,"name":"Dundee","stateId":3742,"stateCode":"10","stateName":"Westmoreland Parish","countryId":108,"countryCode":"JM","countryName":"Jamaica","latitude":"18.23679000","longitude":"-77.88698000","wikiDataId":"Q1265469"},{"id":62538,"name":"Enfield","stateId":3742,"stateCode":"10","stateName":"Westmoreland Parish","countryId":108,"countryCode":"JM","countryName":"Jamaica","latitude":"18.21404000","longitude":"-77.95270000","wikiDataId":"Q1265469"},{"id":62553,"name":"Ferris","stateId":3742,"stateCode":"10","stateName":"Westmoreland Parish","countryId":108,"countryCode":"JM","countryName":"Jamaica","latitude":"18.22265000","longitude":"-78.05588000","wikiDataId":"Q1394786"},{"id":62564,"name":"Fort Williams","stateId":3742,"stateCode":"10","stateName":"Westmoreland Parish","countryId":108,"countryCode":"JM","countryName":"Jamaica","latitude":"18.29834000","longitude":"-78.06331000","wikiDataId":"Q1394786"},{"id":62574,"name":"Frome","stateId":3742,"stateCode":"10","stateName":"Westmoreland Parish","countryId":108,"countryCode":"JM","countryName":"Jamaica","latitude":"18.27974000","longitude":"-78.14903000","wikiDataId":"Q1394786"},{"id":62576,"name":"Fullersfield","stateId":3742,"stateCode":"10","stateName":"Westmoreland Parish","countryId":108,"countryCode":"JM","countryName":"Jamaica","latitude":"18.29890000","longitude":"-78.19976000","wikiDataId":"Q1394786"},{"id":62582,"name":"Georges Plain","stateId":3742,"stateCode":"10","stateName":"Westmoreland Parish","countryId":108,"countryCode":"JM","countryName":"Jamaica","latitude":"18.27650000","longitude":"-78.13118000","wikiDataId":"Q1394786"},{"id":62596,"name":"Gooden's River","stateId":3742,"stateCode":"10","stateName":"Westmoreland Parish","countryId":108,"countryCode":"JM","countryName":"Jamaica","latitude":"18.24223000","longitude":"-78.12840000","wikiDataId":"Q1394786"},{"id":62600,"name":"Grange","stateId":3742,"stateCode":"10","stateName":"Westmoreland Parish","countryId":108,"countryCode":"JM","countryName":"Jamaica","latitude":"18.33161000","longitude":"-78.08036000","wikiDataId":"Q1394786"},{"id":62601,"name":"Grange Hill","stateId":3742,"stateCode":"10","stateName":"Westmoreland Parish","countryId":108,"countryCode":"JM","countryName":"Jamaica","latitude":"18.33083000","longitude":"-78.18398000","wikiDataId":"Q1394786"},{"id":62621,"name":"Haddo","stateId":3742,"stateCode":"10","stateName":"Westmoreland Parish","countryId":108,"countryCode":"JM","countryName":"Jamaica","latitude":"18.28606000","longitude":"-78.01893000","wikiDataId":"Q1394786"},{"id":62634,"name":"Harmony Town","stateId":3742,"stateCode":"10","stateName":"Westmoreland Parish","countryId":108,"countryCode":"JM","countryName":"Jamaica","latitude":"18.21987000","longitude":"-78.13687000","wikiDataId":"Q1423367"},{"id":62645,"name":"Hertford","stateId":3742,"stateCode":"10","stateName":"Westmoreland Parish","countryId":108,"countryCode":"JM","countryName":"Jamaica","latitude":"18.27181000","longitude":"-78.09078000","wikiDataId":"Q1008008"},{"id":62673,"name":"Jerusalem","stateId":3742,"stateCode":"10","stateName":"Westmoreland Parish","countryId":108,"countryCode":"JM","countryName":"Jamaica","latitude":"18.32458000","longitude":"-78.21563000","wikiDataId":"Q1008008"},{"id":62688,"name":"Kentucky","stateId":3742,"stateCode":"10","stateName":"Westmoreland Parish","countryId":108,"countryCode":"JM","countryName":"Jamaica","latitude":"18.19931000","longitude":"-78.01767000","wikiDataId":"Q1008008"},{"id":62690,"name":"Kilmarnoch","stateId":3742,"stateCode":"10","stateName":"Westmoreland Parish","countryId":108,"countryCode":"JM","countryName":"Jamaica","latitude":"18.12407000","longitude":"-77.92774000","wikiDataId":"Q1008008"},{"id":62700,"name":"Lambs River","stateId":3742,"stateCode":"10","stateName":"Westmoreland Parish","countryId":108,"countryCode":"JM","countryName":"Jamaica","latitude":"18.26823000","longitude":"-77.91414000","wikiDataId":"Q34692"},{"id":62704,"name":"Leamington","stateId":3742,"stateCode":"10","stateName":"Westmoreland Parish","countryId":108,"countryCode":"JM","countryName":"Jamaica","latitude":"18.21352000","longitude":"-77.92743000","wikiDataId":"Q34692"},{"id":62707,"name":"Lenox Bigwoods","stateId":3742,"stateCode":"10","stateName":"Westmoreland Parish","countryId":108,"countryCode":"JM","countryName":"Jamaica","latitude":"18.21392000","longitude":"-77.97214000","wikiDataId":"Q34692"},{"id":62718,"name":"Little London","stateId":3742,"stateCode":"10","stateName":"Westmoreland Parish","countryId":108,"countryCode":"JM","countryName":"Jamaica","latitude":"18.24523000","longitude":"-78.22653000","wikiDataId":"Q1827268"},{"id":62720,"name":"Llandilo","stateId":3742,"stateCode":"10","stateName":"Westmoreland Parish","countryId":108,"countryCode":"JM","countryName":"Jamaica","latitude":"18.23439000","longitude":"-78.13895000","wikiDataId":"Q1827268"},{"id":62736,"name":"Mackfield","stateId":3742,"stateCode":"10","stateName":"Westmoreland Parish","countryId":108,"countryCode":"JM","countryName":"Jamaica","latitude":"18.31163000","longitude":"-78.02471000","wikiDataId":"Q1632220"},{"id":62768,"name":"Mearnsville","stateId":3742,"stateCode":"10","stateName":"Westmoreland Parish","countryId":108,"countryCode":"JM","countryName":"Jamaica","latitude":"18.18856000","longitude":"-78.02870000","wikiDataId":"Q1677434"},{"id":62792,"name":"Mount Airy","stateId":3742,"stateCode":"10","stateName":"Westmoreland Parish","countryId":108,"countryCode":"JM","countryName":"Jamaica","latitude":"18.24738000","longitude":"-78.32279000","wikiDataId":"Q429741"},{"id":62802,"name":"Mount Stewart","stateId":3742,"stateCode":"10","stateName":"Westmoreland Parish","countryId":108,"countryCode":"JM","countryName":"Jamaica","latitude":"18.30411000","longitude":"-77.99274000","wikiDataId":"Q429741"},{"id":62811,"name":"Negril","stateId":3742,"stateCode":"10","stateName":"Westmoreland Parish","countryId":108,"countryCode":"JM","countryName":"Jamaica","latitude":"18.26844000","longitude":"-78.34810000","wikiDataId":"Q974239"},{"id":62819,"name":"New Market Oval","stateId":3742,"stateCode":"10","stateName":"Westmoreland Parish","countryId":108,"countryCode":"JM","countryName":"Jamaica","latitude":"18.21370000","longitude":"-78.13813000","wikiDataId":"Q3338970"},{"id":62821,"name":"New Roads","stateId":3742,"stateCode":"10","stateName":"Westmoreland Parish","countryId":108,"countryCode":"JM","countryName":"Jamaica","latitude":"18.19124000","longitude":"-77.93608000","wikiDataId":"Q3338970"},{"id":62822,"name":"New Works","stateId":3742,"stateCode":"10","stateName":"Westmoreland Parish","countryId":108,"countryCode":"JM","countryName":"Jamaica","latitude":"18.17248000","longitude":"-77.96645000","wikiDataId":"Q3338970"},{"id":62845,"name":"Orange Hill","stateId":3742,"stateCode":"10","stateName":"Westmoreland Parish","countryId":108,"countryCode":"JM","countryName":"Jamaica","latitude":"18.23418000","longitude":"-78.30277000","wikiDataId":"Q7099213"},{"id":62868,"name":"Paul Island","stateId":3742,"stateCode":"10","stateName":"Westmoreland Parish","countryId":108,"countryCode":"JM","countryName":"Jamaica","latitude":"18.27200000","longitude":"-78.18614000","wikiDataId":"Q7099213"},{"id":62879,"name":"Petersfield","stateId":3742,"stateCode":"10","stateName":"Westmoreland Parish","countryId":108,"countryCode":"JM","countryName":"Jamaica","latitude":"18.26588000","longitude":"-78.05755000","wikiDataId":"Q7099213"},{"id":62880,"name":"Petersville","stateId":3742,"stateCode":"10","stateName":"Westmoreland Parish","countryId":108,"countryCode":"JM","countryName":"Jamaica","latitude":"18.13700000","longitude":"-77.95046000","wikiDataId":"Q7099213"},{"id":62896,"name":"Porters Mountain","stateId":3742,"stateCode":"10","stateName":"Westmoreland Parish","countryId":108,"countryCode":"JM","countryName":"Jamaica","latitude":"18.32909000","longitude":"-78.04910000","wikiDataId":"Q685357"},{"id":62916,"name":"Red Hills","stateId":3742,"stateCode":"10","stateName":"Westmoreland Parish","countryId":108,"countryCode":"JM","countryName":"Jamaica","latitude":"18.30550000","longitude":"-78.11280000","wikiDataId":"Q2125159"},{"id":62927,"name":"Revival","stateId":3742,"stateCode":"10","stateName":"Westmoreland Parish","countryId":108,"countryCode":"JM","countryName":"Jamaica","latitude":"18.24255000","longitude":"-78.28437000","wikiDataId":"Q2125159"},{"id":62939,"name":"Roaring River","stateId":3742,"stateCode":"10","stateName":"Westmoreland Parish","countryId":108,"countryCode":"JM","countryName":"Jamaica","latitude":"18.30118000","longitude":"-78.04324000","wikiDataId":"Q2125159"},{"id":62961,"name":"Russia","stateId":3742,"stateCode":"10","stateName":"Westmoreland Parish","countryId":108,"countryCode":"JM","countryName":"Jamaica","latitude":"18.21649000","longitude":"-78.12361000","wikiDataId":"Q2175977"},{"id":62973,"name":"Savanna-la-Mar","stateId":3742,"stateCode":"10","stateName":"Westmoreland Parish","countryId":108,"countryCode":"JM","countryName":"Jamaica","latitude":"18.21895000","longitude":"-78.13320000","wikiDataId":"Q305508"},{"id":62974,"name":"Savannah-la-mar Business Dist.","stateId":3742,"stateCode":"10","stateName":"Westmoreland Parish","countryId":108,"countryCode":"JM","countryName":"Jamaica","latitude":"18.21962000","longitude":"-78.13034000","wikiDataId":"Q305508"},{"id":62979,"name":"Seaford Town","stateId":3742,"stateCode":"10","stateName":"Westmoreland Parish","countryId":108,"countryCode":"JM","countryName":"Jamaica","latitude":"18.24339000","longitude":"-77.90504000","wikiDataId":"Q305508"},{"id":62981,"name":"Seaton Crescent","stateId":3742,"stateCode":"10","stateName":"Westmoreland Parish","countryId":108,"countryCode":"JM","countryName":"Jamaica","latitude":"18.21675000","longitude":"-78.13603000","wikiDataId":"Q305508"},{"id":62987,"name":"Shefield","stateId":3742,"stateCode":"10","stateName":"Westmoreland Parish","countryId":108,"countryCode":"JM","countryName":"Jamaica","latitude":"18.28412000","longitude":"-78.29169000","wikiDataId":"Q305508"},{"id":62991,"name":"Shoalin Grotto","stateId":3742,"stateCode":"10","stateName":"Westmoreland Parish","countryId":108,"countryCode":"JM","countryName":"Jamaica","latitude":"18.22059000","longitude":"-78.14019000","wikiDataId":"Q305508"},{"id":62997,"name":"Smithfield","stateId":3742,"stateCode":"10","stateName":"Westmoreland Parish","countryId":108,"countryCode":"JM","countryName":"Jamaica","latitude":"18.22275000","longitude":"-78.08785000","wikiDataId":"Q305508"},{"id":63023,"name":"St. Leonards","stateId":3742,"stateCode":"10","stateName":"Westmoreland Parish","countryId":108,"countryCode":"JM","countryName":"Jamaica","latitude":"18.25533000","longitude":"-77.88889000","wikiDataId":"Q846939"},{"id":63034,"name":"Strathbogie","stateId":3742,"stateCode":"10","stateName":"Westmoreland Parish","countryId":108,"countryCode":"JM","countryName":"Jamaica","latitude":"18.23855000","longitude":"-78.11714000","wikiDataId":"Q1651059"},{"id":63035,"name":"Strawberry","stateId":3742,"stateCode":"10","stateName":"Westmoreland Parish","countryId":108,"countryCode":"JM","countryName":"Jamaica","latitude":"18.30676000","longitude":"-78.08945000","wikiDataId":"Q1651059"},{"id":63036,"name":"Struie","stateId":3742,"stateCode":"10","stateName":"Westmoreland Parish","countryId":108,"countryCode":"JM","countryName":"Jamaica","latitude":"18.25317000","longitude":"-77.95656000","wikiDataId":"Q1651059"},{"id":63050,"name":"Three Mile River","stateId":3742,"stateCode":"10","stateName":"Westmoreland Parish","countryId":108,"countryCode":"JM","countryName":"Jamaica","latitude":"18.25706000","longitude":"-78.14275000","wikiDataId":"Q1651059"},{"id":63058,"name":"Town Head","stateId":3742,"stateCode":"10","stateName":"Westmoreland Parish","countryId":108,"countryCode":"JM","countryName":"Jamaica","latitude":"18.33898000","longitude":"-78.13569000","wikiDataId":"Q1651059"},{"id":63069,"name":"Truro","stateId":3742,"stateCode":"10","stateName":"Westmoreland Parish","countryId":108,"countryCode":"JM","countryName":"Jamaica","latitude":"18.31301000","longitude":"-78.15489000","wikiDataId":"Q1651059"},{"id":63088,"name":"Water Works","stateId":3742,"stateCode":"10","stateName":"Westmoreland Parish","countryId":108,"countryCode":"JM","countryName":"Jamaica","latitude":"18.23319000","longitude":"-78.04296000","wikiDataId":"Q1651059"},{"id":63103,"name":"Whitehouse","stateId":3742,"stateCode":"10","stateName":"Westmoreland Parish","countryId":108,"countryCode":"JM","countryName":"Jamaica","latitude":"18.10275000","longitude":"-77.95697000","wikiDataId":"Q1651059"},{"id":63105,"name":"Whithorn","stateId":3742,"stateCode":"10","stateName":"Westmoreland Parish","countryId":108,"countryCode":"JM","countryName":"Jamaica","latitude":"18.27111000","longitude":"-78.03811000","wikiDataId":"Q1651059"},{"id":63106,"name":"Williamsfield","stateId":3742,"stateCode":"10","stateName":"Westmoreland Parish","countryId":108,"countryCode":"JM","countryName":"Jamaica","latitude":"18.33393000","longitude":"-78.06957000","wikiDataId":"Q1651059"}]