[{"id":52186,"name":"Kpandae","stateId":51,"stateCode":"NP","stateName":"Northern","countryId":83,"countryCode":"GH","countryName":"Ghana","latitude":"8.46885000","longitude":"-0.01127000","wikiDataId":"Q1016732"},{"id":52198,"name":"Salaga","stateId":51,"stateCode":"NP","stateName":"Northern","countryId":83,"countryCode":"GH","countryName":"Ghana","latitude":"8.55083000","longitude":"-0.51875000","wikiDataId":"Q995578"},{"id":52200,"name":"Savelugu","stateId":51,"stateCode":"NP","stateName":"Northern","countryId":83,"countryCode":"GH","countryName":"Ghana","latitude":"9.62441000","longitude":"-0.82530000","wikiDataId":"Q2228059"},{"id":52208,"name":"Tamale","stateId":51,"stateCode":"NP","stateName":"Northern","countryId":83,"countryCode":"GH","countryName":"Ghana","latitude":"9.40079000","longitude":"-0.83930000","wikiDataId":"Q7674984"},{"id":52216,"name":"Yendi","stateId":51,"stateCode":"NP","stateName":"Northern","countryId":83,"countryCode":"GH","countryName":"Ghana","latitude":"9.44272000","longitude":"-0.00991000","wikiDataId":"Q639066"}]