[{"id":130030,"name":"Biabou","stateId":3389,"stateCode":"01","stateName":"Charlotte Parish","countryId":188,"countryCode":"VC","countryName":"Saint Vincent And The Grenadines","latitude":"13.19430000","longitude":"-61.13904000","wikiDataId":"Q767607"},{"id":130031,"name":"Byera Village","stateId":3389,"stateCode":"01","stateName":"Charlotte Parish","countryId":188,"countryCode":"VC","countryName":"Saint Vincent And The Grenadines","latitude":"13.25636000","longitude":"-61.11954000","wikiDataId":"Q5004057"},{"id":130033,"name":"Georgetown","stateId":3389,"stateCode":"01","stateName":"Charlotte Parish","countryId":188,"countryCode":"VC","countryName":"Saint Vincent And The Grenadines","latitude":"13.28054000","longitude":"-61.11850000","wikiDataId":"Q2495209"},{"id":130037,"name":"Port Elizabeth","stateId":3388,"stateCode":"06","stateName":"Grenadines Parish","countryId":188,"countryCode":"VC","countryName":"Saint Vincent And The Grenadines","latitude":"13.01102000","longitude":"-61.23548000","wikiDataId":"Q2995389"},{"id":130036,"name":"Layou","stateId":3386,"stateCode":"02","stateName":"Saint Andrew Parish","countryId":188,"countryCode":"VC","countryName":"Saint Vincent And The Grenadines","latitude":"13.20175000","longitude":"-61.27014000","wikiDataId":"Q2630835"},{"id":130032,"name":"Chateaubelair","stateId":3387,"stateCode":"03","stateName":"Saint David Parish","countryId":188,"countryCode":"VC","countryName":"Saint Vincent And The Grenadines","latitude":"13.29069000","longitude":"-61.24043000","wikiDataId":"Q672197"},{"id":130034,"name":"Kingstown","stateId":3384,"stateCode":"04","stateName":"Saint George Parish","countryId":188,"countryCode":"VC","countryName":"Saint Vincent And The Grenadines","latitude":"13.15527000","longitude":"-61.22742000","wikiDataId":"Q41474"},{"id":130035,"name":"Kingstown Park","stateId":3384,"stateCode":"04","stateName":"Saint George Parish","countryId":188,"countryCode":"VC","countryName":"Saint Vincent And The Grenadines","latitude":"13.15924000","longitude":"-61.23161000","wikiDataId":"Q41474"},{"id":130029,"name":"Barrouallie","stateId":3385,"stateCode":"05","stateName":"Saint Patrick Parish","countryId":188,"countryCode":"VC","countryName":"Saint Vincent And The Grenadines","latitude":"13.23676000","longitude":"-61.27275000","wikiDataId":"Q2885705"}]