[{"id":153638,"name":"Lifou","stateId":5227,"stateCode":"03","stateName":"Loyalty Islands Province","countryId":157,"countryCode":"NC","countryName":"New Caledonia","latitude":"-20.96670000","longitude":"167.23330000","wikiDataId":"Q9728"},{"id":153639,"name":"Maré","stateId":5227,"stateCode":"03","stateName":"Loyalty Islands Province","countryId":157,"countryCode":"NC","countryName":"New Caledonia","latitude":"-21.51670000","longitude":"167.98330000","wikiDataId":"Q9729"},{"id":153637,"name":"Houaïlou","stateId":5226,"stateCode":"02","stateName":"North Province","countryId":157,"countryCode":"NC","countryName":"New Caledonia","latitude":"-21.29090000","longitude":"165.62170000","wikiDataId":"Q9716"},{"id":153635,"name":"Koné","stateId":5226,"stateCode":"02","stateName":"North Province","countryId":157,"countryCode":"NC","countryName":"New Caledonia","latitude":"-21.05900000","longitude":"164.85180000","wikiDataId":"Q9721"},{"id":153636,"name":"Poindimié","stateId":5226,"stateCode":"02","stateName":"North Province","countryId":157,"countryCode":"NC","countryName":"New Caledonia","latitude":"-20.94960000","longitude":"165.32930000","wikiDataId":"Q9740"},{"id":153634,"name":"Bourail","stateId":5225,"stateCode":"01","stateName":"South Province","countryId":157,"countryCode":"NC","countryName":"New Caledonia","latitude":"-21.57010000","longitude":"165.48040000","wikiDataId":"Q9709"},{"id":153632,"name":"Dumbéa","stateId":5225,"stateCode":"01","stateName":"South Province","countryId":157,"countryCode":"NC","countryName":"New Caledonia","latitude":"-22.15000000","longitude":"166.45000000","wikiDataId":"Q597896"},{"id":153631,"name":"Le Mont-Dore","stateId":5225,"stateCode":"01","stateName":"South Province","countryId":157,"countryCode":"NC","countryName":"New Caledonia","latitude":"-22.21570000","longitude":"166.46650000","wikiDataId":"Q9732"},{"id":153630,"name":"Nouméa","stateId":5225,"stateCode":"01","stateName":"South Province","countryId":157,"countryCode":"NC","countryName":"New Caledonia","latitude":"-22.27580000","longitude":"166.45800000","wikiDataId":"Q9733"},{"id":153633,"name":"Païta","stateId":5225,"stateCode":"01","stateName":"South Province","countryId":157,"countryCode":"NC","countryName":"New Caledonia","latitude":"-22.13370000","longitude":"166.35050000","wikiDataId":"Q9737"}]