[{"id":4023,"name":"Andaman and Nicobar Islands","countryId":101,"countryCode":"IN","countryName":"India","stateCode":"AN","type":"Union territory","latitude":"11.74008670","longitude":"92.65864010"},{"id":4017,"name":"Andhra Pradesh","countryId":101,"countryCode":"IN","countryName":"India","stateCode":"AP","type":"state","latitude":"15.91289980","longitude":"79.73998750"},{"id":4024,"name":"Arunachal Pradesh","countryId":101,"countryCode":"IN","countryName":"India","stateCode":"AR","type":"state","latitude":"28.21799940","longitude":"94.72775280"},{"id":4027,"name":"Assam","countryId":101,"countryCode":"IN","countryName":"India","stateCode":"AS","type":"state","latitude":"26.20060430","longitude":"92.93757390"},{"id":4037,"name":"Bihar","countryId":101,"countryCode":"IN","countryName":"India","stateCode":"BR","type":"state","latitude":"25.09607420","longitude":"85.31311940"},{"id":4031,"name":"Chandigarh","countryId":101,"countryCode":"IN","countryName":"India","stateCode":"CH","type":"Union territory","latitude":"30.73331480","longitude":"76.77941790"},{"id":4040,"name":"Chhattisgarh","countryId":101,"countryCode":"IN","countryName":"India","stateCode":"CT","type":"state","latitude":"21.27865670","longitude":"81.86614420"},{"id":4033,"name":"Dadra and Nagar Haveli and Daman and Diu","countryId":101,"countryCode":"IN","countryName":"India","stateCode":"DH","type":"Union territory","latitude":"20.39737360","longitude":"72.83279910"},{"id":4021,"name":"Delhi","countryId":101,"countryCode":"IN","countryName":"India","stateCode":"DL","type":"Union territory","latitude":"28.70405920","longitude":"77.10249020"},{"id":4009,"name":"Goa","countryId":101,"countryCode":"IN","countryName":"India","stateCode":"GA","type":"state","latitude":"15.29932650","longitude":"74.12399600"},{"id":4030,"name":"Gujarat","countryId":101,"countryCode":"IN","countryName":"India","stateCode":"GJ","type":"state","latitude":"22.25865200","longitude":"71.19238050"},{"id":4007,"name":"Haryana","countryId":101,"countryCode":"IN","countryName":"India","stateCode":"HR","type":"state","latitude":"29.05877570","longitude":"76.08560100"},{"id":4020,"name":"Himachal Pradesh","countryId":101,"countryCode":"IN","countryName":"India","stateCode":"HP","type":"state","latitude":"31.10482940","longitude":"77.17339010"},{"id":4029,"name":"Jammu and Kashmir","countryId":101,"countryCode":"IN","countryName":"India","stateCode":"JK","type":"Union territory","latitude":"33.27783900","longitude":"75.34121790"},{"id":4025,"name":"Jharkhand","countryId":101,"countryCode":"IN","countryName":"India","stateCode":"JH","type":"state","latitude":"23.61018080","longitude":"85.27993540"},{"id":4026,"name":"Karnataka","countryId":101,"countryCode":"IN","countryName":"India","stateCode":"KA","type":"state","latitude":"15.31727750","longitude":"75.71388840"},{"id":4028,"name":"Kerala","countryId":101,"countryCode":"IN","countryName":"India","stateCode":"KL","type":"state","latitude":"10.85051590","longitude":"76.27108330"},{"id":4852,"name":"Ladakh","countryId":101,"countryCode":"IN","countryName":"India","stateCode":"LA","type":"Union territory","latitude":"34.22684750","longitude":"77.56194190"},{"id":4019,"name":"Lakshadweep","countryId":101,"countryCode":"IN","countryName":"India","stateCode":"LD","type":"Union territory","latitude":"10.32802650","longitude":"72.78463360"},{"id":4039,"name":"Madhya Pradesh","countryId":101,"countryCode":"IN","countryName":"India","stateCode":"MP","type":"state","latitude":"22.97342290","longitude":"78.65689420"},{"id":4008,"name":"Maharashtra","countryId":101,"countryCode":"IN","countryName":"India","stateCode":"MH","type":"state","latitude":"19.75147980","longitude":"75.71388840"},{"id":4010,"name":"Manipur","countryId":101,"countryCode":"IN","countryName":"India","stateCode":"MN","type":"state","latitude":"24.66371730","longitude":"93.90626880"},{"id":4006,"name":"Meghalaya","countryId":101,"countryCode":"IN","countryName":"India","stateCode":"ML","type":"state","latitude":"25.46703080","longitude":"91.36621600"},{"id":4036,"name":"Mizoram","countryId":101,"countryCode":"IN","countryName":"India","stateCode":"MZ","type":"state","latitude":"23.16454300","longitude":"92.93757390"},{"id":4018,"name":"Nagaland","countryId":101,"countryCode":"IN","countryName":"India","stateCode":"NL","type":"state","latitude":"26.15843540","longitude":"94.56244260"},{"id":4013,"name":"Odisha","countryId":101,"countryCode":"IN","countryName":"India","stateCode":"OR","type":"state","latitude":"20.95166580","longitude":"85.09852360"},{"id":4011,"name":"Puducherry","countryId":101,"countryCode":"IN","countryName":"India","stateCode":"PY","type":"Union territory","latitude":"11.94159150","longitude":"79.80831330"},{"id":4015,"name":"Punjab","countryId":101,"countryCode":"IN","countryName":"India","stateCode":"PB","type":"state","latitude":"31.14713050","longitude":"75.34121790"},{"id":4014,"name":"Rajasthan","countryId":101,"countryCode":"IN","countryName":"India","stateCode":"RJ","type":"state","latitude":"27.02380360","longitude":"74.21793260"},{"id":4034,"name":"Sikkim","countryId":101,"countryCode":"IN","countryName":"India","stateCode":"SK","type":"state","latitude":"27.53297180","longitude":"88.51221780"},{"id":4035,"name":"Tamil Nadu","countryId":101,"countryCode":"IN","countryName":"India","stateCode":"TN","type":"state","latitude":"11.12712250","longitude":"78.65689420"},{"id":4012,"name":"Telangana","countryId":101,"countryCode":"IN","countryName":"India","stateCode":"TG","type":"state","latitude":"18.11243720","longitude":"79.01929970"},{"id":4038,"name":"Tripura","countryId":101,"countryCode":"IN","countryName":"India","stateCode":"TR","type":"state","latitude":"23.94084820","longitude":"91.98815270"},{"id":4022,"name":"Uttar Pradesh","countryId":101,"countryCode":"IN","countryName":"India","stateCode":"UP","type":"state","latitude":"26.84670880","longitude":"80.94615920"},{"id":4016,"name":"Uttarakhand","countryId":101,"countryCode":"IN","countryName":"India","stateCode":"UT","type":"state","latitude":"30.06675300","longitude":"79.01929970"},{"id":4853,"name":"West Bengal","countryId":101,"countryCode":"IN","countryName":"India","stateCode":"WB","type":"state","latitude":"22.98675690","longitude":"87.85497550"}]