[{"id":77298,"name":"'s-Gravenland","stateId":2614,"stateCode":"ZH","stateName":"South Holland","countryId":156,"countryCode":"NL","countryName":"Netherlands","latitude":"51.92336000","longitude":"4.55315000","wikiDataId":"Q2517974"},{"id":77299,"name":"'s-Gravenzande","stateId":2614,"stateCode":"ZH","stateName":"South Holland","countryId":156,"countryCode":"NL","countryName":"Netherlands","latitude":"52.00167000","longitude":"4.16528000","wikiDataId":"Q425786"},{"id":77317,"name":"Adegeest","stateId":2614,"stateCode":"ZH","stateName":"South Holland","countryId":156,"countryCode":"NL","countryName":"Netherlands","latitude":"52.13621000","longitude":"4.45249000","wikiDataId":"Q969"},{"id":77322,"name":"Alblasserdam","stateId":2614,"stateCode":"ZH","stateName":"South Holland","countryId":156,"countryCode":"NL","countryName":"Netherlands","latitude":"51.86583000","longitude":"4.66111000","wikiDataId":"Q2250527"},{"id":77330,"name":"Alphen aan den Rijn","stateId":2614,"stateCode":"ZH","stateName":"South Holland","countryId":156,"countryCode":"NL","countryName":"Netherlands","latitude":"52.12917000","longitude":"4.65546000","wikiDataId":"Q15156199"},{"id":77336,"name":"Ammerstol","stateId":2614,"stateCode":"ZH","stateName":"South Holland","countryId":156,"countryCode":"NL","countryName":"Netherlands","latitude":"51.92750000","longitude":"4.80833000","wikiDataId":"Q2366824"},{"id":77354,"name":"Arkel","stateId":2614,"stateCode":"ZH","stateName":"South Holland","countryId":156,"countryCode":"NL","countryName":"Netherlands","latitude":"51.86417000","longitude":"4.99444000","wikiDataId":"Q1165364"},{"id":77379,"name":"Barendrecht","stateId":2614,"stateCode":"ZH","stateName":"South Holland","countryId":156,"countryCode":"NL","countryName":"Netherlands","latitude":"51.85667000","longitude":"4.53472000","wikiDataId":"Q100002"},{"id":77403,"name":"Benthuizen","stateId":2614,"stateCode":"ZH","stateName":"South Holland","countryId":156,"countryCode":"NL","countryName":"Netherlands","latitude":"52.07750000","longitude":"4.54444000","wikiDataId":"Q818270"},{"id":77411,"name":"Bergschenhoek","stateId":2614,"stateCode":"ZH","stateName":"South Holland","countryId":156,"countryCode":"NL","countryName":"Netherlands","latitude":"51.99000000","longitude":"4.49861000","wikiDataId":"Q820175"},{"id":77412,"name":"Bergstoep","stateId":2614,"stateCode":"ZH","stateName":"South Holland","countryId":156,"countryCode":"NL","countryName":"Netherlands","latitude":"51.92250000","longitude":"4.78472000","wikiDataId":"Q2717671"},{"id":77414,"name":"Berkel en Rodenrijs","stateId":2614,"stateCode":"ZH","stateName":"South Holland","countryId":156,"countryCode":"NL","countryName":"Netherlands","latitude":"51.99313000","longitude":"4.47865000","wikiDataId":"Q820839"},{"id":77416,"name":"Berkenwoude","stateId":2614,"stateCode":"ZH","stateName":"South Holland","countryId":156,"countryCode":"NL","countryName":"Netherlands","latitude":"51.94500000","longitude":"4.70694000","wikiDataId":"Q2897199"},{"id":77432,"name":"Binnenhof","stateId":2614,"stateCode":"ZH","stateName":"South Holland","countryId":156,"countryCode":"NL","countryName":"Netherlands","latitude":"52.16418000","longitude":"4.53644000","wikiDataId":"Q2380712"},{"id":77439,"name":"Bleiswijk","stateId":2614,"stateCode":"ZH","stateName":"South Holland","countryId":156,"countryCode":"NL","countryName":"Netherlands","latitude":"52.01083000","longitude":"4.53194000","wikiDataId":"Q883690"},{"id":77440,"name":"Bleskensgraaf","stateId":2614,"stateCode":"ZH","stateName":"South Holland","countryId":156,"countryCode":"NL","countryName":"Netherlands","latitude":"51.87250000","longitude":"4.78333000","wikiDataId":"Q2109338"},{"id":77444,"name":"Bloemendaal","stateId":2614,"stateCode":"ZH","stateName":"South Holland","countryId":156,"countryCode":"NL","countryName":"Netherlands","latitude":"52.02878000","longitude":"4.69440000","wikiDataId":"Q2086096"},{"id":77445,"name":"Bloemhof","stateId":2614,"stateCode":"ZH","stateName":"South Holland","countryId":156,"countryCode":"NL","countryName":"Netherlands","latitude":"51.89723000","longitude":"4.49943000","wikiDataId":"Q2149295"},{"id":77448,"name":"Bodegraven","stateId":2614,"stateCode":"ZH","stateName":"South Holland","countryId":156,"countryCode":"NL","countryName":"Netherlands","latitude":"52.08250000","longitude":"4.75000000","wikiDataId":"Q832938"},{"id":77449,"name":"Bodegraven-Reeuwijk","stateId":2614,"stateCode":"ZH","stateName":"South Holland","countryId":156,"countryCode":"NL","countryName":"Netherlands","latitude":"52.06541000","longitude":"4.76634000","wikiDataId":"Q889423"},{"id":77451,"name":"Bolnes","stateId":2614,"stateCode":"ZH","stateName":"South Holland","countryId":156,"countryCode":"NL","countryName":"Netherlands","latitude":"51.89500000","longitude":"4.57917000","wikiDataId":"Q2039640"},{"id":77463,"name":"Boskoop","stateId":2614,"stateCode":"ZH","stateName":"South Holland","countryId":156,"countryCode":"NL","countryName":"Netherlands","latitude":"52.07500000","longitude":"4.65556000","wikiDataId":"Q508326"},{"id":77465,"name":"Boven-Hardinxveld","stateId":2614,"stateCode":"ZH","stateName":"South Holland","countryId":156,"countryCode":"NL","countryName":"Netherlands","latitude":"51.82333000","longitude":"4.88194000","wikiDataId":"Q2692102"},{"id":77480,"name":"Brielle","stateId":2614,"stateCode":"ZH","stateName":"South Holland","countryId":156,"countryCode":"NL","countryName":"Netherlands","latitude":"51.90167000","longitude":"4.16250000","wikiDataId":"Q33426218"},{"id":77511,"name":"Capelle aan den IJssel","stateId":2614,"stateCode":"ZH","stateName":"South Holland","countryId":156,"countryCode":"NL","countryName":"Netherlands","latitude":"51.92917000","longitude":"4.57778000","wikiDataId":"Q2345784"},{"id":77512,"name":"Capelle-West","stateId":2614,"stateCode":"ZH","stateName":"South Holland","countryId":156,"countryCode":"NL","countryName":"Netherlands","latitude":"51.91667000","longitude":"4.56667000","wikiDataId":"Q1967376"},{"id":77513,"name":"Carnisse","stateId":2614,"stateCode":"ZH","stateName":"South Holland","countryId":156,"countryCode":"NL","countryName":"Netherlands","latitude":"51.88932000","longitude":"4.47758000","wikiDataId":"Q1967376"},{"id":77547,"name":"De Kieviet","stateId":2614,"stateCode":"ZH","stateName":"South Holland","countryId":156,"countryCode":"NL","countryName":"Netherlands","latitude":"52.12333000","longitude":"4.35839000","wikiDataId":"Q2993272"},{"id":77551,"name":"De Lier","stateId":2614,"stateCode":"ZH","stateName":"South Holland","countryId":156,"countryCode":"NL","countryName":"Netherlands","latitude":"51.97500000","longitude":"4.24861000","wikiDataId":"Q1616247"},{"id":77556,"name":"De Peulen","stateId":2614,"stateCode":"ZH","stateName":"South Holland","countryId":156,"countryCode":"NL","countryName":"Netherlands","latitude":"51.82362000","longitude":"4.82165000","wikiDataId":"Q1616247"},{"id":77567,"name":"Delfshaven","stateId":2614,"stateCode":"ZH","stateName":"South Holland","countryId":156,"countryCode":"NL","countryName":"Netherlands","latitude":"51.90488000","longitude":"4.45315000","wikiDataId":"Q1184149"},{"id":77568,"name":"Delft","stateId":2614,"stateCode":"ZH","stateName":"South Holland","countryId":156,"countryCode":"NL","countryName":"Netherlands","latitude":"52.00667000","longitude":"4.35556000","wikiDataId":"Q33432813"},{"id":77584,"name":"Dirksland","stateId":2614,"stateCode":"ZH","stateName":"South Holland","countryId":156,"countryCode":"NL","countryName":"Netherlands","latitude":"51.74917000","longitude":"4.10000000","wikiDataId":"Q917827"},{"id":77600,"name":"Dordrecht","stateId":2614,"stateCode":"ZH","stateName":"South Holland","countryId":156,"countryCode":"NL","countryName":"Netherlands","latitude":"51.81000000","longitude":"4.67361000","wikiDataId":"Q33433503"},{"id":77605,"name":"Driebruggen","stateId":2614,"stateCode":"ZH","stateName":"South Holland","countryId":156,"countryCode":"NL","countryName":"Netherlands","latitude":"52.04417000","longitude":"4.80000000","wikiDataId":"Q225535"},{"id":77608,"name":"Driemanspolder","stateId":2614,"stateCode":"ZH","stateName":"South Holland","countryId":156,"countryCode":"NL","countryName":"Netherlands","latitude":"52.05176000","longitude":"4.48504000","wikiDataId":"Q1614971"},{"id":77615,"name":"Duindorp","stateId":2614,"stateCode":"ZH","stateName":"South Holland","countryId":156,"countryCode":"NL","countryName":"Netherlands","latitude":"52.09078000","longitude":"4.26038000","wikiDataId":"Q578267"},{"id":77616,"name":"Duinzigt","stateId":2614,"stateCode":"ZH","stateName":"South Holland","countryId":156,"countryCode":"NL","countryName":"Netherlands","latitude":"52.10485000","longitude":"4.32494000","wikiDataId":"Q578267"},{"id":77669,"name":"Essesteijn","stateId":2614,"stateCode":"ZH","stateName":"South Holland","countryId":156,"countryCode":"NL","countryName":"Netherlands","latitude":"52.08534000","longitude":"4.37263000","wikiDataId":"Q2450863"},{"id":77674,"name":"Feijenoord","stateId":2614,"stateCode":"ZH","stateName":"South Holland","countryId":156,"countryCode":"NL","countryName":"Netherlands","latitude":"51.91169000","longitude":"4.50645000","wikiDataId":"Q827086"},{"id":78029,"name":"Giessenburg","stateId":2614,"stateCode":"ZH","stateName":"South Holland","countryId":156,"countryCode":"NL","countryName":"Netherlands","latitude":"51.85083000","longitude":"4.89028000","wikiDataId":"Q1523411"},{"id":78030,"name":"Giessendam","stateId":2614,"stateCode":"ZH","stateName":"South Holland","countryId":156,"countryCode":"NL","countryName":"Netherlands","latitude":"51.83257000","longitude":"4.83583000","wikiDataId":"Q2852373"},{"id":78036,"name":"Goedereede","stateId":2614,"stateCode":"ZH","stateName":"South Holland","countryId":156,"countryCode":"NL","countryName":"Netherlands","latitude":"51.81750000","longitude":"3.98056000","wikiDataId":"Q924091"},{"id":78041,"name":"Gorinchem","stateId":2614,"stateCode":"ZH","stateName":"South Holland","countryId":156,"countryCode":"NL","countryName":"Netherlands","latitude":"51.83652000","longitude":"4.97243000","wikiDataId":"Q33439227"},{"id":78044,"name":"Gouda","stateId":2614,"stateCode":"ZH","stateName":"South Holland","countryId":156,"countryCode":"NL","countryName":"Netherlands","latitude":"52.01667000","longitude":"4.70833000","wikiDataId":"Q33439340"},{"id":78045,"name":"Gouderak","stateId":2614,"stateCode":"ZH","stateName":"South Holland","countryId":156,"countryCode":"NL","countryName":"Netherlands","latitude":"51.98417000","longitude":"4.67778000","wikiDataId":"Q33439340"},{"id":78046,"name":"Goudswaard","stateId":2614,"stateCode":"ZH","stateName":"South Holland","countryId":156,"countryCode":"NL","countryName":"Netherlands","latitude":"51.79417000","longitude":"4.27639000","wikiDataId":"Q2594153"},{"id":78048,"name":"Gouwsluis","stateId":2614,"stateCode":"ZH","stateName":"South Holland","countryId":156,"countryCode":"NL","countryName":"Netherlands","latitude":"52.11943000","longitude":"4.66899000","wikiDataId":"Q2793903"},{"id":78060,"name":"Groenswaard","stateId":2614,"stateCode":"ZH","stateName":"South Holland","countryId":156,"countryCode":"NL","countryName":"Netherlands","latitude":"52.05154000","longitude":"4.64541000","wikiDataId":"Q2218565"},{"id":78065,"name":"Groot IJsselmonde","stateId":2614,"stateCode":"ZH","stateName":"South Holland","countryId":156,"countryCode":"NL","countryName":"Netherlands","latitude":"51.88264000","longitude":"4.54937000","wikiDataId":"Q2206856"},{"id":78066,"name":"Groot-Ammers","stateId":2614,"stateCode":"ZH","stateName":"South Holland","countryId":156,"countryCode":"NL","countryName":"Netherlands","latitude":"51.92333000","longitude":"4.82361000","wikiDataId":"Q3116939"},{"id":78083,"name":"Haastrecht","stateId":2614,"stateCode":"ZH","stateName":"South Holland","countryId":156,"countryCode":"NL","countryName":"Netherlands","latitude":"52.00074000","longitude":"4.77639000","wikiDataId":"Q2523099"},{"id":78117,"name":"Heerjansdam","stateId":2614,"stateCode":"ZH","stateName":"South Holland","countryId":156,"countryCode":"NL","countryName":"Netherlands","latitude":"51.83583000","longitude":"4.56389000","wikiDataId":"Q761510"},{"id":78128,"name":"Heijplaat","stateId":2614,"stateCode":"ZH","stateName":"South Holland","countryId":156,"countryCode":"NL","countryName":"Netherlands","latitude":"51.89333000","longitude":"4.42083000","wikiDataId":"Q1976164"},{"id":78134,"name":"Hellevoetsluis","stateId":2614,"stateCode":"ZH","stateName":"South Holland","countryId":156,"countryCode":"NL","countryName":"Netherlands","latitude":"51.83333000","longitude":"4.13333000","wikiDataId":"Q1025690"},{"id":78139,"name":"Hendrik-Ido-Ambacht","stateId":2614,"stateCode":"ZH","stateName":"South Holland","countryId":156,"countryCode":"NL","countryName":"Netherlands","latitude":"51.84417000","longitude":"4.63889000","wikiDataId":"Q3130000"},{"id":78157,"name":"Hillegom","stateId":2614,"stateCode":"ZH","stateName":"South Holland","countryId":156,"countryCode":"NL","countryName":"Netherlands","latitude":"52.29083000","longitude":"4.58333000","wikiDataId":"Q33445010"},{"id":78163,"name":"Hoek van Holland","stateId":2614,"stateCode":"ZH","stateName":"South Holland","countryId":156,"countryCode":"NL","countryName":"Netherlands","latitude":"51.97750000","longitude":"4.13333000","wikiDataId":"Q990130"},{"id":78167,"name":"Hoge Mors","stateId":2614,"stateCode":"ZH","stateName":"South Holland","countryId":156,"countryCode":"NL","countryName":"Netherlands","latitude":"52.15616000","longitude":"4.46025000","wikiDataId":"Q629794"},{"id":78174,"name":"Honselersdijk","stateId":2614,"stateCode":"ZH","stateName":"South Holland","countryId":156,"countryCode":"NL","countryName":"Netherlands","latitude":"52.00665000","longitude":"4.22441000","wikiDataId":"Q2012788"},{"id":78176,"name":"Hoogblokland","stateId":2614,"stateCode":"ZH","stateName":"South Holland","countryId":156,"countryCode":"NL","countryName":"Netherlands","latitude":"51.87500000","longitude":"4.97639000","wikiDataId":"Q2969717"},{"id":78184,"name":"Hoogmade","stateId":2614,"stateCode":"ZH","stateName":"South Holland","countryId":156,"countryCode":"NL","countryName":"Netherlands","latitude":"52.16917000","longitude":"4.58194000","wikiDataId":"Q2106954"},{"id":78216,"name":"Katendrecht","stateId":2614,"stateCode":"ZH","stateName":"South Holland","countryId":156,"countryCode":"NL","countryName":"Netherlands","latitude":"51.90074000","longitude":"4.48254000","wikiDataId":"Q1735822"},{"id":78218,"name":"Katwijk aan den Rijn","stateId":2614,"stateCode":"ZH","stateName":"South Holland","countryId":156,"countryCode":"NL","countryName":"Netherlands","latitude":"52.19417000","longitude":"4.42222000","wikiDataId":"Q2627252"},{"id":78217,"name":"Katwijk aan Zee","stateId":2614,"stateCode":"ZH","stateName":"South Holland","countryId":156,"countryCode":"NL","countryName":"Netherlands","latitude":"52.20333000","longitude":"4.39861000","wikiDataId":"Q2921491"},{"id":78226,"name":"Kerkehout","stateId":2614,"stateCode":"ZH","stateName":"South Holland","countryId":156,"countryCode":"NL","countryName":"Netherlands","latitude":"52.11018000","longitude":"4.37957000","wikiDataId":"Q3112493"},{"id":78232,"name":"Kijkduin","stateId":2614,"stateCode":"ZH","stateName":"South Holland","countryId":156,"countryCode":"NL","countryName":"Netherlands","latitude":"52.06765000","longitude":"4.22188000","wikiDataId":"Q1615562"},{"id":78233,"name":"Klaaswaal","stateId":2614,"stateCode":"ZH","stateName":"South Holland","countryId":156,"countryCode":"NL","countryName":"Netherlands","latitude":"51.77000000","longitude":"4.44583000","wikiDataId":"Q1912125"},{"id":78249,"name":"Kop van Zuid","stateId":2614,"stateCode":"ZH","stateName":"South Holland","countryId":156,"countryCode":"NL","countryName":"Netherlands","latitude":"51.90553000","longitude":"4.48706000","wikiDataId":"Q1748087"},{"id":78256,"name":"Krimpen aan den IJssel","stateId":2614,"stateCode":"ZH","stateName":"South Holland","countryId":156,"countryCode":"NL","countryName":"Netherlands","latitude":"51.91667000","longitude":"4.60278000","wikiDataId":"Q2228461"},{"id":78257,"name":"Krimpenerwaard","stateId":2614,"stateCode":"ZH","stateName":"South Holland","countryId":156,"countryCode":"NL","countryName":"Netherlands","latitude":"51.98171000","longitude":"4.77828000","wikiDataId":"Q15991891"},{"id":78263,"name":"Kwintsheul","stateId":2614,"stateCode":"ZH","stateName":"South Holland","countryId":156,"countryCode":"NL","countryName":"Netherlands","latitude":"52.01333000","longitude":"4.25556000","wikiDataId":"Q2508826"},{"id":78285,"name":"Leiden","stateId":2614,"stateCode":"ZH","stateName":"South Holland","countryId":156,"countryCode":"NL","countryName":"Netherlands","latitude":"52.15833000","longitude":"4.49306000","wikiDataId":"Q939346"},{"id":78286,"name":"Leiderdorp","stateId":2614,"stateCode":"ZH","stateName":"South Holland","countryId":156,"countryCode":"NL","countryName":"Netherlands","latitude":"52.15833000","longitude":"4.52917000","wikiDataId":"Q33456402"},{"id":78287,"name":"Leimuiden","stateId":2614,"stateCode":"ZH","stateName":"South Holland","countryId":156,"countryCode":"NL","countryName":"Netherlands","latitude":"52.22417000","longitude":"4.66944000","wikiDataId":"Q1019099"},{"id":78303,"name":"Liesveld","stateId":2614,"stateCode":"ZH","stateName":"South Holland","countryId":156,"countryCode":"NL","countryName":"Netherlands","latitude":"51.93250000","longitude":"4.83194000","wikiDataId":"Q3003031"},{"id":78312,"name":"Lisse","stateId":2614,"stateCode":"ZH","stateName":"South Holland","countryId":156,"countryCode":"NL","countryName":"Netherlands","latitude":"52.26000000","longitude":"4.55694000","wikiDataId":"Q2429805"},{"id":78318,"name":"Lombardijen","stateId":2614,"stateCode":"ZH","stateName":"South Holland","countryId":156,"countryCode":"NL","countryName":"Netherlands","latitude":"51.87380000","longitude":"4.52192000","wikiDataId":"Q5363696"},{"id":78336,"name":"Maasdijk","stateId":2614,"stateCode":"ZH","stateName":"South Holland","countryId":156,"countryCode":"NL","countryName":"Netherlands","latitude":"51.95917000","longitude":"4.21389000","wikiDataId":"Q502312"},{"id":78338,"name":"Maasland","stateId":2614,"stateCode":"ZH","stateName":"South Holland","countryId":156,"countryCode":"NL","countryName":"Netherlands","latitude":"51.93417000","longitude":"4.27222000","wikiDataId":"Q1055703"},{"id":78339,"name":"Maassluis","stateId":2614,"stateCode":"ZH","stateName":"South Holland","countryId":156,"countryCode":"NL","countryName":"Netherlands","latitude":"51.92333000","longitude":"4.25000000","wikiDataId":"Q1055703"},{"id":78382,"name":"Merenwijk","stateId":2614,"stateCode":"ZH","stateName":"South Holland","countryId":156,"countryCode":"NL","countryName":"Netherlands","latitude":"52.17655000","longitude":"4.50885000","wikiDataId":"Q2246377"},{"id":78389,"name":"Middelharnis","stateId":2614,"stateCode":"ZH","stateName":"South Holland","countryId":156,"countryCode":"NL","countryName":"Netherlands","latitude":"51.75750000","longitude":"4.16528000","wikiDataId":"Q848898"},{"id":78391,"name":"Middelsluis","stateId":2614,"stateCode":"ZH","stateName":"South Holland","countryId":156,"countryCode":"NL","countryName":"Netherlands","latitude":"51.74250000","longitude":"4.44167000","wikiDataId":"Q6841164"},{"id":78400,"name":"Mijnsheerenland","stateId":2614,"stateCode":"ZH","stateName":"South Holland","countryId":156,"countryCode":"NL","countryName":"Netherlands","latitude":"51.79667000","longitude":"4.48750000","wikiDataId":"Q922981"},{"id":78408,"name":"Monster","stateId":2614,"stateCode":"ZH","stateName":"South Holland","countryId":156,"countryCode":"NL","countryName":"Netherlands","latitude":"52.02583000","longitude":"4.17500000","wikiDataId":"Q969531"},{"id":78416,"name":"Naaldwijk","stateId":2614,"stateCode":"ZH","stateName":"South Holland","countryId":156,"countryCode":"NL","countryName":"Netherlands","latitude":"51.99417000","longitude":"4.20972000","wikiDataId":"Q1613459"},{"id":78419,"name":"Neder-Hardinxveld","stateId":2614,"stateCode":"ZH","stateName":"South Holland","countryId":156,"countryCode":"NL","countryName":"Netherlands","latitude":"51.82879000","longitude":"4.85489000","wikiDataId":"Q2645142"},{"id":78430,"name":"Nieuw-Beijerland","stateId":2614,"stateCode":"ZH","stateName":"South Holland","countryId":156,"countryCode":"NL","countryName":"Netherlands","latitude":"51.81250000","longitude":"4.34306000","wikiDataId":"Q2060859"},{"id":78433,"name":"Nieuw-Lekkerland","stateId":2614,"stateCode":"ZH","stateName":"South Holland","countryId":156,"countryCode":"NL","countryName":"Netherlands","latitude":"51.88915000","longitude":"4.68653000","wikiDataId":"Q846242"},{"id":78443,"name":"Nieuwenhoorn","stateId":2614,"stateCode":"ZH","stateName":"South Holland","countryId":156,"countryCode":"NL","countryName":"Netherlands","latitude":"51.85417000","longitude":"4.14306000","wikiDataId":"Q2060530"},{"id":78445,"name":"Nieuwkoop","stateId":2614,"stateCode":"ZH","stateName":"South Holland","countryId":156,"countryCode":"NL","countryName":"Netherlands","latitude":"52.15083000","longitude":"4.77639000","wikiDataId":"Q33467336"},{"id":78449,"name":"Nieuwpoort","stateId":2614,"stateCode":"ZH","stateName":"South Holland","countryId":156,"countryCode":"NL","countryName":"Netherlands","latitude":"51.93583000","longitude":"4.86806000","wikiDataId":"Q2181664"},{"id":78450,"name":"Nieuwveen","stateId":2614,"stateCode":"ZH","stateName":"South Holland","countryId":156,"countryCode":"NL","countryName":"Netherlands","latitude":"52.19667000","longitude":"4.75694000","wikiDataId":"Q2177358"},{"id":78458,"name":"Nissewaard","stateId":2614,"stateCode":"ZH","stateName":"South Holland","countryId":156,"countryCode":"NL","countryName":"Netherlands","latitude":"51.83716000","longitude":"4.27540000","wikiDataId":"Q14853527"},{"id":78461,"name":"Noord-Hofland","stateId":2614,"stateCode":"ZH","stateName":"South Holland","countryId":156,"countryCode":"NL","countryName":"Netherlands","latitude":"52.14059000","longitude":"4.45864000","wikiDataId":"Q2203454"},{"id":78465,"name":"Noordeinde","stateId":2614,"stateCode":"ZH","stateName":"South Holland","countryId":156,"countryCode":"NL","countryName":"Netherlands","latitude":"52.01667000","longitude":"4.48333000","wikiDataId":"Q1924750"},{"id":78466,"name":"Noordeloos","stateId":2614,"stateCode":"ZH","stateName":"South Holland","countryId":156,"countryCode":"NL","countryName":"Netherlands","latitude":"51.90333000","longitude":"4.94167000","wikiDataId":"Q1866380"},{"id":78470,"name":"Noordwijk-Binnen","stateId":2614,"stateCode":"ZH","stateName":"South Holland","countryId":156,"countryCode":"NL","countryName":"Netherlands","latitude":"52.23400000","longitude":"4.44474000","wikiDataId":"Q33467683"},{"id":78471,"name":"Noordwijkerhout","stateId":2614,"stateCode":"ZH","stateName":"South Holland","countryId":156,"countryCode":"NL","countryName":"Netherlands","latitude":"52.26167000","longitude":"4.49306000","wikiDataId":"Q33467683"},{"id":78475,"name":"Numansdorp","stateId":2614,"stateCode":"ZH","stateName":"South Holland","countryId":156,"countryCode":"NL","countryName":"Netherlands","latitude":"51.73167000","longitude":"4.43750000","wikiDataId":"Q518691"},{"id":78485,"name":"Oegstgeest","stateId":2614,"stateCode":"ZH","stateName":"South Holland","countryId":156,"countryCode":"NL","countryName":"Netherlands","latitude":"52.18000000","longitude":"4.46944000","wikiDataId":"Q2694139"},{"id":78501,"name":"Ommoord","stateId":2614,"stateCode":"ZH","stateName":"South Holland","countryId":156,"countryCode":"NL","countryName":"Netherlands","latitude":"51.95951000","longitude":"4.54533000","wikiDataId":"Q3144479"},{"id":78509,"name":"Oostdorp","stateId":2614,"stateCode":"ZH","stateName":"South Holland","countryId":156,"countryCode":"NL","countryName":"Netherlands","latitude":"52.14994000","longitude":"4.39319000","wikiDataId":"Q1615032"},{"id":78529,"name":"Oostvoorne","stateId":2614,"stateCode":"ZH","stateName":"South Holland","countryId":156,"countryCode":"NL","countryName":"Netherlands","latitude":"51.91250000","longitude":"4.09861000","wikiDataId":"Q2738927"},{"id":78541,"name":"Oranjewijk","stateId":2614,"stateCode":"ZH","stateName":"South Holland","countryId":156,"countryCode":"NL","countryName":"Netherlands","latitude":"52.04922000","longitude":"4.65374000","wikiDataId":"Q3354353"},{"id":78552,"name":"Oud-Beijerland","stateId":2614,"stateCode":"ZH","stateName":"South Holland","countryId":156,"countryCode":"NL","countryName":"Netherlands","latitude":"51.82417000","longitude":"4.41250000","wikiDataId":"Q2189395"},{"id":78556,"name":"Ouddorp","stateId":2614,"stateCode":"ZH","stateName":"South Holland","countryId":156,"countryCode":"NL","countryName":"Netherlands","latitude":"51.81167000","longitude":"3.93472000","wikiDataId":"Q21060"},{"id":78559,"name":"Oude Wetering","stateId":2614,"stateCode":"ZH","stateName":"South Holland","countryId":156,"countryCode":"NL","countryName":"Netherlands","latitude":"52.21417000","longitude":"4.64444000","wikiDataId":"Q2265226"},{"id":78564,"name":"Ouderkerk aan den IJssel","stateId":2614,"stateCode":"ZH","stateName":"South Holland","countryId":156,"countryCode":"NL","countryName":"Netherlands","latitude":"51.93417000","longitude":"4.63611000","wikiDataId":"Q2319907"},{"id":78573,"name":"Overschie","stateId":2614,"stateCode":"ZH","stateName":"South Holland","countryId":156,"countryCode":"NL","countryName":"Netherlands","latitude":"51.93863000","longitude":"4.42766000","wikiDataId":"Q2389241"},{"id":78575,"name":"Palenstein","stateId":2614,"stateCode":"ZH","stateName":"South Holland","countryId":156,"countryCode":"NL","countryName":"Netherlands","latitude":"52.05579000","longitude":"4.50869000","wikiDataId":"Q1847815"},{"id":78578,"name":"Papendrecht","stateId":2614,"stateCode":"ZH","stateName":"South Holland","countryId":156,"countryCode":"NL","countryName":"Netherlands","latitude":"51.83167000","longitude":"4.68750000","wikiDataId":"Q3019356"},{"id":78579,"name":"Papenveer","stateId":2614,"stateCode":"ZH","stateName":"South Holland","countryId":156,"countryCode":"NL","countryName":"Netherlands","latitude":"52.18500000","longitude":"4.72500000","wikiDataId":"Q2335140"},{"id":78586,"name":"Pendrecht","stateId":2614,"stateCode":"ZH","stateName":"South Holland","countryId":156,"countryCode":"NL","countryName":"Netherlands","latitude":"51.87152000","longitude":"4.46901000","wikiDataId":"Q582028"},{"id":78587,"name":"Pernis","stateId":2614,"stateCode":"ZH","stateName":"South Holland","countryId":156,"countryCode":"NL","countryName":"Netherlands","latitude":"51.88833000","longitude":"4.38889000","wikiDataId":"Q178782"},{"id":78590,"name":"Piershil","stateId":2614,"stateCode":"ZH","stateName":"South Holland","countryId":156,"countryCode":"NL","countryName":"Netherlands","latitude":"51.79333000","longitude":"4.31389000","wikiDataId":"Q2225490"},{"id":78591,"name":"Pijnacker","stateId":2614,"stateCode":"ZH","stateName":"South Holland","countryId":156,"countryCode":"NL","countryName":"Netherlands","latitude":"52.01954000","longitude":"4.42946000","wikiDataId":"Q968044"},{"id":78592,"name":"Poeldijk","stateId":2614,"stateCode":"ZH","stateName":"South Holland","countryId":156,"countryCode":"NL","countryName":"Netherlands","latitude":"52.02417000","longitude":"4.21944000","wikiDataId":"Q3112494"},{"id":78611,"name":"Reeuwijk","stateId":2614,"stateCode":"ZH","stateName":"South Holland","countryId":156,"countryCode":"NL","countryName":"Netherlands","latitude":"52.04667000","longitude":"4.72500000","wikiDataId":"Q985664"},{"id":78620,"name":"Rhoon","stateId":2614,"stateCode":"ZH","stateName":"South Holland","countryId":156,"countryCode":"NL","countryName":"Netherlands","latitude":"51.85750000","longitude":"4.42222000","wikiDataId":"Q687584"},{"id":78621,"name":"Ridderkerk","stateId":2614,"stateCode":"ZH","stateName":"South Holland","countryId":156,"countryCode":"NL","countryName":"Netherlands","latitude":"51.87250000","longitude":"4.60278000","wikiDataId":"Q33475383"},{"id":78624,"name":"Rijnsaterwoude","stateId":2614,"stateCode":"ZH","stateName":"South Holland","countryId":156,"countryCode":"NL","countryName":"Netherlands","latitude":"52.19583000","longitude":"4.67083000","wikiDataId":"Q3432013"},{"id":78625,"name":"Rijnsburg","stateId":2614,"stateCode":"ZH","stateName":"South Holland","countryId":156,"countryCode":"NL","countryName":"Netherlands","latitude":"52.19000000","longitude":"4.44167000","wikiDataId":"Q1615333"},{"id":78626,"name":"Rijpwetering","stateId":2614,"stateCode":"ZH","stateName":"South Holland","countryId":156,"countryCode":"NL","countryName":"Netherlands","latitude":"52.19250000","longitude":"4.58333000","wikiDataId":"Q3432014"},{"id":78628,"name":"Rijsoord","stateId":2614,"stateCode":"ZH","stateName":"South Holland","countryId":156,"countryCode":"NL","countryName":"Netherlands","latitude":"51.85083000","longitude":"4.59583000","wikiDataId":"Q3432018"},{"id":78630,"name":"Rijswijk","stateId":2614,"stateCode":"ZH","stateName":"South Holland","countryId":156,"countryCode":"NL","countryName":"Netherlands","latitude":"52.03634000","longitude":"4.32501000","wikiDataId":"Q33475563"},{"id":78632,"name":"Rockanje","stateId":2614,"stateCode":"ZH","stateName":"South Holland","countryId":156,"countryCode":"NL","countryName":"Netherlands","latitude":"51.87167000","longitude":"4.07083000","wikiDataId":"Q3029661"},{"id":78634,"name":"Roelofarendsveen","stateId":2614,"stateCode":"ZH","stateName":"South Holland","countryId":156,"countryCode":"NL","countryName":"Netherlands","latitude":"52.20333000","longitude":"4.63333000","wikiDataId":"Q2735708"},{"id":78642,"name":"Rotterdam","stateId":2614,"stateCode":"ZH","stateName":"South Holland","countryId":156,"countryCode":"NL","countryName":"Netherlands","latitude":"51.92250000","longitude":"4.47917000","wikiDataId":"Q34370"},{"id":78644,"name":"Rozenburg","stateId":2614,"stateCode":"ZH","stateName":"South Holland","countryId":156,"countryCode":"NL","countryName":"Netherlands","latitude":"51.90417000","longitude":"4.24861000","wikiDataId":"Q1019529"},{"id":78647,"name":"Rugge","stateId":2614,"stateCode":"ZH","stateName":"South Holland","countryId":156,"countryCode":"NL","countryName":"Netherlands","latitude":"51.89921000","longitude":"4.15231000","wikiDataId":"Q2789907"},{"id":78654,"name":"Sassenheim","stateId":2614,"stateCode":"ZH","stateName":"South Holland","countryId":156,"countryCode":"NL","countryName":"Netherlands","latitude":"52.22500000","longitude":"4.52222000","wikiDataId":"Q1615386"},{"id":78663,"name":"Schelluinen","stateId":2614,"stateCode":"ZH","stateName":"South Holland","countryId":156,"countryCode":"NL","countryName":"Netherlands","latitude":"51.84333000","longitude":"4.92639000","wikiDataId":"Q3026320"},{"id":78667,"name":"Scheveningen","stateId":2614,"stateCode":"ZH","stateName":"South Holland","countryId":156,"countryCode":"NL","countryName":"Netherlands","latitude":"52.10461000","longitude":"4.27557000","wikiDataId":"Q837211"},{"id":78668,"name":"Schiebroek","stateId":2614,"stateCode":"ZH","stateName":"South Holland","countryId":156,"countryCode":"NL","countryName":"Netherlands","latitude":"51.95838000","longitude":"4.47124000","wikiDataId":"Q837211"},{"id":78669,"name":"Schiedam","stateId":2614,"stateCode":"ZH","stateName":"South Holland","countryId":156,"countryCode":"NL","countryName":"Netherlands","latitude":"51.91917000","longitude":"4.38889000","wikiDataId":"Q33482242"},{"id":78677,"name":"Schipluiden","stateId":2614,"stateCode":"ZH","stateName":"South Holland","countryId":156,"countryCode":"NL","countryName":"Netherlands","latitude":"51.97583000","longitude":"4.31389000","wikiDataId":"Q1616337"},{"id":78680,"name":"Schoonhoven","stateId":2614,"stateCode":"ZH","stateName":"South Holland","countryId":156,"countryCode":"NL","countryName":"Netherlands","latitude":"51.94750000","longitude":"4.84861000","wikiDataId":"Q478036"},{"id":78710,"name":"Sliedrecht","stateId":2614,"stateCode":"ZH","stateName":"South Holland","countryId":156,"countryCode":"NL","countryName":"Netherlands","latitude":"51.82083000","longitude":"4.77639000","wikiDataId":"Q2781496"},{"id":78711,"name":"Slikkerveer","stateId":2614,"stateCode":"ZH","stateName":"South Holland","countryId":156,"countryCode":"NL","countryName":"Netherlands","latitude":"51.88531000","longitude":"4.60494000","wikiDataId":"Q2587009"},{"id":78726,"name":"Spangen","stateId":2614,"stateCode":"ZH","stateName":"South Holland","countryId":156,"countryCode":"NL","countryName":"Netherlands","latitude":"51.91688000","longitude":"4.43539000","wikiDataId":"Q2096672"},{"id":78733,"name":"Spijkenisse","stateId":2614,"stateCode":"ZH","stateName":"South Holland","countryId":156,"countryCode":"NL","countryName":"Netherlands","latitude":"51.84500000","longitude":"4.32917000","wikiDataId":"Q2694306"},{"id":78734,"name":"Spoorwijk","stateId":2614,"stateCode":"ZH","stateName":"South Holland","countryId":156,"countryCode":"NL","countryName":"Netherlands","latitude":"52.05347000","longitude":"4.31339000","wikiDataId":"Q2694306"},{"id":78746,"name":"Statenkwartier","stateId":2614,"stateCode":"ZH","stateName":"South Holland","countryId":156,"countryCode":"NL","countryName":"Netherlands","latitude":"52.09311000","longitude":"4.27577000","wikiDataId":"Q2314541"},{"id":78755,"name":"Stein","stateId":2614,"stateCode":"ZH","stateName":"South Holland","countryId":156,"countryCode":"NL","countryName":"Netherlands","latitude":"52.00333000","longitude":"4.78194000","wikiDataId":"Q2318374"},{"id":78760,"name":"Stolwijk","stateId":2614,"stateCode":"ZH","stateName":"South Holland","countryId":156,"countryCode":"NL","countryName":"Netherlands","latitude":"51.97250000","longitude":"4.77361000","wikiDataId":"Q2675598"},{"id":78763,"name":"Strijen","stateId":2614,"stateCode":"ZH","stateName":"South Holland","countryId":156,"countryCode":"NL","countryName":"Netherlands","latitude":"51.74521000","longitude":"4.55083000","wikiDataId":"Q2679562"},{"id":78764,"name":"Strijp","stateId":2614,"stateCode":"ZH","stateName":"South Holland","countryId":156,"countryCode":"NL","countryName":"Netherlands","latitude":"52.03083000","longitude":"4.30139000","wikiDataId":"Q2679562"},{"id":78771,"name":"Terbregge","stateId":2614,"stateCode":"ZH","stateName":"South Holland","countryId":156,"countryCode":"NL","countryName":"Netherlands","latitude":"51.95328000","longitude":"4.51537000","wikiDataId":"Q1618053"},{"id":78779,"name":"The Hague","stateId":2614,"stateCode":"ZH","stateName":"South Holland","countryId":156,"countryCode":"NL","countryName":"Netherlands","latitude":"52.07667000","longitude":"4.29861000","wikiDataId":"Q41795540"},{"id":78794,"name":"Tuindorp","stateId":2614,"stateCode":"ZH","stateName":"South Holland","countryId":156,"countryCode":"NL","countryName":"Netherlands","latitude":"51.93032000","longitude":"4.37840000","wikiDataId":"Q27825709"},{"id":78828,"name":"Valkenburg","stateId":2614,"stateCode":"ZH","stateName":"South Holland","countryId":156,"countryCode":"NL","countryName":"Netherlands","latitude":"52.18000000","longitude":"4.43194000","wikiDataId":"Q1615405"},{"id":78850,"name":"Vierpolders","stateId":2614,"stateCode":"ZH","stateName":"South Holland","countryId":156,"countryCode":"NL","countryName":"Netherlands","latitude":"51.87917000","longitude":"4.17917000","wikiDataId":"Q3028978"},{"id":78855,"name":"Vlaardingen","stateId":2614,"stateCode":"ZH","stateName":"South Holland","countryId":156,"countryCode":"NL","countryName":"Netherlands","latitude":"51.91250000","longitude":"4.34167000","wikiDataId":"Q2667464"},{"id":78861,"name":"Vlietwijk","stateId":2614,"stateCode":"ZH","stateName":"South Holland","countryId":156,"countryCode":"NL","countryName":"Netherlands","latitude":"52.12436000","longitude":"4.45736000","wikiDataId":"Q2464477"},{"id":78868,"name":"Vogelwijk","stateId":2614,"stateCode":"ZH","stateName":"South Holland","countryId":156,"countryCode":"NL","countryName":"Netherlands","latitude":"52.07631000","longitude":"4.24790000","wikiDataId":"Q284467"},{"id":78873,"name":"Vondelwijk","stateId":2614,"stateCode":"ZH","stateName":"South Holland","countryId":156,"countryCode":"NL","countryName":"Netherlands","latitude":"52.05497000","longitude":"4.65314000","wikiDataId":"Q81132"},{"id":78874,"name":"Voorburg","stateId":2614,"stateCode":"ZH","stateName":"South Holland","countryId":156,"countryCode":"NL","countryName":"Netherlands","latitude":"52.07417000","longitude":"4.35972000","wikiDataId":"Q809821"},{"id":78875,"name":"Voorhout","stateId":2614,"stateCode":"ZH","stateName":"South Holland","countryId":156,"countryCode":"NL","countryName":"Netherlands","latitude":"52.22167000","longitude":"4.48472000","wikiDataId":"Q923574"},{"id":78876,"name":"Voorschoten","stateId":2614,"stateCode":"ZH","stateName":"South Holland","countryId":156,"countryCode":"NL","countryName":"Netherlands","latitude":"52.12750000","longitude":"4.44861000","wikiDataId":"Q33512532"},{"id":78883,"name":"Vreewijk","stateId":2614,"stateCode":"ZH","stateName":"South Holland","countryId":156,"countryCode":"NL","countryName":"Netherlands","latitude":"51.88428000","longitude":"4.51967000","wikiDataId":"Q2939572"},{"id":78895,"name":"Waarder","stateId":2614,"stateCode":"ZH","stateName":"South Holland","countryId":156,"countryCode":"NL","countryName":"Netherlands","latitude":"52.06083000","longitude":"4.82083000","wikiDataId":"Q2362118"},{"id":78897,"name":"Waddinxveen","stateId":2614,"stateCode":"ZH","stateName":"South Holland","countryId":156,"countryCode":"NL","countryName":"Netherlands","latitude":"52.04500000","longitude":"4.65139000","wikiDataId":"Q2361617"},{"id":78906,"name":"Warmond","stateId":2614,"stateCode":"ZH","stateName":"South Holland","countryId":156,"countryCode":"NL","countryName":"Netherlands","latitude":"52.19667000","longitude":"4.50278000","wikiDataId":"Q1615421"},{"id":78909,"name":"Wassenaar","stateId":2614,"stateCode":"ZH","stateName":"South Holland","countryId":156,"countryCode":"NL","countryName":"Netherlands","latitude":"52.14583000","longitude":"4.40278000","wikiDataId":"Q33513983"},{"id":78913,"name":"Weerestein","stateId":2614,"stateCode":"ZH","stateName":"South Holland","countryId":156,"countryCode":"NL","countryName":"Netherlands","latitude":"52.30381000","longitude":"4.58861000","wikiDataId":"Q33513983"},{"id":78916,"name":"Weijpoort","stateId":2614,"stateCode":"ZH","stateName":"South Holland","countryId":156,"countryCode":"NL","countryName":"Netherlands","latitude":"52.08167000","longitude":"4.80278000","wikiDataId":"Q2742889"},{"id":78944,"name":"Westmaas","stateId":2614,"stateCode":"ZH","stateName":"South Holland","countryId":156,"countryCode":"NL","countryName":"Netherlands","latitude":"51.78667000","longitude":"4.47500000","wikiDataId":"Q2726062"},{"id":78983,"name":"Woubrugge","stateId":2614,"stateCode":"ZH","stateName":"South Holland","countryId":156,"countryCode":"NL","countryName":"Netherlands","latitude":"52.17000000","longitude":"4.63611000","wikiDataId":"Q1025067"},{"id":78990,"name":"Ypenburg","stateId":2614,"stateCode":"ZH","stateName":"South Holland","countryId":156,"countryCode":"NL","countryName":"Netherlands","latitude":"52.04098000","longitude":"4.36981000","wikiDataId":"Q1233724"},{"id":79011,"name":"Zevenhoven","stateId":2614,"stateCode":"ZH","stateName":"South Holland","countryId":156,"countryCode":"NL","countryName":"Netherlands","latitude":"52.18167000","longitude":"4.77917000","wikiDataId":"Q15884208"},{"id":79016,"name":"Zoetermeer","stateId":2614,"stateCode":"ZH","stateName":"South Holland","countryId":156,"countryCode":"NL","countryName":"Netherlands","latitude":"52.05750000","longitude":"4.49306000","wikiDataId":"Q33528284"},{"id":79017,"name":"Zoeterwoude-Dorp","stateId":2614,"stateCode":"ZH","stateName":"South Holland","countryId":156,"countryCode":"NL","countryName":"Netherlands","latitude":"52.12000000","longitude":"4.49583000","wikiDataId":"Q2180579"},{"id":79022,"name":"Zuid-Beijerland","stateId":2614,"stateCode":"ZH","stateName":"South Holland","countryId":156,"countryCode":"NL","countryName":"Netherlands","latitude":"51.75083000","longitude":"4.36806000","wikiDataId":"Q227064"},{"id":79029,"name":"Zuidwijk","stateId":2614,"stateCode":"ZH","stateName":"South Holland","countryId":156,"countryCode":"NL","countryName":"Netherlands","latitude":"51.87532000","longitude":"4.48514000","wikiDataId":"Q228666"},{"id":79035,"name":"Zwijndrecht","stateId":2614,"stateCode":"ZH","stateName":"South Holland","countryId":156,"countryCode":"NL","countryName":"Netherlands","latitude":"51.81750000","longitude":"4.63333000","wikiDataId":"Q109535"}]