[{"id":23461,"name":"Aach","stateId":3006,"stateCode":"BW","stateName":"Baden-Württemberg","countryId":82,"countryCode":"DE","countryName":"Germany","latitude":"47.84240000","longitude":"8.85384000","wikiDataId":"Q31868004"},{"id":23464,"name":"Aalen","stateId":3006,"stateCode":"BW","stateName":"Baden-Württemberg","countryId":82,"countryCode":"DE","countryName":"Germany","latitude":"48.83777000","longitude":"10.09330000","wikiDataId":"Q3951"},{"id":23469,"name":"Abstatt","stateId":3006,"stateCode":"BW","stateName":"Baden-Württemberg","countryId":82,"countryCode":"DE","countryName":"Germany","latitude":"49.06820000","longitude":"9.29070000","wikiDataId":"Q333149"},{"id":23471,"name":"Abtsgmünd","stateId":3006,"stateCode":"BW","stateName":"Baden-Württemberg","countryId":82,"countryCode":"DE","countryName":"Germany","latitude":"48.89503000","longitude":"10.00172000","wikiDataId":"Q334623"},{"id":23472,"name":"Achern","stateId":3006,"stateCode":"BW","stateName":"Baden-Württemberg","countryId":82,"countryCode":"DE","countryName":"Germany","latitude":"48.63115000","longitude":"8.07607000","wikiDataId":"Q373824"},{"id":23475,"name":"Achstetten","stateId":3006,"stateCode":"BW","stateName":"Baden-Württemberg","countryId":82,"countryCode":"DE","countryName":"Germany","latitude":"48.25886000","longitude":"9.89748000","wikiDataId":"Q340782"},{"id":23477,"name":"Adelberg","stateId":3006,"stateCode":"BW","stateName":"Baden-Württemberg","countryId":82,"countryCode":"DE","countryName":"Germany","latitude":"48.76227000","longitude":"9.59991000","wikiDataId":"Q80480"},{"id":23480,"name":"Adelmannsfelden","stateId":3006,"stateCode":"BW","stateName":"Baden-Württemberg","countryId":82,"countryCode":"DE","countryName":"Germany","latitude":"48.95476000","longitude":"10.00466000","wikiDataId":"Q355264"},{"id":23482,"name":"Adelsheim","stateId":3006,"stateCode":"BW","stateName":"Baden-Württemberg","countryId":82,"countryCode":"DE","countryName":"Germany","latitude":"49.40150000","longitude":"9.39250000","wikiDataId":"Q355435"},{"id":23495,"name":"Affalterbach","stateId":3006,"stateCode":"BW","stateName":"Baden-Württemberg","countryId":82,"countryCode":"DE","countryName":"Germany","latitude":"48.92267000","longitude":"9.32362000","wikiDataId":"Q61647"},{"id":23498,"name":"Aglasterhausen","stateId":3006,"stateCode":"BW","stateName":"Baden-Württemberg","countryId":82,"countryCode":"DE","countryName":"Germany","latitude":"49.35694000","longitude":"8.98694000","wikiDataId":"Q31871577"},{"id":23517,"name":"Aichelberg","stateId":3006,"stateCode":"BW","stateName":"Baden-Württemberg","countryId":82,"countryCode":"DE","countryName":"Germany","latitude":"48.63557000","longitude":"9.56373000","wikiDataId":"Q31872780"},{"id":23519,"name":"Aichhalden","stateId":3006,"stateCode":"BW","stateName":"Baden-Württemberg","countryId":82,"countryCode":"DE","countryName":"Germany","latitude":"48.26719000","longitude":"8.40233000","wikiDataId":"Q83302"},{"id":23520,"name":"Aichstetten","stateId":3006,"stateCode":"BW","stateName":"Baden-Württemberg","countryId":82,"countryCode":"DE","countryName":"Germany","latitude":"47.89295000","longitude":"10.07837000","wikiDataId":"Q403756"},{"id":23523,"name":"Aidlingen","stateId":3006,"stateCode":"BW","stateName":"Baden-Württemberg","countryId":82,"countryCode":"DE","countryName":"Germany","latitude":"48.67849000","longitude":"8.89524000","wikiDataId":"Q404053"},{"id":23528,"name":"Aitrach","stateId":3006,"stateCode":"BW","stateName":"Baden-Württemberg","countryId":82,"countryCode":"DE","countryName":"Germany","latitude":"47.93333000","longitude":"10.08333000","wikiDataId":"Q410980"},{"id":23532,"name":"Albbruck","stateId":3006,"stateCode":"BW","stateName":"Baden-Württemberg","countryId":82,"countryCode":"DE","countryName":"Germany","latitude":"47.59077000","longitude":"8.12954000","wikiDataId":"Q522404"},{"id":23534,"name":"Albershausen","stateId":3006,"stateCode":"BW","stateName":"Baden-Württemberg","countryId":82,"countryCode":"DE","countryName":"Germany","latitude":"48.69136000","longitude":"9.56493000","wikiDataId":"Q83084"},{"id":23541,"name":"Albstadt","stateId":3006,"stateCode":"BW","stateName":"Baden-Württemberg","countryId":82,"countryCode":"DE","countryName":"Germany","latitude":"48.21644000","longitude":"9.02596000","wikiDataId":"Q565830"},{"id":23544,"name":"Aldingen","stateId":3006,"stateCode":"BW","stateName":"Baden-Württemberg","countryId":82,"countryCode":"DE","countryName":"Germany","latitude":"48.10000000","longitude":"8.70000000","wikiDataId":"Q529710"},{"id":23548,"name":"Alfdorf","stateId":3006,"stateCode":"BW","stateName":"Baden-Württemberg","countryId":82,"countryCode":"DE","countryName":"Germany","latitude":"48.84385000","longitude":"9.71857000","wikiDataId":"Q55526453"},{"id":23557,"name":"Allensbach","stateId":3006,"stateCode":"BW","stateName":"Baden-Württemberg","countryId":82,"countryCode":"DE","countryName":"Germany","latitude":"47.71536000","longitude":"9.07145000","wikiDataId":"Q61939"},{"id":23561,"name":"Allmendingen","stateId":3006,"stateCode":"BW","stateName":"Baden-Württemberg","countryId":82,"countryCode":"DE","countryName":"Germany","latitude":"48.33052000","longitude":"9.72419000","wikiDataId":"Q31875743"},{"id":23562,"name":"Allmersbach im Tal","stateId":3006,"stateCode":"BW","stateName":"Baden-Württemberg","countryId":82,"countryCode":"DE","countryName":"Germany","latitude":"48.90659000","longitude":"9.46815000","wikiDataId":"Q81748"},{"id":23566,"name":"Alpirsbach","stateId":3006,"stateCode":"BW","stateName":"Baden-Württemberg","countryId":82,"countryCode":"DE","countryName":"Germany","latitude":"48.34507000","longitude":"8.40197000","wikiDataId":"Q82781"},{"id":23582,"name":"Altbach","stateId":3006,"stateCode":"BW","stateName":"Baden-Württemberg","countryId":82,"countryCode":"DE","countryName":"Germany","latitude":"48.72268000","longitude":"9.38078000","wikiDataId":"Q80539"},{"id":23584,"name":"Altdorf","stateId":3006,"stateCode":"BW","stateName":"Baden-Württemberg","countryId":82,"countryCode":"DE","countryName":"Germany","latitude":"48.63112000","longitude":"8.99626000","wikiDataId":"Q435295"},{"id":23612,"name":"Altenriet","stateId":3006,"stateCode":"BW","stateName":"Baden-Württemberg","countryId":82,"countryCode":"DE","countryName":"Germany","latitude":"48.59140000","longitude":"9.22186000","wikiDataId":"Q81102"},{"id":23615,"name":"Altensteig","stateId":3006,"stateCode":"BW","stateName":"Baden-Württemberg","countryId":82,"countryCode":"DE","countryName":"Germany","latitude":"48.58649000","longitude":"8.60395000","wikiDataId":"Q157967"},{"id":23619,"name":"Altes Lager","stateId":3006,"stateCode":"BW","stateName":"Baden-Württemberg","countryId":82,"countryCode":"DE","countryName":"Germany","latitude":"48.41755000","longitude":"9.53606000","wikiDataId":"Q53773"},{"id":23623,"name":"Althengstett","stateId":3006,"stateCode":"BW","stateName":"Baden-Württemberg","countryId":82,"countryCode":"DE","countryName":"Germany","latitude":"48.72325000","longitude":"8.79434000","wikiDataId":"Q372198"},{"id":23624,"name":"Althütte","stateId":3006,"stateCode":"BW","stateName":"Baden-Württemberg","countryId":82,"countryCode":"DE","countryName":"Germany","latitude":"48.91565000","longitude":"9.56984000","wikiDataId":"Q80665"},{"id":23628,"name":"Altlußheim","stateId":3006,"stateCode":"BW","stateName":"Baden-Württemberg","countryId":82,"countryCode":"DE","countryName":"Germany","latitude":"49.30167000","longitude":"8.49917000","wikiDataId":"Q22876"},{"id":23634,"name":"Altshausen","stateId":3006,"stateCode":"BW","stateName":"Baden-Württemberg","countryId":82,"countryCode":"DE","countryName":"Germany","latitude":"47.93333000","longitude":"9.53333000","wikiDataId":"Q179013"},{"id":23650,"name":"Amstetten","stateId":3006,"stateCode":"BW","stateName":"Baden-Württemberg","countryId":82,"countryCode":"DE","countryName":"Germany","latitude":"48.57876000","longitude":"9.87388000","wikiDataId":"Q478808"},{"id":23651,"name":"Amtzell","stateId":3006,"stateCode":"BW","stateName":"Baden-Württemberg","countryId":82,"countryCode":"DE","countryName":"Germany","latitude":"47.70000000","longitude":"9.75000000","wikiDataId":"Q481414"},{"id":23710,"name":"Aspach","stateId":3006,"stateCode":"BW","stateName":"Baden-Württemberg","countryId":82,"countryCode":"DE","countryName":"Germany","latitude":"48.96667000","longitude":"9.40000000","wikiDataId":"Q503747"},{"id":23711,"name":"Asperg","stateId":3006,"stateCode":"BW","stateName":"Baden-Württemberg","countryId":82,"countryCode":"DE","countryName":"Germany","latitude":"48.90525000","longitude":"9.13502000","wikiDataId":"Q61621"},{"id":23712,"name":"Assamstadt","stateId":3006,"stateCode":"BW","stateName":"Baden-Württemberg","countryId":82,"countryCode":"DE","countryName":"Germany","latitude":"49.42806000","longitude":"9.68611000","wikiDataId":"Q49281029"},{"id":23713,"name":"Asselfingen","stateId":3006,"stateCode":"BW","stateName":"Baden-Württemberg","countryId":82,"countryCode":"DE","countryName":"Germany","latitude":"48.52959000","longitude":"10.19166000","wikiDataId":"Q49281029"},{"id":23717,"name":"Attenweiler","stateId":3006,"stateCode":"BW","stateName":"Baden-Württemberg","countryId":82,"countryCode":"DE","countryName":"Germany","latitude":"48.13333000","longitude":"9.70000000","wikiDataId":"Q522329"},{"id":23720,"name":"Au","stateId":3006,"stateCode":"BW","stateName":"Baden-Württemberg","countryId":82,"countryCode":"DE","countryName":"Germany","latitude":"47.95000000","longitude":"7.83333000","wikiDataId":"Q31886561"},{"id":23721,"name":"Au am Rhein","stateId":3006,"stateCode":"BW","stateName":"Baden-Württemberg","countryId":82,"countryCode":"DE","countryName":"Germany","latitude":"48.95000000","longitude":"8.23333000","wikiDataId":"Q545371"},{"id":23730,"name":"Auggen","stateId":3006,"stateCode":"BW","stateName":"Baden-Württemberg","countryId":82,"countryCode":"DE","countryName":"Germany","latitude":"47.78333000","longitude":"7.60000000","wikiDataId":"Q268734"},{"id":23738,"name":"Aulendorf","stateId":3006,"stateCode":"BW","stateName":"Baden-Württemberg","countryId":82,"countryCode":"DE","countryName":"Germany","latitude":"47.95083000","longitude":"9.63745000","wikiDataId":"Q505459"},{"id":23758,"name":"Backnang","stateId":3006,"stateCode":"BW","stateName":"Baden-Württemberg","countryId":82,"countryCode":"DE","countryName":"Germany","latitude":"48.94743000","longitude":"9.43718000","wikiDataId":"Q14947"},{"id":23763,"name":"Bad Bellingen","stateId":3006,"stateCode":"BW","stateName":"Baden-Württemberg","countryId":82,"countryCode":"DE","countryName":"Germany","latitude":"47.73147000","longitude":"7.55756000","wikiDataId":"Q61630"},{"id":23779,"name":"Bad Buchau","stateId":3006,"stateCode":"BW","stateName":"Baden-Württemberg","countryId":82,"countryCode":"DE","countryName":"Germany","latitude":"48.06231000","longitude":"9.61244000","wikiDataId":"Q496489"},{"id":23781,"name":"Bad Ditzenbach","stateId":3006,"stateCode":"BW","stateName":"Baden-Württemberg","countryId":82,"countryCode":"DE","countryName":"Germany","latitude":"48.58830000","longitude":"9.70393000","wikiDataId":"Q80448"},{"id":23787,"name":"Bad Dürrheim","stateId":3006,"stateCode":"BW","stateName":"Baden-Württemberg","countryId":82,"countryCode":"DE","countryName":"Germany","latitude":"48.02093000","longitude":"8.53056000","wikiDataId":"Q82770"},{"id":23805,"name":"Bad Herrenalb","stateId":3006,"stateCode":"BW","stateName":"Baden-Württemberg","countryId":82,"countryCode":"DE","countryName":"Germany","latitude":"48.79787000","longitude":"8.43617000","wikiDataId":"Q374242"},{"id":23830,"name":"Bad Liebenzell","stateId":3006,"stateCode":"BW","stateName":"Baden-Württemberg","countryId":82,"countryCode":"DE","countryName":"Germany","latitude":"48.77427000","longitude":"8.72971000","wikiDataId":"Q522349"},{"id":23835,"name":"Bad Mergentheim","stateId":3006,"stateCode":"BW","stateName":"Baden-Württemberg","countryId":82,"countryCode":"DE","countryName":"Germany","latitude":"49.49250000","longitude":"9.77361000","wikiDataId":"Q61942"},{"id":23847,"name":"Bad Peterstal-Griesbach","stateId":3006,"stateCode":"BW","stateName":"Baden-Württemberg","countryId":82,"countryCode":"DE","countryName":"Germany","latitude":"48.43333000","longitude":"8.21667000","wikiDataId":"Q527937"},{"id":23849,"name":"Bad Rappenau","stateId":3006,"stateCode":"BW","stateName":"Baden-Württemberg","countryId":82,"countryCode":"DE","countryName":"Germany","latitude":"49.23848000","longitude":"9.10180000","wikiDataId":"Q27918"},{"id":23851,"name":"Bad Rippoldsau-Schapbach","stateId":3006,"stateCode":"BW","stateName":"Baden-Württemberg","countryId":82,"countryCode":"DE","countryName":"Germany","latitude":"48.42883000","longitude":"8.32584000","wikiDataId":"Q80477"},{"id":23874,"name":"Bad Säckingen","stateId":3006,"stateCode":"BW","stateName":"Baden-Württemberg","countryId":82,"countryCode":"DE","countryName":"Germany","latitude":"47.55371000","longitude":"7.94612000","wikiDataId":"Q522362"},{"id":23863,"name":"Bad Schussenried","stateId":3006,"stateCode":"BW","stateName":"Baden-Württemberg","countryId":82,"countryCode":"DE","countryName":"Germany","latitude":"48.00468000","longitude":"9.65741000","wikiDataId":"Q522513"},{"id":23876,"name":"Bad Teinach-Zavelstein","stateId":3006,"stateCode":"BW","stateName":"Baden-Württemberg","countryId":82,"countryCode":"DE","countryName":"Germany","latitude":"48.69051000","longitude":"8.69285000","wikiDataId":"Q503266"},{"id":23891,"name":"Bad Überkingen","stateId":3006,"stateCode":"BW","stateName":"Baden-Württemberg","countryId":82,"countryCode":"DE","countryName":"Germany","latitude":"48.59991000","longitude":"9.79586000","wikiDataId":"Q83098"},{"id":23879,"name":"Bad Urach","stateId":3006,"stateCode":"BW","stateName":"Baden-Württemberg","countryId":82,"countryCode":"DE","countryName":"Germany","latitude":"48.49107000","longitude":"9.40009000","wikiDataId":"Q83032"},{"id":23881,"name":"Bad Waldsee","stateId":3006,"stateCode":"BW","stateName":"Baden-Württemberg","countryId":82,"countryCode":"DE","countryName":"Germany","latitude":"47.92027000","longitude":"9.75490000","wikiDataId":"Q515423"},{"id":23883,"name":"Bad Wildbad","stateId":3006,"stateCode":"BW","stateName":"Baden-Württemberg","countryId":82,"countryCode":"DE","countryName":"Germany","latitude":"48.75071000","longitude":"8.55040000","wikiDataId":"Q502755"},{"id":23886,"name":"Bad Wimpfen","stateId":3006,"stateCode":"BW","stateName":"Baden-Württemberg","countryId":82,"countryCode":"DE","countryName":"Germany","latitude":"49.22971000","longitude":"9.15648000","wikiDataId":"Q491535"},{"id":23888,"name":"Bad Wurzach","stateId":3006,"stateCode":"BW","stateName":"Baden-Württemberg","countryId":82,"countryCode":"DE","countryName":"Germany","latitude":"47.90799000","longitude":"9.89686000","wikiDataId":"Q132278"},{"id":23895,"name":"Baden-Baden","stateId":3006,"stateCode":"BW","stateName":"Baden-Württemberg","countryId":82,"countryCode":"DE","countryName":"Germany","latitude":"48.76060000","longitude":"8.23975000","wikiDataId":"Q4100"},{"id":23897,"name":"Badenweiler","stateId":3006,"stateCode":"BW","stateName":"Baden-Württemberg","countryId":82,"countryCode":"DE","countryName":"Germany","latitude":"47.80223000","longitude":"7.67236000","wikiDataId":"Q25430"},{"id":23899,"name":"Bahlingen","stateId":3006,"stateCode":"BW","stateName":"Baden-Württemberg","countryId":82,"countryCode":"DE","countryName":"Germany","latitude":"48.12064000","longitude":"7.73982000","wikiDataId":"Q518801"},{"id":23902,"name":"Baienfurt","stateId":3006,"stateCode":"BW","stateName":"Baden-Württemberg","countryId":82,"countryCode":"DE","countryName":"Germany","latitude":"47.82857000","longitude":"9.65157000","wikiDataId":"Q632905"},{"id":23904,"name":"Baiersbronn","stateId":3006,"stateCode":"BW","stateName":"Baden-Württemberg","countryId":82,"countryCode":"DE","countryName":"Germany","latitude":"48.50318000","longitude":"8.37699000","wikiDataId":"Q81241"},{"id":23906,"name":"Baindt","stateId":3006,"stateCode":"BW","stateName":"Baden-Württemberg","countryId":82,"countryCode":"DE","countryName":"Germany","latitude":"47.85000000","longitude":"9.66667000","wikiDataId":"Q527565"},{"id":23910,"name":"Balingen","stateId":3006,"stateCode":"BW","stateName":"Baden-Württemberg","countryId":82,"countryCode":"DE","countryName":"Germany","latitude":"48.27525000","longitude":"8.85464000","wikiDataId":"Q16015"},{"id":23913,"name":"Baltmannsweiler","stateId":3006,"stateCode":"BW","stateName":"Baden-Württemberg","countryId":82,"countryCode":"DE","countryName":"Germany","latitude":"48.74215000","longitude":"9.44940000","wikiDataId":"Q80464"},{"id":23915,"name":"Balzfeld","stateId":3006,"stateCode":"BW","stateName":"Baden-Württemberg","countryId":82,"countryCode":"DE","countryName":"Germany","latitude":"49.26892000","longitude":"8.78919000","wikiDataId":"Q31901955"},{"id":23919,"name":"Bammental","stateId":3006,"stateCode":"BW","stateName":"Baden-Württemberg","countryId":82,"countryCode":"DE","countryName":"Germany","latitude":"49.35611000","longitude":"8.77944000","wikiDataId":"Q81117"},{"id":23945,"name":"Bartholomä","stateId":3006,"stateCode":"BW","stateName":"Baden-Württemberg","countryId":82,"countryCode":"DE","countryName":"Germany","latitude":"48.75350000","longitude":"9.98752000","wikiDataId":"Q513376"},{"id":23995,"name":"Beilstein","stateId":3006,"stateCode":"BW","stateName":"Baden-Württemberg","countryId":82,"countryCode":"DE","countryName":"Germany","latitude":"49.04140000","longitude":"9.31370000","wikiDataId":"Q31908847"},{"id":23996,"name":"Beimerstetten","stateId":3006,"stateCode":"BW","stateName":"Baden-Württemberg","countryId":82,"countryCode":"DE","countryName":"Germany","latitude":"48.48333000","longitude":"9.98333000","wikiDataId":"Q515002"},{"id":24006,"name":"Bempflingen","stateId":3006,"stateCode":"BW","stateName":"Baden-Württemberg","countryId":82,"countryCode":"DE","countryName":"Germany","latitude":"48.57178000","longitude":"9.26834000","wikiDataId":"Q80483"},{"id":24014,"name":"Benningen am Neckar","stateId":3006,"stateCode":"BW","stateName":"Baden-Württemberg","countryId":82,"countryCode":"DE","countryName":"Germany","latitude":"48.94672000","longitude":"9.24212000","wikiDataId":"Q61653"},{"id":24030,"name":"Bergatreute","stateId":3006,"stateCode":"BW","stateName":"Baden-Württemberg","countryId":82,"countryCode":"DE","countryName":"Germany","latitude":"47.85000000","longitude":"9.75000000","wikiDataId":"Q533761"},{"id":24038,"name":"Berghaupten","stateId":3006,"stateCode":"BW","stateName":"Baden-Württemberg","countryId":82,"countryCode":"DE","countryName":"Germany","latitude":"48.40602000","longitude":"7.98672000","wikiDataId":"Q515800"},{"id":24040,"name":"Berghülen","stateId":3006,"stateCode":"BW","stateName":"Baden-Württemberg","countryId":82,"countryCode":"DE","countryName":"Germany","latitude":"48.46399000","longitude":"9.76110000","wikiDataId":"Q515191"},{"id":24052,"name":"Berkheim","stateId":3006,"stateCode":"BW","stateName":"Baden-Württemberg","countryId":82,"countryCode":"DE","countryName":"Germany","latitude":"48.04263000","longitude":"10.08227000","wikiDataId":"Q586965"},{"id":24058,"name":"Bermatingen","stateId":3006,"stateCode":"BW","stateName":"Baden-Württemberg","countryId":82,"countryCode":"DE","countryName":"Germany","latitude":"47.73333000","longitude":"9.35000000","wikiDataId":"Q507274"},{"id":24059,"name":"Bernau","stateId":3006,"stateCode":"BW","stateName":"Baden-Württemberg","countryId":82,"countryCode":"DE","countryName":"Germany","latitude":"47.80018000","longitude":"8.03830000","wikiDataId":"Q537241"},{"id":24072,"name":"Bernstadt","stateId":3006,"stateCode":"BW","stateName":"Baden-Württemberg","countryId":82,"countryCode":"DE","countryName":"Germany","latitude":"48.49957000","longitude":"10.02575000","wikiDataId":"Q311771"},{"id":24078,"name":"Besigheim","stateId":3006,"stateCode":"BW","stateName":"Baden-Württemberg","countryId":82,"countryCode":"DE","countryName":"Germany","latitude":"48.99797000","longitude":"9.14268000","wikiDataId":"Q61825"},{"id":24088,"name":"Beuren","stateId":3006,"stateCode":"BW","stateName":"Baden-Württemberg","countryId":82,"countryCode":"DE","countryName":"Germany","latitude":"48.56927000","longitude":"9.40406000","wikiDataId":"Q702094"},{"id":24095,"name":"Biberach","stateId":3006,"stateCode":"BW","stateName":"Baden-Württemberg","countryId":82,"countryCode":"DE","countryName":"Germany","latitude":"48.61008000","longitude":"8.27704000","wikiDataId":"Q31912124"},{"id":24096,"name":"Biberach an der Riß","stateId":3006,"stateCode":"BW","stateName":"Baden-Württemberg","countryId":82,"countryCode":"DE","countryName":"Germany","latitude":"48.09345000","longitude":"9.79053000","wikiDataId":"Q16069"},{"id":24114,"name":"Bietigheim","stateId":3006,"stateCode":"BW","stateName":"Baden-Württemberg","countryId":82,"countryCode":"DE","countryName":"Germany","latitude":"48.90919000","longitude":"8.25202000","wikiDataId":"Q531945"},{"id":24115,"name":"Bietigheim-Bissingen","stateId":3006,"stateCode":"BW","stateName":"Baden-Württemberg","countryId":82,"countryCode":"DE","countryName":"Germany","latitude":"48.94407000","longitude":"9.11755000","wikiDataId":"Q7067"},{"id":24118,"name":"Billigheim","stateId":3006,"stateCode":"BW","stateName":"Baden-Württemberg","countryId":82,"countryCode":"DE","countryName":"Germany","latitude":"49.34861000","longitude":"9.25389000","wikiDataId":"Q537729"},{"id":24121,"name":"Binau","stateId":3006,"stateCode":"BW","stateName":"Baden-Württemberg","countryId":82,"countryCode":"DE","countryName":"Germany","latitude":"49.36833000","longitude":"9.05806000","wikiDataId":"Q537696"},{"id":24123,"name":"Bingen","stateId":3006,"stateCode":"BW","stateName":"Baden-Württemberg","countryId":82,"countryCode":"DE","countryName":"Germany","latitude":"48.11127000","longitude":"9.27238000","wikiDataId":"Q505002"},{"id":24128,"name":"Binzen","stateId":3006,"stateCode":"BW","stateName":"Baden-Württemberg","countryId":82,"countryCode":"DE","countryName":"Germany","latitude":"47.63333000","longitude":"7.61667000","wikiDataId":"Q62034"},{"id":24130,"name":"Birenbach","stateId":3006,"stateCode":"BW","stateName":"Baden-Württemberg","countryId":82,"countryCode":"DE","countryName":"Germany","latitude":"48.74732000","longitude":"9.66115000","wikiDataId":"Q80455"},{"id":24134,"name":"Birkenfeld","stateId":3006,"stateCode":"BW","stateName":"Baden-Württemberg","countryId":82,"countryCode":"DE","countryName":"Germany","latitude":"48.86667000","longitude":"8.63333000","wikiDataId":"Q512538"},{"id":24152,"name":"Bischweier","stateId":3006,"stateCode":"BW","stateName":"Baden-Württemberg","countryId":82,"countryCode":"DE","countryName":"Germany","latitude":"48.83766000","longitude":"8.28412000","wikiDataId":"Q256985"},{"id":24153,"name":"Bisingen","stateId":3006,"stateCode":"BW","stateName":"Baden-Württemberg","countryId":82,"countryCode":"DE","countryName":"Germany","latitude":"48.31012000","longitude":"8.91738000","wikiDataId":"Q538290"},{"id":24158,"name":"Bissingen an der Teck","stateId":3006,"stateCode":"BW","stateName":"Baden-Württemberg","countryId":82,"countryCode":"DE","countryName":"Germany","latitude":"48.59915000","longitude":"9.49146000","wikiDataId":"Q80496"},{"id":24161,"name":"Bitz","stateId":3006,"stateCode":"BW","stateName":"Baden-Württemberg","countryId":82,"countryCode":"DE","countryName":"Germany","latitude":"48.24400000","longitude":"9.09144000","wikiDataId":"Q516090"},{"id":24173,"name":"Blaubeuren","stateId":3006,"stateCode":"BW","stateName":"Baden-Württemberg","countryId":82,"countryCode":"DE","countryName":"Germany","latitude":"48.41215000","longitude":"9.78427000","wikiDataId":"Q31915899"},{"id":24174,"name":"Blaufelden","stateId":3006,"stateCode":"BW","stateName":"Baden-Württemberg","countryId":82,"countryCode":"DE","countryName":"Germany","latitude":"49.29778000","longitude":"9.97389000","wikiDataId":"Q83074"},{"id":24187,"name":"Blumberg","stateId":3006,"stateCode":"BW","stateName":"Baden-Württemberg","countryId":82,"countryCode":"DE","countryName":"Germany","latitude":"47.84058000","longitude":"8.53329000","wikiDataId":"Q82430"},{"id":24462,"name":"Böbingen an der Rems","stateId":3006,"stateCode":"BW","stateName":"Baden-Württemberg","countryId":82,"countryCode":"DE","countryName":"Germany","latitude":"48.81955000","longitude":"9.92130000","wikiDataId":"Q574269"},{"id":24463,"name":"Böblingen","stateId":3006,"stateCode":"BW","stateName":"Baden-Württemberg","countryId":82,"countryCode":"DE","countryName":"Germany","latitude":"48.68212000","longitude":"9.01171000","wikiDataId":"Q6931"},{"id":24203,"name":"Bodelshausen","stateId":3006,"stateCode":"BW","stateName":"Baden-Württemberg","countryId":82,"countryCode":"DE","countryName":"Germany","latitude":"48.38886000","longitude":"8.97703000","wikiDataId":"Q507671"},{"id":24210,"name":"Bodman-Ludwigshafen","stateId":3006,"stateCode":"BW","stateName":"Baden-Württemberg","countryId":82,"countryCode":"DE","countryName":"Germany","latitude":"47.81817000","longitude":"9.05540000","wikiDataId":"Q62013"},{"id":24211,"name":"Bodnegg","stateId":3006,"stateCode":"BW","stateName":"Baden-Württemberg","countryId":82,"countryCode":"DE","countryName":"Germany","latitude":"47.71014000","longitude":"9.68841000","wikiDataId":"Q533682"},{"id":24467,"name":"Böhmenkirch","stateId":3006,"stateCode":"BW","stateName":"Baden-Württemberg","countryId":82,"countryCode":"DE","countryName":"Germany","latitude":"48.68333000","longitude":"9.93333000","wikiDataId":"Q22972"},{"id":24222,"name":"Bolheim","stateId":3006,"stateCode":"BW","stateName":"Baden-Württemberg","countryId":82,"countryCode":"DE","countryName":"Germany","latitude":"48.63141000","longitude":"10.14995000","wikiDataId":"Q565866"},{"id":24223,"name":"Boll","stateId":3006,"stateCode":"BW","stateName":"Baden-Württemberg","countryId":82,"countryCode":"DE","countryName":"Germany","latitude":"48.64357000","longitude":"9.61295000","wikiDataId":"Q565866"},{"id":24226,"name":"Bollschweil","stateId":3006,"stateCode":"BW","stateName":"Baden-Württemberg","countryId":82,"countryCode":"DE","countryName":"Germany","latitude":"47.92143000","longitude":"7.78986000","wikiDataId":"Q632838"},{"id":24229,"name":"Bondorf","stateId":3006,"stateCode":"BW","stateName":"Baden-Württemberg","countryId":82,"countryCode":"DE","countryName":"Germany","latitude":"48.52064000","longitude":"8.83704000","wikiDataId":"Q200744"},{"id":24232,"name":"Bonndorf","stateId":3006,"stateCode":"BW","stateName":"Baden-Württemberg","countryId":82,"countryCode":"DE","countryName":"Germany","latitude":"47.81863000","longitude":"8.34139000","wikiDataId":"Q178703"},{"id":24470,"name":"Bönnigheim","stateId":3006,"stateCode":"BW","stateName":"Baden-Württemberg","countryId":82,"countryCode":"DE","countryName":"Germany","latitude":"49.04018000","longitude":"9.09386000","wikiDataId":"Q61837"},{"id":24236,"name":"Bopfingen","stateId":3006,"stateCode":"BW","stateName":"Baden-Württemberg","countryId":82,"countryCode":"DE","countryName":"Germany","latitude":"48.85847000","longitude":"10.35417000","wikiDataId":"Q628178"},{"id":24476,"name":"Börtlingen","stateId":3006,"stateCode":"BW","stateName":"Baden-Württemberg","countryId":82,"countryCode":"DE","countryName":"Germany","latitude":"48.75376000","longitude":"9.63181000","wikiDataId":"Q80543"},{"id":24481,"name":"Bösingen","stateId":3006,"stateCode":"BW","stateName":"Baden-Württemberg","countryId":82,"countryCode":"DE","countryName":"Germany","latitude":"48.23333000","longitude":"8.55000000","wikiDataId":"Q46742"},{"id":24483,"name":"Böttingen","stateId":3006,"stateCode":"BW","stateName":"Baden-Württemberg","countryId":82,"countryCode":"DE","countryName":"Germany","latitude":"48.10000000","longitude":"8.80000000","wikiDataId":"Q536304"},{"id":24484,"name":"Bötzingen","stateId":3006,"stateCode":"BW","stateName":"Baden-Württemberg","countryId":82,"countryCode":"DE","countryName":"Germany","latitude":"48.07642000","longitude":"7.72485000","wikiDataId":"Q518889"},{"id":24268,"name":"Boxberg","stateId":3006,"stateCode":"BW","stateName":"Baden-Württemberg","countryId":82,"countryCode":"DE","countryName":"Germany","latitude":"49.47965000","longitude":"9.64006000","wikiDataId":"Q544833"},{"id":24271,"name":"Brackenheim","stateId":3006,"stateCode":"BW","stateName":"Baden-Württemberg","countryId":82,"countryCode":"DE","countryName":"Germany","latitude":"49.07787000","longitude":"9.06601000","wikiDataId":"Q53751"},{"id":24364,"name":"Bräunlingen","stateId":3006,"stateCode":"BW","stateName":"Baden-Württemberg","countryId":82,"countryCode":"DE","countryName":"Germany","latitude":"47.92957000","longitude":"8.44806000","wikiDataId":"Q81779"},{"id":24289,"name":"Braunsbach","stateId":3006,"stateCode":"BW","stateName":"Baden-Württemberg","countryId":82,"countryCode":"DE","countryName":"Germany","latitude":"49.19917000","longitude":"9.79056000","wikiDataId":"Q80995"},{"id":24302,"name":"Breisach am Rhein","stateId":3006,"stateCode":"BW","stateName":"Baden-Württemberg","countryId":82,"countryCode":"DE","countryName":"Germany","latitude":"48.03279000","longitude":"7.58294000","wikiDataId":"Q489911"},{"id":24314,"name":"Breitnau","stateId":3006,"stateCode":"BW","stateName":"Baden-Württemberg","countryId":82,"countryCode":"DE","countryName":"Germany","latitude":"47.93333000","longitude":"8.08333000","wikiDataId":"Q534202"},{"id":24325,"name":"Bretten","stateId":3006,"stateCode":"BW","stateName":"Baden-Württemberg","countryId":82,"countryCode":"DE","countryName":"Germany","latitude":"49.03685000","longitude":"8.70745000","wikiDataId":"Q495428"},{"id":24327,"name":"Bretzfeld","stateId":3006,"stateCode":"BW","stateName":"Baden-Württemberg","countryId":82,"countryCode":"DE","countryName":"Germany","latitude":"49.17944000","longitude":"9.43833000","wikiDataId":"Q567288"},{"id":24351,"name":"Bruchsal","stateId":3006,"stateCode":"BW","stateName":"Baden-Württemberg","countryId":82,"countryCode":"DE","countryName":"Germany","latitude":"49.12426000","longitude":"8.59804000","wikiDataId":"Q7059"},{"id":24371,"name":"Brühl","stateId":3006,"stateCode":"BW","stateName":"Baden-Württemberg","countryId":82,"countryCode":"DE","countryName":"Germany","latitude":"49.39722000","longitude":"8.53361000","wikiDataId":"Q22962"},{"id":24377,"name":"Bubsheim","stateId":3006,"stateCode":"BW","stateName":"Baden-Württemberg","countryId":82,"countryCode":"DE","countryName":"Germany","latitude":"48.11667000","longitude":"8.83333000","wikiDataId":"Q524262"},{"id":24380,"name":"Buch am Ahorn","stateId":3006,"stateCode":"BW","stateName":"Baden-Württemberg","countryId":82,"countryCode":"DE","countryName":"Germany","latitude":"49.53909000","longitude":"9.55560000","wikiDataId":"Q28777566"},{"id":24386,"name":"Buchen in Odenwald","stateId":3006,"stateCode":"BW","stateName":"Baden-Württemberg","countryId":82,"countryCode":"DE","countryName":"Germany","latitude":"49.52416000","longitude":"9.32293000","wikiDataId":"Q179252"},{"id":24387,"name":"Buchenbach","stateId":3006,"stateCode":"BW","stateName":"Baden-Württemberg","countryId":82,"countryCode":"DE","countryName":"Germany","latitude":"47.96138000","longitude":"8.00909000","wikiDataId":"Q515977"},{"id":24400,"name":"Buggingen","stateId":3006,"stateCode":"BW","stateName":"Baden-Württemberg","countryId":82,"countryCode":"DE","countryName":"Germany","latitude":"47.84750000","longitude":"7.63799000","wikiDataId":"Q518965"},{"id":24495,"name":"Bühl","stateId":3006,"stateCode":"BW","stateName":"Baden-Württemberg","countryId":82,"countryCode":"DE","countryName":"Germany","latitude":"48.69676000","longitude":"8.13523000","wikiDataId":"Q505534"},{"id":24496,"name":"Bühlertal","stateId":3006,"stateCode":"BW","stateName":"Baden-Württemberg","countryId":82,"countryCode":"DE","countryName":"Germany","latitude":"48.68569000","longitude":"8.18876000","wikiDataId":"Q550528"},{"id":24497,"name":"Bühlertann","stateId":3006,"stateCode":"BW","stateName":"Baden-Württemberg","countryId":82,"countryCode":"DE","countryName":"Germany","latitude":"49.04167000","longitude":"9.90861000","wikiDataId":"Q81107"},{"id":24498,"name":"Bühlerzell","stateId":3006,"stateCode":"BW","stateName":"Baden-Württemberg","countryId":82,"countryCode":"DE","countryName":"Germany","latitude":"49.00333000","longitude":"9.92056000","wikiDataId":"Q81026"},{"id":24429,"name":"Burgrieden","stateId":3006,"stateCode":"BW","stateName":"Baden-Württemberg","countryId":82,"countryCode":"DE","countryName":"Germany","latitude":"48.23333000","longitude":"9.93333000","wikiDataId":"Q503894"},{"id":24434,"name":"Burgstetten","stateId":3006,"stateCode":"BW","stateName":"Baden-Württemberg","countryId":82,"countryCode":"DE","countryName":"Germany","latitude":"48.92805000","longitude":"9.37239000","wikiDataId":"Q80458"},{"id":24443,"name":"Burladingen","stateId":3006,"stateCode":"BW","stateName":"Baden-Württemberg","countryId":82,"countryCode":"DE","countryName":"Germany","latitude":"48.29111000","longitude":"9.11286000","wikiDataId":"Q384264"},{"id":24505,"name":"Büsingen","stateId":3006,"stateCode":"BW","stateName":"Baden-Württemberg","countryId":82,"countryCode":"DE","countryName":"Germany","latitude":"47.69638000","longitude":"8.68759000","wikiDataId":"Q61698"},{"id":24519,"name":"Calw","stateId":3006,"stateCode":"BW","stateName":"Baden-Württemberg","countryId":82,"countryCode":"DE","countryName":"Germany","latitude":"48.71419000","longitude":"8.74031000","wikiDataId":"Q487921"},{"id":24540,"name":"Cleebronn","stateId":3006,"stateCode":"BW","stateName":"Baden-Württemberg","countryId":82,"countryCode":"DE","countryName":"Germany","latitude":"49.04500000","longitude":"9.03694000","wikiDataId":"Q546393"},{"id":24557,"name":"Crailsheim","stateId":3006,"stateCode":"BW","stateName":"Baden-Württemberg","countryId":82,"countryCode":"DE","countryName":"Germany","latitude":"49.13444000","longitude":"10.07193000","wikiDataId":"Q16048"},{"id":24559,"name":"Creglingen","stateId":3006,"stateCode":"BW","stateName":"Baden-Württemberg","countryId":82,"countryCode":"DE","countryName":"Germany","latitude":"49.46937000","longitude":"10.03119000","wikiDataId":"Q61617"},{"id":24585,"name":"Daisendorf","stateId":3006,"stateCode":"BW","stateName":"Baden-Württemberg","countryId":82,"countryCode":"DE","countryName":"Germany","latitude":"47.71265000","longitude":"9.26783000","wikiDataId":"Q505483"},{"id":24604,"name":"Dauchingen","stateId":3006,"stateCode":"BW","stateName":"Baden-Württemberg","countryId":82,"countryCode":"DE","countryName":"Germany","latitude":"48.08993000","longitude":"8.55011000","wikiDataId":"Q81442"},{"id":24607,"name":"Deckenpfronn","stateId":3006,"stateCode":"BW","stateName":"Baden-Württemberg","countryId":82,"countryCode":"DE","countryName":"Germany","latitude":"48.65128000","longitude":"8.82417000","wikiDataId":"Q569120"},{"id":24611,"name":"Deggingen","stateId":3006,"stateCode":"BW","stateName":"Baden-Württemberg","countryId":82,"countryCode":"DE","countryName":"Germany","latitude":"48.59710000","longitude":"9.71891000","wikiDataId":"Q80461"},{"id":24614,"name":"Deilingen","stateId":3006,"stateCode":"BW","stateName":"Baden-Württemberg","countryId":82,"countryCode":"DE","countryName":"Germany","latitude":"48.17410000","longitude":"8.78533000","wikiDataId":"Q22951"},{"id":24620,"name":"Deißlingen","stateId":3006,"stateCode":"BW","stateName":"Baden-Württemberg","countryId":82,"countryCode":"DE","countryName":"Germany","latitude":"48.11230000","longitude":"8.60736000","wikiDataId":"Q81122"},{"id":24619,"name":"Deizisau","stateId":3006,"stateCode":"BW","stateName":"Baden-Württemberg","countryId":82,"countryCode":"DE","countryName":"Germany","latitude":"48.71220000","longitude":"9.38610000","wikiDataId":"Q80552"},{"id":24630,"name":"Denkendorf","stateId":3006,"stateCode":"BW","stateName":"Baden-Württemberg","countryId":82,"countryCode":"DE","countryName":"Germany","latitude":"48.69555000","longitude":"9.31675000","wikiDataId":"Q50960"},{"id":24631,"name":"Denkingen","stateId":3006,"stateCode":"BW","stateName":"Baden-Württemberg","countryId":82,"countryCode":"DE","countryName":"Germany","latitude":"48.11110000","longitude":"8.73820000","wikiDataId":"Q532807"},{"id":24635,"name":"Denzlingen","stateId":3006,"stateCode":"BW","stateName":"Baden-Württemberg","countryId":82,"countryCode":"DE","countryName":"Germany","latitude":"48.06667000","longitude":"7.88333000","wikiDataId":"Q538523"},{"id":24649,"name":"Dettenhausen","stateId":3006,"stateCode":"BW","stateName":"Baden-Württemberg","countryId":82,"countryCode":"DE","countryName":"Germany","latitude":"48.60758000","longitude":"9.10041000","wikiDataId":"Q528076"},{"id":24650,"name":"Dettighofen","stateId":3006,"stateCode":"BW","stateName":"Baden-Württemberg","countryId":82,"countryCode":"DE","countryName":"Germany","latitude":"47.62333000","longitude":"8.48512000","wikiDataId":"Q528076"},{"id":24651,"name":"Dettingen","stateId":3006,"stateCode":"BW","stateName":"Baden-Württemberg","countryId":82,"countryCode":"DE","countryName":"Germany","latitude":"48.26246000","longitude":"9.72161000","wikiDataId":"Q528076"},{"id":24652,"name":"Dettingen an der Erms","stateId":3006,"stateCode":"BW","stateName":"Baden-Württemberg","countryId":82,"countryCode":"DE","countryName":"Germany","latitude":"48.53077000","longitude":"9.34458000","wikiDataId":"Q83045"},{"id":24653,"name":"Dettingen unter Teck","stateId":3006,"stateCode":"BW","stateName":"Baden-Württemberg","countryId":82,"countryCode":"DE","countryName":"Germany","latitude":"48.61667000","longitude":"9.45000000","wikiDataId":"Q81724"},{"id":24668,"name":"Dielheim","stateId":3006,"stateCode":"BW","stateName":"Baden-Württemberg","countryId":82,"countryCode":"DE","countryName":"Germany","latitude":"49.28417000","longitude":"8.73806000","wikiDataId":"Q81869"},{"id":24677,"name":"Dietenheim","stateId":3006,"stateCode":"BW","stateName":"Baden-Württemberg","countryId":82,"countryCode":"DE","countryName":"Germany","latitude":"48.21072000","longitude":"10.07163000","wikiDataId":"Q206649"},{"id":24683,"name":"Dietingen","stateId":3006,"stateCode":"BW","stateName":"Baden-Württemberg","countryId":82,"countryCode":"DE","countryName":"Germany","latitude":"48.20480000","longitude":"8.64864000","wikiDataId":"Q31953806"},{"id":24704,"name":"Dischingen","stateId":3006,"stateCode":"BW","stateName":"Baden-Württemberg","countryId":82,"countryCode":"DE","countryName":"Germany","latitude":"48.70000000","longitude":"10.36667000","wikiDataId":"Q1228438"},{"id":24710,"name":"Ditzingen","stateId":3006,"stateCode":"BW","stateName":"Baden-Württemberg","countryId":82,"countryCode":"DE","countryName":"Germany","latitude":"48.82672000","longitude":"9.06703000","wikiDataId":"Q61658"},{"id":24712,"name":"Dobel","stateId":3006,"stateCode":"BW","stateName":"Baden-Württemberg","countryId":82,"countryCode":"DE","countryName":"Germany","latitude":"48.80000000","longitude":"8.50000000","wikiDataId":"Q534665"},{"id":24717,"name":"Dogern","stateId":3006,"stateCode":"BW","stateName":"Baden-Württemberg","countryId":82,"countryCode":"DE","countryName":"Germany","latitude":"47.60952000","longitude":"8.16713000","wikiDataId":"Q632790"},{"id":24729,"name":"Donaueschingen","stateId":3006,"stateCode":"BW","stateName":"Baden-Württemberg","countryId":82,"countryCode":"DE","countryName":"Germany","latitude":"47.95514000","longitude":"8.49707000","wikiDataId":"Q83062"},{"id":24733,"name":"Donzdorf","stateId":3006,"stateCode":"BW","stateName":"Baden-Württemberg","countryId":82,"countryCode":"DE","countryName":"Germany","latitude":"48.68544000","longitude":"9.81053000","wikiDataId":"Q80874"},{"id":24739,"name":"Dormettingen","stateId":3006,"stateCode":"BW","stateName":"Baden-Württemberg","countryId":82,"countryCode":"DE","countryName":"Germany","latitude":"48.23688000","longitude":"8.77327000","wikiDataId":"Q527625"},{"id":24742,"name":"Dornhan","stateId":3006,"stateCode":"BW","stateName":"Baden-Württemberg","countryId":82,"countryCode":"DE","countryName":"Germany","latitude":"48.35008000","longitude":"8.50901000","wikiDataId":"Q83304"},{"id":24743,"name":"Dornstadt","stateId":3006,"stateCode":"BW","stateName":"Baden-Württemberg","countryId":82,"countryCode":"DE","countryName":"Germany","latitude":"48.46697000","longitude":"9.94434000","wikiDataId":"Q632811"},{"id":24744,"name":"Dornstetten","stateId":3006,"stateCode":"BW","stateName":"Baden-Württemberg","countryId":82,"countryCode":"DE","countryName":"Germany","latitude":"48.47198000","longitude":"8.49817000","wikiDataId":"Q82299"},{"id":24803,"name":"Dörzbach","stateId":3006,"stateCode":"BW","stateName":"Baden-Württemberg","countryId":82,"countryCode":"DE","countryName":"Germany","latitude":"49.38355000","longitude":"9.70732000","wikiDataId":"Q544758"},{"id":24749,"name":"Dossenheim","stateId":3006,"stateCode":"BW","stateName":"Baden-Württemberg","countryId":82,"countryCode":"DE","countryName":"Germany","latitude":"49.45028000","longitude":"8.67472000","wikiDataId":"Q83255"},{"id":24750,"name":"Dotternhausen","stateId":3006,"stateCode":"BW","stateName":"Baden-Württemberg","countryId":82,"countryCode":"DE","countryName":"Germany","latitude":"48.22848000","longitude":"8.79228000","wikiDataId":"Q507218"},{"id":24782,"name":"Dunningen","stateId":3006,"stateCode":"BW","stateName":"Baden-Württemberg","countryId":82,"countryCode":"DE","countryName":"Germany","latitude":"48.21242000","longitude":"8.50619000","wikiDataId":"Q81195"},{"id":24785,"name":"Durbach","stateId":3006,"stateCode":"BW","stateName":"Baden-Württemberg","countryId":82,"countryCode":"DE","countryName":"Germany","latitude":"48.49352000","longitude":"8.01736000","wikiDataId":"Q550750"},{"id":24809,"name":"Dürbheim","stateId":3006,"stateCode":"BW","stateName":"Baden-Württemberg","countryId":82,"countryCode":"DE","countryName":"Germany","latitude":"48.05623000","longitude":"8.79344000","wikiDataId":"Q529240"},{"id":24786,"name":"Durlangen","stateId":3006,"stateCode":"BW","stateName":"Baden-Württemberg","countryId":82,"countryCode":"DE","countryName":"Germany","latitude":"48.85632000","longitude":"9.79654000","wikiDataId":"Q574188"},{"id":24811,"name":"Dürmentingen","stateId":3006,"stateCode":"BW","stateName":"Baden-Württemberg","countryId":82,"countryCode":"DE","countryName":"Germany","latitude":"48.11667000","longitude":"9.53333000","wikiDataId":"Q518812"},{"id":24787,"name":"Durmersheim","stateId":3006,"stateCode":"BW","stateName":"Baden-Württemberg","countryId":82,"countryCode":"DE","countryName":"Germany","latitude":"48.93333000","longitude":"8.26667000","wikiDataId":"Q81858"},{"id":24812,"name":"Dürnau","stateId":3006,"stateCode":"BW","stateName":"Baden-Württemberg","countryId":82,"countryCode":"DE","countryName":"Germany","latitude":"48.64079000","longitude":"9.63544000","wikiDataId":"Q518812"},{"id":24789,"name":"Dußlingen","stateId":3006,"stateCode":"BW","stateName":"Baden-Württemberg","countryId":82,"countryCode":"DE","countryName":"Germany","latitude":"48.45357000","longitude":"9.05552000","wikiDataId":"Q507755"},{"id":24824,"name":"Ebenweiler","stateId":3006,"stateCode":"BW","stateName":"Baden-Württemberg","countryId":82,"countryCode":"DE","countryName":"Germany","latitude":"47.90000000","longitude":"9.51667000","wikiDataId":"Q533853"},{"id":24825,"name":"Eberbach","stateId":3006,"stateCode":"BW","stateName":"Baden-Württemberg","countryId":82,"countryCode":"DE","countryName":"Germany","latitude":"49.46680000","longitude":"8.99016000","wikiDataId":"Q31981554"},{"id":24826,"name":"Eberdingen","stateId":3006,"stateCode":"BW","stateName":"Baden-Württemberg","countryId":82,"countryCode":"DE","countryName":"Germany","latitude":"48.87942000","longitude":"8.96502000","wikiDataId":"Q61736"},{"id":24828,"name":"Eberhardzell","stateId":3006,"stateCode":"BW","stateName":"Baden-Württemberg","countryId":82,"countryCode":"DE","countryName":"Germany","latitude":"48.00000000","longitude":"9.81667000","wikiDataId":"Q201907"},{"id":24833,"name":"Ebersbach an der Fils","stateId":3006,"stateCode":"BW","stateName":"Baden-Württemberg","countryId":82,"countryCode":"DE","countryName":"Germany","latitude":"48.71600000","longitude":"9.52360000","wikiDataId":"Q80844"},{"id":24834,"name":"Ebersbach-Musbach","stateId":3006,"stateCode":"BW","stateName":"Baden-Württemberg","countryId":82,"countryCode":"DE","countryName":"Germany","latitude":"47.96667000","longitude":"9.58333000","wikiDataId":"Q533779"},{"id":24838,"name":"Eberstadt","stateId":3006,"stateCode":"BW","stateName":"Baden-Württemberg","countryId":82,"countryCode":"DE","countryName":"Germany","latitude":"49.18028000","longitude":"9.32111000","wikiDataId":"Q31981839"},{"id":24841,"name":"Ebhausen","stateId":3006,"stateCode":"BW","stateName":"Baden-Württemberg","countryId":82,"countryCode":"DE","countryName":"Germany","latitude":"48.58333000","longitude":"8.68333000","wikiDataId":"Q536887"},{"id":24843,"name":"Ebringen","stateId":3006,"stateCode":"BW","stateName":"Baden-Württemberg","countryId":82,"countryCode":"DE","countryName":"Germany","latitude":"47.95780000","longitude":"7.77652000","wikiDataId":"Q527868"},{"id":24861,"name":"Edingen-Neckarhausen","stateId":3006,"stateCode":"BW","stateName":"Baden-Württemberg","countryId":82,"countryCode":"DE","countryName":"Germany","latitude":"49.45722000","longitude":"8.60639000","wikiDataId":"Q547805"},{"id":24864,"name":"Efringen-Kirchen","stateId":3006,"stateCode":"BW","stateName":"Baden-Württemberg","countryId":82,"countryCode":"DE","countryName":"Germany","latitude":"47.65000000","longitude":"7.56667000","wikiDataId":"Q61640"},{"id":24867,"name":"Egenhausen","stateId":3006,"stateCode":"BW","stateName":"Baden-Württemberg","countryId":82,"countryCode":"DE","countryName":"Germany","latitude":"48.56667000","longitude":"8.61667000","wikiDataId":"Q622212"},{"id":24873,"name":"Eggenstein-Leopoldshafen","stateId":3006,"stateCode":"BW","stateName":"Baden-Württemberg","countryId":82,"countryCode":"DE","countryName":"Germany","latitude":"49.09006000","longitude":"8.39879000","wikiDataId":"Q520583"},{"id":24878,"name":"Eggingen","stateId":3006,"stateCode":"BW","stateName":"Baden-Württemberg","countryId":82,"countryCode":"DE","countryName":"Germany","latitude":"47.70000000","longitude":"8.40000000","wikiDataId":"Q179890"},{"id":24888,"name":"Ehingen","stateId":3006,"stateCode":"BW","stateName":"Baden-Württemberg","countryId":82,"countryCode":"DE","countryName":"Germany","latitude":"48.28259000","longitude":"9.72749000","wikiDataId":"Q158523"},{"id":24891,"name":"Ehningen","stateId":3006,"stateCode":"BW","stateName":"Baden-Württemberg","countryId":82,"countryCode":"DE","countryName":"Germany","latitude":"48.65882000","longitude":"8.94124000","wikiDataId":"Q314758"},{"id":24905,"name":"Eichstetten","stateId":3006,"stateCode":"BW","stateName":"Baden-Württemberg","countryId":82,"countryCode":"DE","countryName":"Germany","latitude":"48.09427000","longitude":"7.74244000","wikiDataId":"Q46745"},{"id":24911,"name":"Eigeltingen","stateId":3006,"stateCode":"BW","stateName":"Baden-Württemberg","countryId":82,"countryCode":"DE","countryName":"Germany","latitude":"47.85802000","longitude":"8.89784000","wikiDataId":"Q62021"},{"id":24916,"name":"Eimeldingen","stateId":3006,"stateCode":"BW","stateName":"Baden-Württemberg","countryId":82,"countryCode":"DE","countryName":"Germany","latitude":"47.63333000","longitude":"7.60000000","wikiDataId":"Q61639"},{"id":24925,"name":"Eisenbach","stateId":3006,"stateCode":"BW","stateName":"Baden-Württemberg","countryId":82,"countryCode":"DE","countryName":"Germany","latitude":"47.96117000","longitude":"8.26802000","wikiDataId":"Q117878"},{"id":24931,"name":"Eisingen","stateId":3006,"stateCode":"BW","stateName":"Baden-Württemberg","countryId":82,"countryCode":"DE","countryName":"Germany","latitude":"48.95000000","longitude":"8.66667000","wikiDataId":"Q486795"},{"id":24934,"name":"Eislingen","stateId":3006,"stateCode":"BW","stateName":"Baden-Württemberg","countryId":82,"countryCode":"DE","countryName":"Germany","latitude":"48.69515000","longitude":"9.70676000","wikiDataId":"Q484870"},{"id":24947,"name":"Ellenberg","stateId":3006,"stateCode":"BW","stateName":"Baden-Württemberg","countryId":82,"countryCode":"DE","countryName":"Germany","latitude":"49.01667000","longitude":"10.21667000","wikiDataId":"Q46749"},{"id":24953,"name":"Ellhofen","stateId":3006,"stateCode":"BW","stateName":"Baden-Württemberg","countryId":82,"countryCode":"DE","countryName":"Germany","latitude":"49.14667000","longitude":"9.32194000","wikiDataId":"Q518171"},{"id":24956,"name":"Ellwangen","stateId":3006,"stateCode":"BW","stateName":"Baden-Württemberg","countryId":82,"countryCode":"DE","countryName":"Germany","latitude":"48.96164000","longitude":"10.13173000","wikiDataId":"Q163973"},{"id":24979,"name":"Elzach","stateId":3006,"stateCode":"BW","stateName":"Baden-Württemberg","countryId":82,"countryCode":"DE","countryName":"Germany","latitude":"48.17247000","longitude":"8.06992000","wikiDataId":"Q506773"},{"id":24988,"name":"Emmendingen","stateId":3006,"stateCode":"BW","stateName":"Baden-Württemberg","countryId":82,"countryCode":"DE","countryName":"Germany","latitude":"48.12096000","longitude":"7.85359000","wikiDataId":"Q15276466"},{"id":24991,"name":"Emmingen-Liptingen","stateId":3006,"stateCode":"BW","stateName":"Baden-Württemberg","countryId":82,"countryCode":"DE","countryName":"Germany","latitude":"47.93333000","longitude":"8.88333000","wikiDataId":"Q530508"},{"id":24992,"name":"Empfingen","stateId":3006,"stateCode":"BW","stateName":"Baden-Württemberg","countryId":82,"countryCode":"DE","countryName":"Germany","latitude":"48.39258000","longitude":"8.71036000","wikiDataId":"Q80467"},{"id":24999,"name":"Endingen","stateId":3006,"stateCode":"BW","stateName":"Baden-Württemberg","countryId":82,"countryCode":"DE","countryName":"Germany","latitude":"48.14221000","longitude":"7.70049000","wikiDataId":"Q168511"},{"id":25002,"name":"Engelsbrand","stateId":3006,"stateCode":"BW","stateName":"Baden-Württemberg","countryId":82,"countryCode":"DE","countryName":"Germany","latitude":"48.83333000","longitude":"8.65000000","wikiDataId":"Q80505"},{"id":25005,"name":"Engen","stateId":3006,"stateCode":"BW","stateName":"Baden-Württemberg","countryId":82,"countryCode":"DE","countryName":"Germany","latitude":"47.85534000","longitude":"8.77342000","wikiDataId":"Q31996016"},{"id":25007,"name":"Eningen unter Achalm","stateId":3006,"stateCode":"BW","stateName":"Baden-Württemberg","countryId":82,"countryCode":"DE","countryName":"Germany","latitude":"48.48686000","longitude":"9.25946000","wikiDataId":"Q81423"},{"id":25011,"name":"Ennetach","stateId":3006,"stateCode":"BW","stateName":"Baden-Württemberg","countryId":82,"countryCode":"DE","countryName":"Germany","latitude":"48.05238000","longitude":"9.32010000","wikiDataId":"Q880749"},{"id":25015,"name":"Enzklösterle","stateId":3006,"stateCode":"BW","stateName":"Baden-Württemberg","countryId":82,"countryCode":"DE","countryName":"Germany","latitude":"48.66638000","longitude":"8.47083000","wikiDataId":"Q246783"},{"id":25016,"name":"Epfenbach","stateId":3006,"stateCode":"BW","stateName":"Baden-Württemberg","countryId":82,"countryCode":"DE","countryName":"Germany","latitude":"49.33917000","longitude":"8.90778000","wikiDataId":"Q83374"},{"id":25017,"name":"Epfendorf","stateId":3006,"stateCode":"BW","stateName":"Baden-Württemberg","countryId":82,"countryCode":"DE","countryName":"Germany","latitude":"48.25000000","longitude":"8.60000000","wikiDataId":"Q81302"},{"id":25019,"name":"Eppelheim","stateId":3006,"stateCode":"BW","stateName":"Baden-Württemberg","countryId":82,"countryCode":"DE","countryName":"Germany","latitude":"49.40190000","longitude":"8.63644000","wikiDataId":"Q82539"},{"id":25024,"name":"Eppingen","stateId":3006,"stateCode":"BW","stateName":"Baden-Württemberg","countryId":82,"countryCode":"DE","countryName":"Germany","latitude":"49.13645000","longitude":"8.91229000","wikiDataId":"Q506450"},{"id":25028,"name":"Erbach","stateId":3006,"stateCode":"BW","stateName":"Baden-Württemberg","countryId":82,"countryCode":"DE","countryName":"Germany","latitude":"48.32841000","longitude":"9.88752000","wikiDataId":"Q571748"},{"id":25033,"name":"Erdmannhausen","stateId":3006,"stateCode":"BW","stateName":"Baden-Württemberg","countryId":82,"countryCode":"DE","countryName":"Germany","latitude":"48.94256000","longitude":"9.29615000","wikiDataId":"Q61651"},{"id":25044,"name":"Eriskirch","stateId":3006,"stateCode":"BW","stateName":"Baden-Württemberg","countryId":82,"countryCode":"DE","countryName":"Germany","latitude":"47.62479000","longitude":"9.54197000","wikiDataId":"Q515372"},{"id":25046,"name":"Erkenbrechtsweiler","stateId":3006,"stateCode":"BW","stateName":"Baden-Württemberg","countryId":82,"countryCode":"DE","countryName":"Germany","latitude":"48.55656000","longitude":"9.43211000","wikiDataId":"Q80494"},{"id":25057,"name":"Erlenbach","stateId":3006,"stateCode":"BW","stateName":"Baden-Württemberg","countryId":82,"countryCode":"DE","countryName":"Germany","latitude":"49.17250000","longitude":"9.26833000","wikiDataId":"Q46753"},{"id":25059,"name":"Erlenmoos","stateId":3006,"stateCode":"BW","stateName":"Baden-Württemberg","countryId":82,"countryCode":"DE","countryName":"Germany","latitude":"48.06530000","longitude":"9.97567000","wikiDataId":"Q46753"},{"id":25061,"name":"Erligheim","stateId":3006,"stateCode":"BW","stateName":"Baden-Württemberg","countryId":82,"countryCode":"DE","countryName":"Germany","latitude":"49.02250000","longitude":"9.09722000","wikiDataId":"Q61702"},{"id":25066,"name":"Erolzheim","stateId":3006,"stateCode":"BW","stateName":"Baden-Württemberg","countryId":82,"countryCode":"DE","countryName":"Germany","latitude":"48.09001000","longitude":"10.07300000","wikiDataId":"Q519018"},{"id":25069,"name":"Ersingen","stateId":3006,"stateCode":"BW","stateName":"Baden-Württemberg","countryId":82,"countryCode":"DE","countryName":"Germany","latitude":"48.29260000","longitude":"9.85510000","wikiDataId":"Q22526"},{"id":25070,"name":"Ertingen","stateId":3006,"stateCode":"BW","stateName":"Baden-Württemberg","countryId":82,"countryCode":"DE","countryName":"Germany","latitude":"48.10000000","longitude":"9.46667000","wikiDataId":"Q538711"},{"id":25074,"name":"Eschach","stateId":3006,"stateCode":"BW","stateName":"Baden-Württemberg","countryId":82,"countryCode":"DE","countryName":"Germany","latitude":"48.88832000","longitude":"9.86999000","wikiDataId":"Q635503"},{"id":25079,"name":"Eschelbronn","stateId":3006,"stateCode":"BW","stateName":"Baden-Württemberg","countryId":82,"countryCode":"DE","countryName":"Germany","latitude":"49.31944000","longitude":"8.86528000","wikiDataId":"Q13622"},{"id":25080,"name":"Eschenbach","stateId":3006,"stateCode":"BW","stateName":"Baden-Württemberg","countryId":82,"countryCode":"DE","countryName":"Germany","latitude":"48.65264000","longitude":"9.67037000","wikiDataId":"Q13622"},{"id":25099,"name":"Essingen","stateId":3006,"stateCode":"BW","stateName":"Baden-Württemberg","countryId":82,"countryCode":"DE","countryName":"Germany","latitude":"48.80859000","longitude":"10.02773000","wikiDataId":"Q174307"},{"id":25101,"name":"Esslingen","stateId":3006,"stateCode":"BW","stateName":"Baden-Württemberg","countryId":82,"countryCode":"DE","countryName":"Germany","latitude":"48.73961000","longitude":"9.30473000","wikiDataId":"Q3786"},{"id":25106,"name":"Ettenheim","stateId":3006,"stateCode":"BW","stateName":"Baden-Württemberg","countryId":82,"countryCode":"DE","countryName":"Germany","latitude":"48.25696000","longitude":"7.81247000","wikiDataId":"Q506871"},{"id":25107,"name":"Ettlingen","stateId":3006,"stateCode":"BW","stateName":"Baden-Württemberg","countryId":82,"countryCode":"DE","countryName":"Germany","latitude":"48.94094000","longitude":"8.40763000","wikiDataId":"Q14893"},{"id":25118,"name":"Eutingen an der Enz","stateId":3006,"stateCode":"BW","stateName":"Baden-Württemberg","countryId":82,"countryCode":"DE","countryName":"Germany","latitude":"48.91246000","longitude":"8.74898000","wikiDataId":"Q32000235"},{"id":25127,"name":"Fahrenbach","stateId":3006,"stateCode":"BW","stateName":"Baden-Württemberg","countryId":82,"countryCode":"DE","countryName":"Germany","latitude":"49.43139000","longitude":"9.15056000","wikiDataId":"Q534257"},{"id":25153,"name":"Feldberg","stateId":3006,"stateCode":"BW","stateName":"Baden-Württemberg","countryId":82,"countryCode":"DE","countryName":"Germany","latitude":"47.77435000","longitude":"7.64142000","wikiDataId":"Q507424"},{"id":25159,"name":"Fellbach","stateId":3006,"stateCode":"BW","stateName":"Baden-Württemberg","countryId":82,"countryCode":"DE","countryName":"Germany","latitude":"48.80912000","longitude":"9.27697000","wikiDataId":"Q7022"},{"id":25168,"name":"Fichtenberg","stateId":3006,"stateCode":"BW","stateName":"Baden-Württemberg","countryId":82,"countryCode":"DE","countryName":"Germany","latitude":"48.98601000","longitude":"9.71199000","wikiDataId":"Q502418"},{"id":25170,"name":"Filderstadt","stateId":3006,"stateCode":"BW","stateName":"Baden-Württemberg","countryId":82,"countryCode":"DE","countryName":"Germany","latitude":"48.65698000","longitude":"9.22049000","wikiDataId":"Q7032"},{"id":25181,"name":"Fischerbach","stateId":3006,"stateCode":"BW","stateName":"Baden-Württemberg","countryId":82,"countryCode":"DE","countryName":"Germany","latitude":"48.28687000","longitude":"8.10959000","wikiDataId":"Q32006991"},{"id":25188,"name":"Flein","stateId":3006,"stateCode":"BW","stateName":"Baden-Württemberg","countryId":82,"countryCode":"DE","countryName":"Germany","latitude":"49.10306000","longitude":"9.21083000","wikiDataId":"Q509394"},{"id":25203,"name":"Forbach","stateId":3006,"stateCode":"BW","stateName":"Baden-Württemberg","countryId":82,"countryCode":"DE","countryName":"Germany","latitude":"48.68333000","longitude":"8.35000000","wikiDataId":"Q81306"},{"id":25205,"name":"Forchheim","stateId":3006,"stateCode":"BW","stateName":"Baden-Württemberg","countryId":82,"countryCode":"DE","countryName":"Germany","latitude":"48.16667000","longitude":"7.70000000","wikiDataId":"Q16116"},{"id":25206,"name":"Forchtenberg","stateId":3006,"stateCode":"BW","stateName":"Baden-Württemberg","countryId":82,"countryCode":"DE","countryName":"Germany","latitude":"49.28867000","longitude":"9.56026000","wikiDataId":"Q502780"},{"id":25208,"name":"Forst","stateId":3006,"stateCode":"BW","stateName":"Baden-Württemberg","countryId":82,"countryCode":"DE","countryName":"Germany","latitude":"49.15861000","longitude":"8.58083000","wikiDataId":"Q572545"},{"id":25239,"name":"Freiberg am Neckar","stateId":3006,"stateCode":"BW","stateName":"Baden-Württemberg","countryId":82,"countryCode":"DE","countryName":"Germany","latitude":"48.93196000","longitude":"9.20240000","wikiDataId":"Q61840"},{"id":25240,"name":"Freiburg","stateId":3006,"stateCode":"BW","stateName":"Baden-Württemberg","countryId":82,"countryCode":"DE","countryName":"Germany","latitude":"47.99590000","longitude":"7.85222000","wikiDataId":"Q2833"},{"id":25242,"name":"Freiburg Region","stateId":3006,"stateCode":"BW","stateName":"Baden-Württemberg","countryId":82,"countryCode":"DE","countryName":"Germany","latitude":"48.16667000","longitude":"8.33333000","wikiDataId":"Q502617"},{"id":25258,"name":"Freudenberg","stateId":3006,"stateCode":"BW","stateName":"Baden-Württemberg","countryId":82,"countryCode":"DE","countryName":"Germany","latitude":"49.75349000","longitude":"9.32748000","wikiDataId":"Q32018001"},{"id":25260,"name":"Freudenstadt","stateId":3006,"stateCode":"BW","stateName":"Baden-Württemberg","countryId":82,"countryCode":"DE","countryName":"Germany","latitude":"48.46695000","longitude":"8.41371000","wikiDataId":"Q82838"},{"id":25261,"name":"Freudental","stateId":3006,"stateCode":"BW","stateName":"Baden-Württemberg","countryId":82,"countryCode":"DE","countryName":"Germany","latitude":"49.00972000","longitude":"9.05917000","wikiDataId":"Q61656"},{"id":25266,"name":"Frickenhausen","stateId":3006,"stateCode":"BW","stateName":"Baden-Württemberg","countryId":82,"countryCode":"DE","countryName":"Germany","latitude":"48.59353000","longitude":"9.36005000","wikiDataId":"Q32018091"},{"id":25267,"name":"Frickingen","stateId":3006,"stateCode":"BW","stateName":"Baden-Württemberg","countryId":82,"countryCode":"DE","countryName":"Germany","latitude":"47.81438000","longitude":"9.27349000","wikiDataId":"Q161019"},{"id":25268,"name":"Fridingen an der Donau","stateId":3006,"stateCode":"BW","stateName":"Baden-Württemberg","countryId":82,"countryCode":"DE","countryName":"Germany","latitude":"48.01955000","longitude":"8.92322000","wikiDataId":"Q506549"},{"id":25276,"name":"Friedenweiler","stateId":3006,"stateCode":"BW","stateName":"Baden-Württemberg","countryId":82,"countryCode":"DE","countryName":"Germany","latitude":"47.91778000","longitude":"8.25627000","wikiDataId":"Q519987"},{"id":25288,"name":"Friedrichshafen","stateId":3006,"stateCode":"BW","stateName":"Baden-Württemberg","countryId":82,"countryCode":"DE","countryName":"Germany","latitude":"47.65689000","longitude":"9.47554000","wikiDataId":"Q4051"},{"id":25301,"name":"Friolzheim","stateId":3006,"stateCode":"BW","stateName":"Baden-Württemberg","countryId":82,"countryCode":"DE","countryName":"Germany","latitude":"48.83333000","longitude":"8.83333000","wikiDataId":"Q81721"},{"id":25302,"name":"Frittlingen","stateId":3006,"stateCode":"BW","stateName":"Baden-Württemberg","countryId":82,"countryCode":"DE","countryName":"Germany","latitude":"48.12709000","longitude":"8.70774000","wikiDataId":"Q550786"},{"id":25307,"name":"Fronreute","stateId":3006,"stateCode":"BW","stateName":"Baden-Württemberg","countryId":82,"countryCode":"DE","countryName":"Germany","latitude":"47.87053000","longitude":"9.56944000","wikiDataId":"Q624872"},{"id":25329,"name":"Fürstenberg","stateId":3006,"stateCode":"BW","stateName":"Baden-Württemberg","countryId":82,"countryCode":"DE","countryName":"Germany","latitude":"47.67895000","longitude":"9.15535000","wikiDataId":"Q564247"},{"id":25319,"name":"Furtwangen","stateId":3006,"stateCode":"BW","stateName":"Baden-Württemberg","countryId":82,"countryCode":"DE","countryName":"Germany","latitude":"48.05156000","longitude":"8.20715000","wikiDataId":"Q82717"},{"id":25345,"name":"Gaggenau","stateId":3006,"stateCode":"BW","stateName":"Baden-Württemberg","countryId":82,"countryCode":"DE","countryName":"Germany","latitude":"48.80000000","longitude":"8.33333000","wikiDataId":"Q504451"},{"id":25346,"name":"Gaiberg","stateId":3006,"stateCode":"BW","stateName":"Baden-Württemberg","countryId":82,"countryCode":"DE","countryName":"Germany","latitude":"49.36639000","longitude":"8.74972000","wikiDataId":"Q60573"},{"id":25347,"name":"Gaienhofen","stateId":3006,"stateCode":"BW","stateName":"Baden-Württemberg","countryId":82,"countryCode":"DE","countryName":"Germany","latitude":"47.68333000","longitude":"8.98333000","wikiDataId":"Q61701"},{"id":25348,"name":"Gaildorf","stateId":3006,"stateCode":"BW","stateName":"Baden-Württemberg","countryId":82,"countryCode":"DE","countryName":"Germany","latitude":"49.00027000","longitude":"9.76953000","wikiDataId":"Q81811"},{"id":25349,"name":"Gailingen","stateId":3006,"stateCode":"BW","stateName":"Baden-Württemberg","countryId":82,"countryCode":"DE","countryName":"Germany","latitude":"47.69711000","longitude":"8.75567000","wikiDataId":"Q62026"},{"id":25354,"name":"Gammelshausen","stateId":3006,"stateCode":"BW","stateName":"Baden-Württemberg","countryId":82,"countryCode":"DE","countryName":"Germany","latitude":"48.64023000","longitude":"9.65072000","wikiDataId":"Q80472"},{"id":25355,"name":"Gammertingen","stateId":3006,"stateCode":"BW","stateName":"Baden-Württemberg","countryId":82,"countryCode":"DE","countryName":"Germany","latitude":"48.25240000","longitude":"9.22349000","wikiDataId":"Q83088"},{"id":25774,"name":"Gärtringen","stateId":3006,"stateCode":"BW","stateName":"Baden-Württemberg","countryId":82,"countryCode":"DE","countryName":"Germany","latitude":"48.64176000","longitude":"8.90073000","wikiDataId":"Q550684"},{"id":25387,"name":"Gechingen","stateId":3006,"stateCode":"BW","stateName":"Baden-Württemberg","countryId":82,"countryCode":"DE","countryName":"Germany","latitude":"48.69527000","longitude":"8.82915000","wikiDataId":"Q266250"},{"id":25405,"name":"Geisingen","stateId":3006,"stateCode":"BW","stateName":"Baden-Württemberg","countryId":82,"countryCode":"DE","countryName":"Germany","latitude":"47.92504000","longitude":"8.65002000","wikiDataId":"Q506571"},{"id":25407,"name":"Geislingen","stateId":3006,"stateCode":"BW","stateName":"Baden-Württemberg","countryId":82,"countryCode":"DE","countryName":"Germany","latitude":"48.28768000","longitude":"8.81241000","wikiDataId":"Q628077"},{"id":25408,"name":"Geislingen an der Steige","stateId":3006,"stateCode":"BW","stateName":"Baden-Württemberg","countryId":82,"countryCode":"DE","countryName":"Germany","latitude":"48.62423000","longitude":"9.82736000","wikiDataId":"Q80836"},{"id":25420,"name":"Gemmingen","stateId":3006,"stateCode":"BW","stateName":"Baden-Württemberg","countryId":82,"countryCode":"DE","countryName":"Germany","latitude":"49.15639000","longitude":"8.98194000","wikiDataId":"Q518786"},{"id":25421,"name":"Gemmrigheim","stateId":3006,"stateCode":"BW","stateName":"Baden-Württemberg","countryId":82,"countryCode":"DE","countryName":"Germany","latitude":"49.02833000","longitude":"9.15556000","wikiDataId":"Q62059"},{"id":25426,"name":"Gengenbach","stateId":3006,"stateCode":"BW","stateName":"Baden-Württemberg","countryId":82,"countryCode":"DE","countryName":"Germany","latitude":"48.40476000","longitude":"8.01433000","wikiDataId":"Q505495"},{"id":25436,"name":"Gerabronn","stateId":3006,"stateCode":"BW","stateName":"Baden-Württemberg","countryId":82,"countryCode":"DE","countryName":"Germany","latitude":"48.97071000","longitude":"9.91986000","wikiDataId":"Q649035"},{"id":25444,"name":"Gerlingen","stateId":3006,"stateCode":"BW","stateName":"Baden-Württemberg","countryId":82,"countryCode":"DE","countryName":"Germany","latitude":"48.79954000","longitude":"9.06316000","wikiDataId":"Q61843"},{"id":25449,"name":"Gernsbach","stateId":3006,"stateCode":"BW","stateName":"Baden-Württemberg","countryId":82,"countryCode":"DE","countryName":"Germany","latitude":"48.77034000","longitude":"8.34306000","wikiDataId":"Q520119"},{"id":25462,"name":"Gerstetten","stateId":3006,"stateCode":"BW","stateName":"Baden-Württemberg","countryId":82,"countryCode":"DE","countryName":"Germany","latitude":"48.62254000","longitude":"10.01984000","wikiDataId":"Q32030427"},{"id":25484,"name":"Giengen an der Brenz","stateId":3006,"stateCode":"BW","stateName":"Baden-Württemberg","countryId":82,"countryCode":"DE","countryName":"Germany","latitude":"48.62219000","longitude":"10.24312000","wikiDataId":"Q547710"},{"id":25494,"name":"Gingen an der Fils","stateId":3006,"stateCode":"BW","stateName":"Baden-Württemberg","countryId":82,"countryCode":"DE","countryName":"Germany","latitude":"48.65979000","longitude":"9.78092000","wikiDataId":"Q80522"},{"id":25507,"name":"Glatten","stateId":3006,"stateCode":"BW","stateName":"Baden-Württemberg","countryId":82,"countryCode":"DE","countryName":"Germany","latitude":"48.44246000","longitude":"8.51116000","wikiDataId":"Q80475"},{"id":25776,"name":"Göggingen","stateId":3006,"stateCode":"BW","stateName":"Baden-Württemberg","countryId":82,"countryCode":"DE","countryName":"Germany","latitude":"48.86123000","longitude":"9.88398000","wikiDataId":"Q93232"},{"id":25537,"name":"Gomadingen","stateId":3006,"stateCode":"BW","stateName":"Baden-Württemberg","countryId":82,"countryCode":"DE","countryName":"Germany","latitude":"48.39980000","longitude":"9.39065000","wikiDataId":"Q83126"},{"id":25538,"name":"Gomaringen","stateId":3006,"stateCode":"BW","stateName":"Baden-Württemberg","countryId":82,"countryCode":"DE","countryName":"Germany","latitude":"48.45349000","longitude":"9.09582000","wikiDataId":"Q507707"},{"id":25541,"name":"Gondelsheim","stateId":3006,"stateCode":"BW","stateName":"Baden-Württemberg","countryId":82,"countryCode":"DE","countryName":"Germany","latitude":"49.05917000","longitude":"8.65833000","wikiDataId":"Q542411"},{"id":25779,"name":"Göppingen","stateId":3006,"stateCode":"BW","stateName":"Baden-Württemberg","countryId":82,"countryCode":"DE","countryName":"Germany","latitude":"48.70354000","longitude":"9.65209000","wikiDataId":"Q4072"},{"id":25784,"name":"Görwihl","stateId":3006,"stateCode":"BW","stateName":"Baden-Württemberg","countryId":82,"countryCode":"DE","countryName":"Germany","latitude":"47.64275000","longitude":"8.07482000","wikiDataId":"Q388453"},{"id":25546,"name":"Gosheim","stateId":3006,"stateCode":"BW","stateName":"Baden-Württemberg","countryId":82,"countryCode":"DE","countryName":"Germany","latitude":"48.13430000","longitude":"8.75426000","wikiDataId":"Q532790"},{"id":25550,"name":"Gottenheim","stateId":3006,"stateCode":"BW","stateName":"Baden-Württemberg","countryId":82,"countryCode":"DE","countryName":"Germany","latitude":"48.05000000","longitude":"7.73333000","wikiDataId":"Q519267"},{"id":25553,"name":"Gottmadingen","stateId":3006,"stateCode":"BW","stateName":"Baden-Württemberg","countryId":82,"countryCode":"DE","countryName":"Germany","latitude":"47.73511000","longitude":"8.77687000","wikiDataId":"Q61999"},{"id":25556,"name":"Graben-Neudorf","stateId":3006,"stateCode":"BW","stateName":"Baden-Württemberg","countryId":82,"countryCode":"DE","countryName":"Germany","latitude":"49.16695000","longitude":"8.49243000","wikiDataId":"Q22942"},{"id":25557,"name":"Grabenstetten","stateId":3006,"stateCode":"BW","stateName":"Baden-Württemberg","countryId":82,"countryCode":"DE","countryName":"Germany","latitude":"48.52397000","longitude":"9.46155000","wikiDataId":"Q81539"},{"id":25563,"name":"Grafenau","stateId":3006,"stateCode":"BW","stateName":"Baden-Württemberg","countryId":82,"countryCode":"DE","countryName":"Germany","latitude":"48.71427000","longitude":"8.91219000","wikiDataId":"Q32039801"},{"id":25565,"name":"Grafenhausen","stateId":3006,"stateCode":"BW","stateName":"Baden-Württemberg","countryId":82,"countryCode":"DE","countryName":"Germany","latitude":"48.28427000","longitude":"7.76678000","wikiDataId":"Q511113"},{"id":25588,"name":"Greffern","stateId":3006,"stateCode":"BW","stateName":"Baden-Württemberg","countryId":82,"countryCode":"DE","countryName":"Germany","latitude":"48.75205000","longitude":"8.00515000","wikiDataId":"Q1544858"},{"id":25599,"name":"Grenzach-Wyhlen","stateId":3006,"stateCode":"BW","stateName":"Baden-Württemberg","countryId":82,"countryCode":"DE","countryName":"Germany","latitude":"47.55000000","longitude":"7.68333000","wikiDataId":"Q62005"},{"id":25654,"name":"Großbettlingen","stateId":3006,"stateCode":"BW","stateName":"Baden-Württemberg","countryId":82,"countryCode":"DE","countryName":"Germany","latitude":"48.59052000","longitude":"9.30782000","wikiDataId":"Q83220"},{"id":25657,"name":"Großbottwar","stateId":3006,"stateCode":"BW","stateName":"Baden-Württemberg","countryId":82,"countryCode":"DE","countryName":"Germany","latitude":"49.00147000","longitude":"9.29348000","wikiDataId":"Q61830"},{"id":25617,"name":"Grosselfingen","stateId":3006,"stateCode":"BW","stateName":"Baden-Württemberg","countryId":82,"countryCode":"DE","countryName":"Germany","latitude":"48.33229000","longitude":"8.88704000","wikiDataId":"Q573843"},{"id":25671,"name":"Großerlach","stateId":3006,"stateCode":"BW","stateName":"Baden-Württemberg","countryId":82,"countryCode":"DE","countryName":"Germany","latitude":"49.05368000","longitude":"9.51356000","wikiDataId":"Q81120"},{"id":25700,"name":"Großrinderfeld","stateId":3006,"stateCode":"BW","stateName":"Baden-Württemberg","countryId":82,"countryCode":"DE","countryName":"Germany","latitude":"49.66536000","longitude":"9.73356000","wikiDataId":"Q61728"},{"id":25718,"name":"Gruibingen","stateId":3006,"stateCode":"BW","stateName":"Baden-Württemberg","countryId":82,"countryCode":"DE","countryName":"Germany","latitude":"48.59483000","longitude":"9.64389000","wikiDataId":"Q82013"},{"id":25742,"name":"Grünkraut","stateId":3006,"stateCode":"BW","stateName":"Baden-Württemberg","countryId":82,"countryCode":"DE","countryName":"Germany","latitude":"47.74417000","longitude":"9.65588000","wikiDataId":"Q533937"},{"id":25743,"name":"Grünsfeld","stateId":3006,"stateCode":"BW","stateName":"Baden-Württemberg","countryId":82,"countryCode":"DE","countryName":"Germany","latitude":"49.60949000","longitude":"9.74725000","wikiDataId":"Q61845"},{"id":25746,"name":"Gschwend","stateId":3006,"stateCode":"BW","stateName":"Baden-Württemberg","countryId":82,"countryCode":"DE","countryName":"Germany","latitude":"48.93333000","longitude":"9.74436000","wikiDataId":"Q513443"},{"id":25792,"name":"Güglingen","stateId":3006,"stateCode":"BW","stateName":"Baden-Württemberg","countryId":82,"countryCode":"DE","countryName":"Germany","latitude":"49.06642000","longitude":"9.00175000","wikiDataId":"Q53803"},{"id":25754,"name":"Gundelfingen","stateId":3006,"stateCode":"BW","stateName":"Baden-Württemberg","countryId":82,"countryCode":"DE","countryName":"Germany","latitude":"48.04246000","longitude":"7.86570000","wikiDataId":"Q535222"},{"id":25756,"name":"Gundelsheim","stateId":3006,"stateCode":"BW","stateName":"Baden-Württemberg","countryId":82,"countryCode":"DE","countryName":"Germany","latitude":"49.28330000","longitude":"9.16037000","wikiDataId":"Q32048635"},{"id":25764,"name":"Gutach","stateId":3006,"stateCode":"BW","stateName":"Baden-Württemberg","countryId":82,"countryCode":"DE","countryName":"Germany","latitude":"48.24844000","longitude":"8.21293000","wikiDataId":"Q557834"},{"id":25765,"name":"Gutach im Breisgau","stateId":3006,"stateCode":"BW","stateName":"Baden-Württemberg","countryId":82,"countryCode":"DE","countryName":"Germany","latitude":"48.11667000","longitude":"7.98333000","wikiDataId":"Q538615"},{"id":25801,"name":"Gütenbach","stateId":3006,"stateCode":"BW","stateName":"Baden-Württemberg","countryId":82,"countryCode":"DE","countryName":"Germany","latitude":"48.05000000","longitude":"8.15000000","wikiDataId":"Q81429"},{"id":25769,"name":"Gutenzell-Hürbel","stateId":3006,"stateCode":"BW","stateName":"Baden-Württemberg","countryId":82,"countryCode":"DE","countryName":"Germany","latitude":"48.11667000","longitude":"9.98333000","wikiDataId":"Q528047"},{"id":25824,"name":"Hagnau","stateId":3006,"stateCode":"BW","stateName":"Baden-Württemberg","countryId":82,"countryCode":"DE","countryName":"Germany","latitude":"47.67666000","longitude":"9.31787000","wikiDataId":"Q539889"},{"id":25831,"name":"Haigerloch","stateId":3006,"stateCode":"BW","stateName":"Baden-Württemberg","countryId":82,"countryCode":"DE","countryName":"Germany","latitude":"48.36614000","longitude":"8.80357000","wikiDataId":"Q505856"},{"id":25840,"name":"Haiterbach","stateId":3006,"stateCode":"BW","stateName":"Baden-Württemberg","countryId":82,"countryCode":"DE","countryName":"Germany","latitude":"48.52066000","longitude":"8.64435000","wikiDataId":"Q239370"},{"id":25865,"name":"Hambrücken","stateId":3006,"stateCode":"BW","stateName":"Baden-Württemberg","countryId":82,"countryCode":"DE","countryName":"Germany","latitude":"49.19000000","longitude":"8.54056000","wikiDataId":"Q520473"},{"id":25900,"name":"Hardheim","stateId":3006,"stateCode":"BW","stateName":"Baden-Württemberg","countryId":82,"countryCode":"DE","countryName":"Germany","latitude":"49.61194000","longitude":"9.47194000","wikiDataId":"Q539852"},{"id":25901,"name":"Hardt","stateId":3006,"stateCode":"BW","stateName":"Baden-Württemberg","countryId":82,"countryCode":"DE","countryName":"Germany","latitude":"48.18333000","longitude":"8.41667000","wikiDataId":"Q539852"},{"id":25916,"name":"Hartheim","stateId":3006,"stateCode":"BW","stateName":"Baden-Württemberg","countryId":82,"countryCode":"DE","countryName":"Germany","latitude":"47.93333000","longitude":"7.63333000","wikiDataId":"Q566942"},{"id":25921,"name":"Hasel","stateId":3006,"stateCode":"BW","stateName":"Baden-Württemberg","countryId":82,"countryCode":"DE","countryName":"Germany","latitude":"47.65342000","longitude":"7.89720000","wikiDataId":"Q685358"},{"id":25928,"name":"Haslach","stateId":3006,"stateCode":"BW","stateName":"Baden-Württemberg","countryId":82,"countryCode":"DE","countryName":"Germany","latitude":"48.56531000","longitude":"8.05658000","wikiDataId":"Q498521"},{"id":25965,"name":"Haßmersheim","stateId":3006,"stateCode":"BW","stateName":"Baden-Württemberg","countryId":82,"countryCode":"DE","countryName":"Germany","latitude":"49.30000000","longitude":"9.15000000","wikiDataId":"Q537756"},{"id":25937,"name":"Hattenhofen","stateId":3006,"stateCode":"BW","stateName":"Baden-Württemberg","countryId":82,"countryCode":"DE","countryName":"Germany","latitude":"48.66648000","longitude":"9.57456000","wikiDataId":"Q506853"},{"id":25949,"name":"Hausach","stateId":3006,"stateCode":"BW","stateName":"Baden-Württemberg","countryId":82,"countryCode":"DE","countryName":"Germany","latitude":"48.28426000","longitude":"8.17602000","wikiDataId":"Q506856"},{"id":25952,"name":"Hausen","stateId":3006,"stateCode":"BW","stateName":"Baden-Württemberg","countryId":82,"countryCode":"DE","countryName":"Germany","latitude":"47.68128000","longitude":"7.83986000","wikiDataId":"Q32054294"},{"id":26297,"name":"Häusern","stateId":3006,"stateCode":"BW","stateName":"Baden-Württemberg","countryId":82,"countryCode":"DE","countryName":"Germany","latitude":"47.75000000","longitude":"8.16667000","wikiDataId":"Q878220"},{"id":25960,"name":"Hayingen","stateId":3006,"stateCode":"BW","stateName":"Baden-Württemberg","countryId":82,"countryCode":"DE","countryName":"Germany","latitude":"48.27531000","longitude":"9.47760000","wikiDataId":"Q82453"},{"id":25968,"name":"Hechingen","stateId":3006,"stateCode":"BW","stateName":"Baden-Württemberg","countryId":82,"countryCode":"DE","countryName":"Germany","latitude":"48.35149000","longitude":"8.96317000","wikiDataId":"Q494529"},{"id":25971,"name":"Heddesheim","stateId":3006,"stateCode":"BW","stateName":"Baden-Württemberg","countryId":82,"countryCode":"DE","countryName":"Germany","latitude":"49.50556000","longitude":"8.60361000","wikiDataId":"Q83154"},{"id":25982,"name":"Heidelberg","stateId":3006,"stateCode":"BW","stateName":"Baden-Württemberg","countryId":82,"countryCode":"DE","countryName":"Germany","latitude":"49.40768000","longitude":"8.69079000","wikiDataId":"Q2966"},{"id":25987,"name":"Heidenheim an der Brenz","stateId":3006,"stateCode":"BW","stateName":"Baden-Württemberg","countryId":82,"countryCode":"DE","countryName":"Germany","latitude":"48.67798000","longitude":"10.15162000","wikiDataId":"Q6869"},{"id":25994,"name":"Heilbronn","stateId":3006,"stateCode":"BW","stateName":"Baden-Württemberg","countryId":82,"countryCode":"DE","countryName":"Germany","latitude":"49.13995000","longitude":"9.22054000","wikiDataId":"Q715"},{"id":25995,"name":"Heiligenberg","stateId":3006,"stateCode":"BW","stateName":"Baden-Württemberg","countryId":82,"countryCode":"DE","countryName":"Germany","latitude":"47.82094000","longitude":"9.31280000","wikiDataId":"Q715"},{"id":26003,"name":"Heiligkreuzsteinach","stateId":3006,"stateCode":"BW","stateName":"Baden-Württemberg","countryId":82,"countryCode":"DE","countryName":"Germany","latitude":"49.48333000","longitude":"8.79500000","wikiDataId":"Q81108"},{"id":26010,"name":"Heimsheim","stateId":3006,"stateCode":"BW","stateName":"Baden-Württemberg","countryId":82,"countryCode":"DE","countryName":"Germany","latitude":"48.80656000","longitude":"8.86744000","wikiDataId":"Q80675"},{"id":26014,"name":"Heiningen","stateId":3006,"stateCode":"BW","stateName":"Baden-Württemberg","countryId":82,"countryCode":"DE","countryName":"Germany","latitude":"48.66177000","longitude":"9.64977000","wikiDataId":"Q693540"},{"id":26019,"name":"Heitersheim","stateId":3006,"stateCode":"BW","stateName":"Baden-Württemberg","countryId":82,"countryCode":"DE","countryName":"Germany","latitude":"47.87468000","longitude":"7.65721000","wikiDataId":"Q505862"},{"id":26031,"name":"Helmstadt-Bargen","stateId":3006,"stateCode":"BW","stateName":"Baden-Württemberg","countryId":82,"countryCode":"DE","countryName":"Germany","latitude":"49.31427000","longitude":"8.99712000","wikiDataId":"Q504431"},{"id":26041,"name":"Hemmingen","stateId":3006,"stateCode":"BW","stateName":"Baden-Württemberg","countryId":82,"countryCode":"DE","countryName":"Germany","latitude":"48.86667000","longitude":"9.03333000","wikiDataId":"Q1604803"},{"id":26044,"name":"Hemsbach","stateId":3006,"stateCode":"BW","stateName":"Baden-Württemberg","countryId":82,"countryCode":"DE","countryName":"Germany","latitude":"49.59075000","longitude":"8.64779000","wikiDataId":"Q81012"},{"id":26057,"name":"Herbertingen","stateId":3006,"stateCode":"BW","stateName":"Baden-Württemberg","countryId":82,"countryCode":"DE","countryName":"Germany","latitude":"48.06667000","longitude":"9.43333000","wikiDataId":"Q81999"},{"id":26058,"name":"Herbolzheim","stateId":3006,"stateCode":"BW","stateName":"Baden-Württemberg","countryId":82,"countryCode":"DE","countryName":"Germany","latitude":"48.21884000","longitude":"7.77746000","wikiDataId":"Q506864"},{"id":26060,"name":"Herbrechtingen","stateId":3006,"stateCode":"BW","stateName":"Baden-Württemberg","countryId":82,"countryCode":"DE","countryName":"Germany","latitude":"48.62173000","longitude":"10.17600000","wikiDataId":"Q1609522"},{"id":26065,"name":"Herdwangen-Schönach","stateId":3006,"stateCode":"BW","stateName":"Baden-Württemberg","countryId":82,"countryCode":"DE","countryName":"Germany","latitude":"47.85000000","longitude":"9.20000000","wikiDataId":"Q83146"},{"id":26076,"name":"Hermaringen","stateId":3006,"stateCode":"BW","stateName":"Baden-Württemberg","countryId":82,"countryCode":"DE","countryName":"Germany","latitude":"48.59544000","longitude":"10.26065000","wikiDataId":"Q83025"},{"id":26086,"name":"Herrenberg","stateId":3006,"stateCode":"BW","stateName":"Baden-Württemberg","countryId":82,"countryCode":"DE","countryName":"Germany","latitude":"48.59523000","longitude":"8.86648000","wikiDataId":"Q16100"},{"id":26088,"name":"Herrischried","stateId":3006,"stateCode":"BW","stateName":"Baden-Württemberg","countryId":82,"countryCode":"DE","countryName":"Germany","latitude":"47.66667000","longitude":"8.00000000","wikiDataId":"Q834905"},{"id":26106,"name":"Hessigheim","stateId":3006,"stateCode":"BW","stateName":"Baden-Württemberg","countryId":82,"countryCode":"DE","countryName":"Germany","latitude":"48.99407000","longitude":"9.18629000","wikiDataId":"Q61960"},{"id":26112,"name":"Hettingen","stateId":3006,"stateCode":"BW","stateName":"Baden-Württemberg","countryId":82,"countryCode":"DE","countryName":"Germany","latitude":"48.21601000","longitude":"9.23169000","wikiDataId":"Q82292"},{"id":26117,"name":"Heubach","stateId":3006,"stateCode":"BW","stateName":"Baden-Württemberg","countryId":82,"countryCode":"DE","countryName":"Germany","latitude":"48.79267000","longitude":"9.93370000","wikiDataId":"Q326437"},{"id":26120,"name":"Heuchlingen","stateId":3006,"stateCode":"BW","stateName":"Baden-Württemberg","countryId":82,"countryCode":"DE","countryName":"Germany","latitude":"48.85215000","longitude":"9.94391000","wikiDataId":"Q705521"},{"id":26138,"name":"Hildrizhausen","stateId":3006,"stateCode":"BW","stateName":"Baden-Württemberg","countryId":82,"countryCode":"DE","countryName":"Germany","latitude":"48.62423000","longitude":"8.96605000","wikiDataId":"Q550689"},{"id":26150,"name":"Hilzingen","stateId":3006,"stateCode":"BW","stateName":"Baden-Württemberg","countryId":82,"countryCode":"DE","countryName":"Germany","latitude":"47.76667000","longitude":"8.78333000","wikiDataId":"Q62039"},{"id":26158,"name":"Hinterzarten","stateId":3006,"stateCode":"BW","stateName":"Baden-Württemberg","countryId":82,"countryCode":"DE","countryName":"Germany","latitude":"47.90276000","longitude":"8.10701000","wikiDataId":"Q515356"},{"id":26160,"name":"Hirrlingen","stateId":3006,"stateCode":"BW","stateName":"Baden-Württemberg","countryId":82,"countryCode":"DE","countryName":"Germany","latitude":"48.41245000","longitude":"8.88742000","wikiDataId":"Q507682"},{"id":26164,"name":"Hirschberg an der Bergstraße","stateId":3006,"stateCode":"BW","stateName":"Baden-Württemberg","countryId":82,"countryCode":"DE","countryName":"Germany","latitude":"49.50710000","longitude":"8.65693000","wikiDataId":"Q502960"},{"id":26173,"name":"Hochdorf","stateId":3006,"stateCode":"BW","stateName":"Baden-Württemberg","countryId":82,"countryCode":"DE","countryName":"Germany","latitude":"48.02560000","longitude":"9.78778000","wikiDataId":"Q534187"},{"id":26299,"name":"Höchenschwand","stateId":3006,"stateCode":"BW","stateName":"Baden-Württemberg","countryId":82,"countryCode":"DE","countryName":"Germany","latitude":"47.73333000","longitude":"8.16667000","wikiDataId":"Q515648"},{"id":26182,"name":"Hockenheim","stateId":3006,"stateCode":"BW","stateName":"Baden-Württemberg","countryId":82,"countryCode":"DE","countryName":"Germany","latitude":"49.32334000","longitude":"8.55194000","wikiDataId":"Q8336"},{"id":26306,"name":"Höfen an der Enz","stateId":3006,"stateCode":"BW","stateName":"Baden-Württemberg","countryId":82,"countryCode":"DE","countryName":"Germany","latitude":"48.80000000","longitude":"8.58333000","wikiDataId":"Q6775"},{"id":26191,"name":"Hofstetten","stateId":3006,"stateCode":"BW","stateName":"Baden-Württemberg","countryId":82,"countryCode":"DE","countryName":"Germany","latitude":"48.25846000","longitude":"8.06595000","wikiDataId":"Q530456"},{"id":26193,"name":"Hohberg","stateId":3006,"stateCode":"BW","stateName":"Baden-Württemberg","countryId":82,"countryCode":"DE","countryName":"Germany","latitude":"48.32270000","longitude":"7.89972000","wikiDataId":"Q530456"},{"id":26216,"name":"Hohentengen","stateId":3006,"stateCode":"BW","stateName":"Baden-Württemberg","countryId":82,"countryCode":"DE","countryName":"Germany","latitude":"47.57005000","longitude":"8.43250000","wikiDataId":"Q282294"},{"id":26242,"name":"Holzgerlingen","stateId":3006,"stateCode":"BW","stateName":"Baden-Württemberg","countryId":82,"countryCode":"DE","countryName":"Germany","latitude":"48.63969000","longitude":"9.01149000","wikiDataId":"Q527883"},{"id":26247,"name":"Holzmaden","stateId":3006,"stateCode":"BW","stateName":"Baden-Württemberg","countryId":82,"countryCode":"DE","countryName":"Germany","latitude":"48.63333000","longitude":"9.51667000","wikiDataId":"Q80654"},{"id":26315,"name":"Höpfingen","stateId":3006,"stateCode":"BW","stateName":"Baden-Württemberg","countryId":82,"countryCode":"DE","countryName":"Germany","latitude":"49.60250000","longitude":"9.42861000","wikiDataId":"Q534293"},{"id":26256,"name":"Horb am Neckar","stateId":3006,"stateCode":"BW","stateName":"Baden-Württemberg","countryId":82,"countryCode":"DE","countryName":"Germany","latitude":"48.44423000","longitude":"8.69130000","wikiDataId":"Q82690"},{"id":26257,"name":"Horben","stateId":3006,"stateCode":"BW","stateName":"Baden-Württemberg","countryId":82,"countryCode":"DE","countryName":"Germany","latitude":"47.93333000","longitude":"7.86667000","wikiDataId":"Q515988"},{"id":26260,"name":"Horgenzell","stateId":3006,"stateCode":"BW","stateName":"Baden-Württemberg","countryId":82,"countryCode":"DE","countryName":"Germany","latitude":"47.80534000","longitude":"9.49727000","wikiDataId":"Q534060"},{"id":26266,"name":"Hornberg","stateId":3006,"stateCode":"BW","stateName":"Baden-Württemberg","countryId":82,"countryCode":"DE","countryName":"Germany","latitude":"48.21068000","longitude":"8.23275000","wikiDataId":"Q507581"},{"id":26271,"name":"Horrenberg","stateId":3006,"stateCode":"BW","stateName":"Baden-Württemberg","countryId":82,"countryCode":"DE","countryName":"Germany","latitude":"49.28040000","longitude":"8.78087000","wikiDataId":"Q32060408"},{"id":26331,"name":"Hüffenhardt","stateId":3006,"stateCode":"BW","stateName":"Baden-Württemberg","countryId":82,"countryCode":"DE","countryName":"Germany","latitude":"49.29194000","longitude":"9.08167000","wikiDataId":"Q179762"},{"id":26332,"name":"Hüfingen","stateId":3006,"stateCode":"BW","stateName":"Baden-Württemberg","countryId":82,"countryCode":"DE","countryName":"Germany","latitude":"47.92543000","longitude":"8.48831000","wikiDataId":"Q83132"},{"id":26333,"name":"Hügelsheim","stateId":3006,"stateCode":"BW","stateName":"Baden-Württemberg","countryId":82,"countryCode":"DE","countryName":"Germany","latitude":"48.80000000","longitude":"8.11667000","wikiDataId":"Q83092"},{"id":26334,"name":"Hülben","stateId":3006,"stateCode":"BW","stateName":"Baden-Württemberg","countryId":82,"countryCode":"DE","countryName":"Germany","latitude":"48.51982000","longitude":"9.40790000","wikiDataId":"Q81501"},{"id":26344,"name":"Hüttisheim","stateId":3006,"stateCode":"BW","stateName":"Baden-Württemberg","countryId":82,"countryCode":"DE","countryName":"Germany","latitude":"48.27965000","longitude":"9.94246000","wikiDataId":"Q698858"},{"id":26345,"name":"Hüttlingen","stateId":3006,"stateCode":"BW","stateName":"Baden-Württemberg","countryId":82,"countryCode":"DE","countryName":"Germany","latitude":"48.89266000","longitude":"10.10064000","wikiDataId":"Q698858"},{"id":26353,"name":"Iffezheim","stateId":3006,"stateCode":"BW","stateName":"Baden-Württemberg","countryId":82,"countryCode":"DE","countryName":"Germany","latitude":"48.82167000","longitude":"8.14310000","wikiDataId":"Q81169"},{"id":26357,"name":"Igersheim","stateId":3006,"stateCode":"BW","stateName":"Baden-Württemberg","countryId":82,"countryCode":"DE","countryName":"Germany","latitude":"49.49444000","longitude":"9.81694000","wikiDataId":"Q61925"},{"id":26359,"name":"Iggingen","stateId":3006,"stateCode":"BW","stateName":"Baden-Württemberg","countryId":82,"countryCode":"DE","countryName":"Germany","latitude":"48.83167000","longitude":"9.87894000","wikiDataId":"Q513598"},{"id":26361,"name":"Ihringen","stateId":3006,"stateCode":"BW","stateName":"Baden-Württemberg","countryId":82,"countryCode":"DE","countryName":"Germany","latitude":"48.04303000","longitude":"7.64760000","wikiDataId":"Q550630"},{"id":26366,"name":"Illerrieden","stateId":3006,"stateCode":"BW","stateName":"Baden-Württemberg","countryId":82,"countryCode":"DE","countryName":"Germany","latitude":"48.27017000","longitude":"10.05155000","wikiDataId":"Q515510"},{"id":26368,"name":"Illingen","stateId":3006,"stateCode":"BW","stateName":"Baden-Württemberg","countryId":82,"countryCode":"DE","countryName":"Germany","latitude":"48.95616000","longitude":"8.92459000","wikiDataId":"Q503295"},{"id":26370,"name":"Illmensee","stateId":3006,"stateCode":"BW","stateName":"Baden-Württemberg","countryId":82,"countryCode":"DE","countryName":"Germany","latitude":"47.86229000","longitude":"9.37235000","wikiDataId":"Q83035"},{"id":26376,"name":"Ilsfeld","stateId":3006,"stateCode":"BW","stateName":"Baden-Württemberg","countryId":82,"countryCode":"DE","countryName":"Germany","latitude":"49.05548000","longitude":"9.24598000","wikiDataId":"Q519972"},{"id":26377,"name":"Ilshofen","stateId":3006,"stateCode":"BW","stateName":"Baden-Württemberg","countryId":82,"countryCode":"DE","countryName":"Germany","latitude":"49.17015000","longitude":"9.91825000","wikiDataId":"Q81070"},{"id":26378,"name":"Ilvesheim","stateId":3006,"stateCode":"BW","stateName":"Baden-Württemberg","countryId":82,"countryCode":"DE","countryName":"Germany","latitude":"49.47404000","longitude":"8.56740000","wikiDataId":"Q22958"},{"id":26380,"name":"Immendingen","stateId":3006,"stateCode":"BW","stateName":"Baden-Württemberg","countryId":82,"countryCode":"DE","countryName":"Germany","latitude":"47.93333000","longitude":"8.73333000","wikiDataId":"Q520808"},{"id":26383,"name":"Immenstaad am Bodensee","stateId":3006,"stateCode":"BW","stateName":"Baden-Württemberg","countryId":82,"countryCode":"DE","countryName":"Germany","latitude":"47.66667000","longitude":"9.36667000","wikiDataId":"Q528029"},{"id":26388,"name":"Ingelfingen","stateId":3006,"stateCode":"BW","stateName":"Baden-Württemberg","countryId":82,"countryCode":"DE","countryName":"Germany","latitude":"49.30028000","longitude":"9.65303000","wikiDataId":"Q509666"},{"id":26391,"name":"Ingoldingen","stateId":3006,"stateCode":"BW","stateName":"Baden-Württemberg","countryId":82,"countryCode":"DE","countryName":"Germany","latitude":"48.02552000","longitude":"9.74195000","wikiDataId":"Q518927"},{"id":26399,"name":"Inzigkofen","stateId":3006,"stateCode":"BW","stateName":"Baden-Württemberg","countryId":82,"countryCode":"DE","countryName":"Germany","latitude":"48.07034000","longitude":"9.17998000","wikiDataId":"Q83046"},{"id":26400,"name":"Inzlingen","stateId":3006,"stateCode":"BW","stateName":"Baden-Württemberg","countryId":82,"countryCode":"DE","countryName":"Germany","latitude":"47.58851000","longitude":"7.69094000","wikiDataId":"Q61645"},{"id":26416,"name":"Isny","stateId":3006,"stateCode":"BW","stateName":"Baden-Württemberg","countryId":82,"countryCode":"DE","countryName":"Germany","latitude":"47.69260000","longitude":"10.03857000","wikiDataId":"Q513446"},{"id":26417,"name":"Ispringen","stateId":3006,"stateCode":"BW","stateName":"Baden-Württemberg","countryId":82,"countryCode":"DE","countryName":"Germany","latitude":"48.91667000","longitude":"8.66667000","wikiDataId":"Q81719"},{"id":26421,"name":"Ittlingen","stateId":3006,"stateCode":"BW","stateName":"Baden-Württemberg","countryId":82,"countryCode":"DE","countryName":"Germany","latitude":"49.19083000","longitude":"8.93083000","wikiDataId":"Q519997"},{"id":26425,"name":"Jagsthausen","stateId":3006,"stateCode":"BW","stateName":"Baden-Württemberg","countryId":82,"countryCode":"DE","countryName":"Germany","latitude":"49.31056000","longitude":"9.46833000","wikiDataId":"Q167823"},{"id":26426,"name":"Jagstzell","stateId":3006,"stateCode":"BW","stateName":"Baden-Württemberg","countryId":82,"countryCode":"DE","countryName":"Germany","latitude":"49.03055000","longitude":"10.09751000","wikiDataId":"Q513462"},{"id":26446,"name":"Jestetten","stateId":3006,"stateCode":"BW","stateName":"Baden-Württemberg","countryId":82,"countryCode":"DE","countryName":"Germany","latitude":"47.65000000","longitude":"8.56667000","wikiDataId":"Q181389"},{"id":26466,"name":"Jöhlingen","stateId":3006,"stateCode":"BW","stateName":"Baden-Württemberg","countryId":82,"countryCode":"DE","countryName":"Germany","latitude":"49.03218000","longitude":"8.57350000","wikiDataId":"Q18018048"},{"id":26463,"name":"Jungingen","stateId":3006,"stateCode":"BW","stateName":"Baden-Württemberg","countryId":82,"countryCode":"DE","countryName":"Germany","latitude":"48.32787000","longitude":"9.04095000","wikiDataId":"Q538630"},{"id":26481,"name":"Kaisersbach","stateId":3006,"stateCode":"BW","stateName":"Baden-Württemberg","countryId":82,"countryCode":"DE","countryName":"Germany","latitude":"48.93023000","longitude":"9.63898000","wikiDataId":"Q81124"},{"id":26506,"name":"Kandern","stateId":3006,"stateCode":"BW","stateName":"Baden-Württemberg","countryId":82,"countryCode":"DE","countryName":"Germany","latitude":"47.71393000","longitude":"7.66237000","wikiDataId":"Q61661"},{"id":26508,"name":"Kappel-Grafenhausen","stateId":3006,"stateCode":"BW","stateName":"Baden-Württemberg","countryId":82,"countryCode":"DE","countryName":"Germany","latitude":"48.28382000","longitude":"7.76605000","wikiDataId":"Q527580"},{"id":26510,"name":"Kappelrodeck","stateId":3006,"stateCode":"BW","stateName":"Baden-Württemberg","countryId":82,"countryCode":"DE","countryName":"Germany","latitude":"48.59182000","longitude":"8.11692000","wikiDataId":"Q538599"},{"id":26514,"name":"Karlsdorf-Neuthard","stateId":3006,"stateCode":"BW","stateName":"Baden-Württemberg","countryId":82,"countryCode":"DE","countryName":"Germany","latitude":"49.13472000","longitude":"8.53028000","wikiDataId":"Q542470"},{"id":26520,"name":"Karlsruhe","stateId":3006,"stateCode":"BW","stateName":"Baden-Württemberg","countryId":82,"countryCode":"DE","countryName":"Germany","latitude":"49.00937000","longitude":"8.40444000","wikiDataId":"Q1040"},{"id":26521,"name":"Karlsruhe Region","stateId":3006,"stateCode":"BW","stateName":"Baden-Württemberg","countryId":82,"countryCode":"DE","countryName":"Germany","latitude":"49.00000000","longitude":"8.66667000","wikiDataId":"Q1040"},{"id":26551,"name":"Kehl","stateId":3006,"stateCode":"BW","stateName":"Baden-Württemberg","countryId":82,"countryCode":"DE","countryName":"Germany","latitude":"48.57297000","longitude":"7.81523000","wikiDataId":"Q15979"},{"id":26571,"name":"Kenzingen","stateId":3006,"stateCode":"BW","stateName":"Baden-Württemberg","countryId":82,"countryCode":"DE","countryName":"Germany","latitude":"48.19630000","longitude":"7.76974000","wikiDataId":"Q550623"},{"id":26575,"name":"Ketsch","stateId":3006,"stateCode":"BW","stateName":"Baden-Württemberg","countryId":82,"countryCode":"DE","countryName":"Germany","latitude":"49.36778000","longitude":"8.53111000","wikiDataId":"Q22959"},{"id":26587,"name":"Kieselbronn","stateId":3006,"stateCode":"BW","stateName":"Baden-Württemberg","countryId":82,"countryCode":"DE","countryName":"Germany","latitude":"48.93333000","longitude":"8.75000000","wikiDataId":"Q80587"},{"id":26592,"name":"Kippenheim","stateId":3006,"stateCode":"BW","stateName":"Baden-Württemberg","countryId":82,"countryCode":"DE","countryName":"Germany","latitude":"48.29564000","longitude":"7.82510000","wikiDataId":"Q527898"},{"id":26594,"name":"Kirchardt","stateId":3006,"stateCode":"BW","stateName":"Baden-Württemberg","countryId":82,"countryCode":"DE","countryName":"Germany","latitude":"49.20500000","longitude":"8.99167000","wikiDataId":"Q539754"},{"id":26598,"name":"Kirchberg an der Iller","stateId":3006,"stateCode":"BW","stateName":"Baden-Württemberg","countryId":82,"countryCode":"DE","countryName":"Germany","latitude":"48.13333000","longitude":"10.08333000","wikiDataId":"Q520769"},{"id":26599,"name":"Kirchberg an der Jagst","stateId":3006,"stateCode":"BW","stateName":"Baden-Württemberg","countryId":82,"countryCode":"DE","countryName":"Germany","latitude":"49.20056000","longitude":"9.98226000","wikiDataId":"Q82372"},{"id":26600,"name":"Kirchberg an der Murr","stateId":3006,"stateCode":"BW","stateName":"Baden-Württemberg","countryId":82,"countryCode":"DE","countryName":"Germany","latitude":"48.94297000","longitude":"9.34083000","wikiDataId":"Q81216"},{"id":26603,"name":"Kirchdorf","stateId":3006,"stateCode":"BW","stateName":"Baden-Württemberg","countryId":82,"countryCode":"DE","countryName":"Germany","latitude":"48.07667000","longitude":"10.12629000","wikiDataId":"Q506009"},{"id":26612,"name":"Kirchentellinsfurt","stateId":3006,"stateCode":"BW","stateName":"Baden-Württemberg","countryId":82,"countryCode":"DE","countryName":"Germany","latitude":"48.53315000","longitude":"9.14732000","wikiDataId":"Q521318"},{"id":26621,"name":"Kirchheim am Neckar","stateId":3006,"stateCode":"BW","stateName":"Baden-Württemberg","countryId":82,"countryCode":"DE","countryName":"Germany","latitude":"49.04500000","longitude":"9.14222000","wikiDataId":"Q62055"},{"id":26622,"name":"Kirchheim am Ries","stateId":3006,"stateCode":"BW","stateName":"Baden-Württemberg","countryId":82,"countryCode":"DE","countryName":"Germany","latitude":"48.87922000","longitude":"10.40028000","wikiDataId":"Q282312"},{"id":26625,"name":"Kirchheim unter Teck","stateId":3006,"stateCode":"BW","stateName":"Baden-Württemberg","countryId":82,"countryCode":"DE","countryName":"Germany","latitude":"48.64683000","longitude":"9.45378000","wikiDataId":"Q14866"},{"id":26639,"name":"Kirchzarten","stateId":3006,"stateCode":"BW","stateName":"Baden-Württemberg","countryId":82,"countryCode":"DE","countryName":"Germany","latitude":"47.96667000","longitude":"7.95000000","wikiDataId":"Q528089"},{"id":26654,"name":"Kißlegg","stateId":3006,"stateCode":"BW","stateName":"Baden-Württemberg","countryId":82,"countryCode":"DE","countryName":"Germany","latitude":"47.78894000","longitude":"9.88383000","wikiDataId":"Q705800"},