[{"id":130696,"name":"Al Haymah Ad Dakhiliyah","stateId":1236,"stateCode":"SN","stateName":"Sana'a","countryId":245,"countryCode":"YE","countryName":"Yemen","latitude":"15.27220000","longitude":"43.83930000","wikiDataId":"Q4118988"},{"id":130697,"name":"Al Haymah Al Kharijiyah","stateId":1236,"stateCode":"SN","stateName":"Sana'a","countryId":245,"countryCode":"YE","countryName":"Yemen","latitude":"15.02670000","longitude":"43.85000000","wikiDataId":"Q4117232"},{"id":130700,"name":"Al Husn","stateId":1236,"stateCode":"SN","stateName":"Sana'a","countryId":245,"countryCode":"YE","countryName":"Yemen","latitude":"15.02060000","longitude":"44.50440000","wikiDataId":"Q4117303"},{"id":130707,"name":"Al Khāniq","stateId":1236,"stateCode":"SN","stateName":"Sana'a","countryId":245,"countryCode":"YE","countryName":"Yemen","latitude":"15.50253000","longitude":"44.18158000","wikiDataId":"Q4117347"},{"id":130770,"name":"Arhab","stateId":1236,"stateCode":"SN","stateName":"Sana'a","countryId":245,"countryCode":"YE","countryName":"Yemen","latitude":"15.79950000","longitude":"44.24660000","wikiDataId":"Q4117519"},{"id":130802,"name":"Attyal","stateId":1236,"stateCode":"SN","stateName":"Sana'a","countryId":245,"countryCode":"YE","countryName":"Yemen","latitude":"15.32931000","longitude":"44.57739000","wikiDataId":"Q4117335"},{"id":130813,"name":"Bani Dhabyan","stateId":1236,"stateCode":"SN","stateName":"Sana'a","countryId":245,"countryCode":"YE","countryName":"Yemen","latitude":"15.04810000","longitude":"44.87180000","wikiDataId":"Q4117374"},{"id":130814,"name":"Bani Hushaysh","stateId":1236,"stateCode":"SN","stateName":"Sana'a","countryId":245,"countryCode":"YE","countryName":"Yemen","latitude":"15.45050000","longitude":"44.37820000","wikiDataId":"Q4117336"},{"id":130815,"name":"Bani Matar","stateId":1236,"stateCode":"SN","stateName":"Sana'a","countryId":245,"countryCode":"YE","countryName":"Yemen","latitude":"15.21500000","longitude":"44.04980000","wikiDataId":"Q4117326"},{"id":130825,"name":"Bilad Ar Rus","stateId":1236,"stateCode":"SN","stateName":"Sana'a","countryId":245,"countryCode":"YE","countryName":"Yemen","latitude":"15.03510000","longitude":"44.25140000","wikiDataId":"Q4907490"},{"id":130853,"name":"Hamdān","stateId":1236,"stateCode":"SN","stateName":"Sana'a","countryId":245,"countryCode":"YE","countryName":"Yemen","latitude":"15.50662000","longitude":"44.06030000","wikiDataId":"Q4117299"},{"id":130883,"name":"Jihanah","stateId":1236,"stateCode":"SN","stateName":"Sana'a","countryId":245,"countryCode":"YE","countryName":"Yemen","latitude":"15.19190000","longitude":"44.51950000","wikiDataId":"Q4117339"},{"id":130892,"name":"Khwlan","stateId":1236,"stateCode":"SN","stateName":"Sana'a","countryId":245,"countryCode":"YE","countryName":"Yemen","latitude":"15.27490000","longitude":"44.76860000","wikiDataId":"Q4117301"},{"id":130909,"name":"Manakhah","stateId":1236,"stateCode":"SN","stateName":"Sana'a","countryId":245,"countryCode":"YE","countryName":"Yemen","latitude":"15.07170000","longitude":"43.68620000","wikiDataId":"Q1010798"},{"id":130937,"name":"Nihm","stateId":1236,"stateCode":"SN","stateName":"Sana'a","countryId":245,"countryCode":"YE","countryName":"Yemen","latitude":"15.75160000","longitude":"44.57460000","wikiDataId":"Q4117369"},{"id":130958,"name":"Sa'fan","stateId":1236,"stateCode":"SN","stateName":"Sana'a","countryId":245,"countryCode":"YE","countryName":"Yemen","latitude":"15.07120000","longitude":"43.58270000","wikiDataId":"Q4117236"},{"id":130971,"name":"Saḩar","stateId":1236,"stateCode":"SN","stateName":"Sana'a","countryId":245,"countryCode":"YE","countryName":"Yemen","latitude":"15.31637000","longitude":"44.30880000","wikiDataId":"Q20306887"},{"id":130964,"name":"Sanaa","stateId":1236,"stateCode":"SN","stateName":"Sana'a","countryId":245,"countryCode":"YE","countryName":"Yemen","latitude":"15.35472000","longitude":"44.20667000","wikiDataId":"Q2471"},{"id":130965,"name":"Sanhan","stateId":1236,"stateCode":"SN","stateName":"Sana'a","countryId":245,"countryCode":"YE","countryName":"Yemen","latitude":"15.22520000","longitude":"44.30570000","wikiDataId":"Q4117320"},{"id":130970,"name":"Sayyān","stateId":1236,"stateCode":"SN","stateName":"Sana'a","countryId":245,"countryCode":"YE","countryName":"Yemen","latitude":"15.17177000","longitude":"44.32442000","wikiDataId":"Q3474752"}]