[{"id":18878,"name":"Bondoukou","stateId":2641,"stateCode":"ZZ","stateName":"Zanzan Region","countryId":54,"countryCode":"CI","countryName":"Cote D'Ivoire (Ivory Coast)","latitude":"8.04020000","longitude":"-2.80003000","wikiDataId":"Q892276"},{"id":18884,"name":"Bouna","stateId":2641,"stateCode":"ZZ","stateName":"Zanzan Region","countryId":54,"countryCode":"CI","countryName":"Cote D'Ivoire (Ivory Coast)","latitude":"9.26927000","longitude":"-2.99510000","wikiDataId":"Q2922170"},{"id":18885,"name":"Bounkani","stateId":2641,"stateCode":"ZZ","stateName":"Zanzan Region","countryId":54,"countryCode":"CI","countryName":"Cote D'Ivoire (Ivory Coast)","latitude":"9.47841000","longitude":"-3.31238000","wikiDataId":"Q2922170"},{"id":18902,"name":"Gontougo","stateId":2641,"stateCode":"ZZ","stateName":"Zanzan Region","countryId":54,"countryCode":"CI","countryName":"Cote D'Ivoire (Ivory Coast)","latitude":"7.87132000","longitude":"-3.07068000","wikiDataId":"Q1268139"},{"id":18930,"name":"Sinfra","stateId":2641,"stateCode":"ZZ","stateName":"Zanzan Region","countryId":54,"countryCode":"CI","countryName":"Cote D'Ivoire (Ivory Coast)","latitude":"6.62103000","longitude":"-5.91144000","wikiDataId":"Q1102546"},{"id":18934,"name":"Tanda","stateId":2641,"stateCode":"ZZ","stateName":"Zanzan Region","countryId":54,"countryCode":"CI","countryName":"Cote D'Ivoire (Ivory Coast)","latitude":"7.80335000","longitude":"-3.16832000","wikiDataId":"Q952665"}]