[{"id":97478,"name":"Abakan","stateId":1877,"stateCode":"KK","stateName":"Republic of Khakassia","countryId":182,"countryCode":"RU","countryName":"Russia","latitude":"53.71556000","longitude":"91.42917000","wikiDataId":"Q875"},{"id":97479,"name":"Abakan Gorod","stateId":1877,"stateCode":"KK","stateName":"Republic of Khakassia","countryId":182,"countryCode":"RU","countryName":"Russia","latitude":"53.71667000","longitude":"91.43333000","wikiDataId":"Q18405917"},{"id":97484,"name":"Abaza","stateId":1877,"stateCode":"KK","stateName":"Republic of Khakassia","countryId":182,"countryCode":"RU","countryName":"Russia","latitude":"52.65500000","longitude":"90.09278000","wikiDataId":"Q102469"},{"id":97602,"name":"Altayskiy Rayon","stateId":1877,"stateCode":"KK","stateName":"Republic of Khakassia","countryId":182,"countryCode":"RU","countryName":"Russia","latitude":"53.50000000","longitude":"91.50000000","wikiDataId":"Q680895"},{"id":97704,"name":"Askiz","stateId":1877,"stateCode":"KK","stateName":"Republic of Khakassia","countryId":182,"countryCode":"RU","countryName":"Russia","latitude":"53.13194000","longitude":"90.52639000","wikiDataId":"Q31891587"},{"id":97880,"name":"Belyy Yar","stateId":1877,"stateCode":"KK","stateName":"Republic of Khakassia","countryId":182,"countryCode":"RU","countryName":"Russia","latitude":"53.60389000","longitude":"91.39028000","wikiDataId":"Q816300"},{"id":97917,"name":"Beya","stateId":1877,"stateCode":"KK","stateName":"Republic of Khakassia","countryId":182,"countryCode":"RU","countryName":"Russia","latitude":"53.05333000","longitude":"90.91389000","wikiDataId":"Q31915169"},{"id":97941,"name":"Biskamzha","stateId":1877,"stateCode":"KK","stateName":"Republic of Khakassia","countryId":182,"countryCode":"RU","countryName":"Russia","latitude":"53.44972000","longitude":"89.52722000","wikiDataId":"Q31916217"},{"id":97979,"name":"Bograd","stateId":1877,"stateCode":"KK","stateName":"Republic of Khakassia","countryId":182,"countryCode":"RU","countryName":"Russia","latitude":"54.23444000","longitude":"90.83278000","wikiDataId":"Q31917935"},{"id":97980,"name":"Bogradskiy Rayon","stateId":1877,"stateCode":"KK","stateName":"Republic of Khakassia","countryId":182,"countryCode":"RU","countryName":"Russia","latitude":"54.33333000","longitude":"91.00000000","wikiDataId":"Q751058"},{"id":98191,"name":"Cherëmushki","stateId":1877,"stateCode":"KK","stateName":"Republic of Khakassia","countryId":182,"countryCode":"RU","countryName":"Russia","latitude":"52.85576000","longitude":"91.41672000","wikiDataId":"Q34792733"},{"id":98170,"name":"Chernogorsk","stateId":1877,"stateCode":"KK","stateName":"Republic of Khakassia","countryId":182,"countryCode":"RU","countryName":"Russia","latitude":"53.82361000","longitude":"91.28417000","wikiDataId":"Q126758"},{"id":99165,"name":"Kommunar","stateId":1877,"stateCode":"KK","stateName":"Republic of Khakassia","countryId":182,"countryCode":"RU","countryName":"Russia","latitude":"54.34835000","longitude":"89.28297000","wikiDataId":"Q35698813"},{"id":99827,"name":"Mayna","stateId":1877,"stateCode":"KK","stateName":"Republic of Khakassia","countryId":182,"countryCode":"RU","countryName":"Russia","latitude":"53.00639000","longitude":"91.48361000","wikiDataId":"Q35726554"},{"id":100730,"name":"Podsineye","stateId":1877,"stateCode":"KK","stateName":"Republic of Khakassia","countryId":182,"countryCode":"RU","countryName":"Russia","latitude":"53.66583000","longitude":"91.53639000","wikiDataId":"Q37961651"},{"id":101139,"name":"Sayanogorsk","stateId":1877,"stateCode":"KK","stateName":"Republic of Khakassia","countryId":182,"countryCode":"RU","countryName":"Russia","latitude":"53.08750000","longitude":"91.39972000","wikiDataId":"Q193580"},{"id":101326,"name":"Shira","stateId":1877,"stateCode":"KK","stateName":"Republic of Khakassia","countryId":182,"countryCode":"RU","countryName":"Russia","latitude":"54.49111000","longitude":"89.95306000","wikiDataId":"Q37961361"},{"id":101479,"name":"Sorsk","stateId":1877,"stateCode":"KK","stateName":"Republic of Khakassia","countryId":182,"countryCode":"RU","countryName":"Russia","latitude":"54.00333000","longitude":"90.24667000","wikiDataId":"Q196394"},{"id":101790,"name":"Tashtyp","stateId":1877,"stateCode":"KK","stateName":"Republic of Khakassia","countryId":182,"countryCode":"RU","countryName":"Russia","latitude":"52.79542000","longitude":"89.89477000","wikiDataId":"Q37961003"},{"id":101963,"name":"Tuim","stateId":1877,"stateCode":"KK","stateName":"Republic of Khakassia","countryId":182,"countryCode":"RU","countryName":"Russia","latitude":"54.33949000","longitude":"89.94586000","wikiDataId":"Q37960801"},{"id":102113,"name":"Ust’-Abakan","stateId":1877,"stateCode":"KK","stateName":"Republic of Khakassia","countryId":182,"countryCode":"RU","countryName":"Russia","latitude":"53.83651000","longitude":"91.39077000","wikiDataId":"Q37960686"},{"id":102284,"name":"Vershina Tei","stateId":1877,"stateCode":"KK","stateName":"Republic of Khakassia","countryId":182,"countryCode":"RU","countryName":"Russia","latitude":"53.26858000","longitude":"89.56008000","wikiDataId":"Q37960557"}]