[{"id":473,"name":"Dakar","countryId":195,"countryCode":"SN","countryName":"Senegal","stateCode":"DK","type":null,"latitude":"14.71667700","longitude":"-17.46768610"},{"id":480,"name":"Diourbel Region","countryId":195,"countryCode":"SN","countryName":"Senegal","stateCode":"DB","type":null,"latitude":"14.72830850","longitude":"-16.25221430"},{"id":479,"name":"Fatick","countryId":195,"countryCode":"SN","countryName":"Senegal","stateCode":"FK","type":null,"latitude":"14.33901670","longitude":"-16.41114250"},{"id":475,"name":"Kaffrine","countryId":195,"countryCode":"SN","countryName":"Senegal","stateCode":"KA","type":null,"latitude":"14.10520200","longitude":"-15.54157550"},{"id":483,"name":"Kaolack","countryId":195,"countryCode":"SN","countryName":"Senegal","stateCode":"KL","type":null,"latitude":"14.16520830","longitude":"-16.07577490"},{"id":481,"name":"Kédougou","countryId":195,"countryCode":"SN","countryName":"Senegal","stateCode":"KE","type":null,"latitude":"12.56046070","longitude":"-12.17470770"},{"id":474,"name":"Kolda","countryId":195,"countryCode":"SN","countryName":"Senegal","stateCode":"KD","type":null,"latitude":"12.91074950","longitude":"-14.95056710"},{"id":485,"name":"Louga","countryId":195,"countryCode":"SN","countryName":"Senegal","stateCode":"LG","type":null,"latitude":"15.61417680","longitude":"-16.22868000"},{"id":476,"name":"Matam","countryId":195,"countryCode":"SN","countryName":"Senegal","stateCode":"MT","type":null,"latitude":"15.66002250","longitude":"-13.25769060"},{"id":477,"name":"Saint-Louis","countryId":195,"countryCode":"SN","countryName":"Senegal","stateCode":"SL","type":null,"latitude":"38.62700250","longitude":"-90.19940420"},{"id":482,"name":"Sédhiou","countryId":195,"countryCode":"SN","countryName":"Senegal","stateCode":"SE","type":null,"latitude":"12.70460400","longitude":"-15.55623040"},{"id":486,"name":"Tambacounda Region","countryId":195,"countryCode":"SN","countryName":"Senegal","stateCode":"TC","type":null,"latitude":"13.56190110","longitude":"-13.17403480"},{"id":484,"name":"Thiès Region","countryId":195,"countryCode":"SN","countryName":"Senegal","stateCode":"TH","type":null,"latitude":"14.79100520","longitude":"-16.93586040"},{"id":478,"name":"Ziguinchor","countryId":195,"countryCode":"SN","countryName":"Senegal","stateCode":"ZG","type":null,"latitude":"12.56414790","longitude":"-16.26398250"}]