[{"id":65960,"name":"Anse Canot","stateId":3756,"stateCode":"05","stateName":"Dennery Quarter","countryId":186,"countryCode":"LC","countryName":"Saint Lucia","latitude":"13.90871000","longitude":"-60.90440000","wikiDataId":"Q26569"},{"id":65967,"name":"Athens","stateId":3756,"stateCode":"05","stateName":"Dennery Quarter","countryId":186,"countryCode":"LC","countryName":"Saint Lucia","latitude":"13.90574000","longitude":"-60.89184000","wikiDataId":"Q569439"},{"id":65968,"name":"Au Leon","stateId":3756,"stateCode":"05","stateName":"Dennery Quarter","countryId":186,"countryCode":"LC","countryName":"Saint Lucia","latitude":"13.95245000","longitude":"-60.90456000","wikiDataId":"Q569439"},{"id":65982,"name":"Bara Bara","stateId":3756,"stateCode":"05","stateName":"Dennery Quarter","countryId":186,"countryCode":"LC","countryName":"Saint Lucia","latitude":"13.95911000","longitude":"-60.93414000","wikiDataId":"Q569439"},{"id":65988,"name":"Bazile","stateId":3756,"stateCode":"05","stateName":"Dennery Quarter","countryId":186,"countryCode":"LC","countryName":"Saint Lucia","latitude":"13.91082000","longitude":"-60.92430000","wikiDataId":"Q569439"},{"id":66005,"name":"Belmont","stateId":3756,"stateCode":"05","stateName":"Dennery Quarter","countryId":186,"countryCode":"LC","countryName":"Saint Lucia","latitude":"13.95044000","longitude":"-60.93276000","wikiDataId":"Q569439"},{"id":66024,"name":"Bois Joli","stateId":3756,"stateCode":"05","stateName":"Dennery Quarter","countryId":186,"countryCode":"LC","countryName":"Saint Lucia","latitude":"13.92020000","longitude":"-60.91409000","wikiDataId":"Q569439"},{"id":66029,"name":"Bordelais","stateId":3756,"stateCode":"05","stateName":"Dennery Quarter","countryId":186,"countryCode":"LC","countryName":"Saint Lucia","latitude":"13.89552000","longitude":"-60.90092000","wikiDataId":"Q569439"},{"id":66030,"name":"Bosquet D'Or","stateId":3756,"stateCode":"05","stateName":"Dennery Quarter","countryId":186,"countryCode":"LC","countryName":"Saint Lucia","latitude":"13.92886000","longitude":"-60.91127000","wikiDataId":"Q569439"},{"id":66096,"name":"Delaide","stateId":3756,"stateCode":"05","stateName":"Dennery Quarter","countryId":186,"countryCode":"LC","countryName":"Saint Lucia","latitude":"13.92993000","longitude":"-60.90584000","wikiDataId":"Q3556840"},{"id":66099,"name":"Dennery","stateId":3756,"stateCode":"05","stateName":"Dennery Quarter","countryId":186,"countryCode":"LC","countryName":"Saint Lucia","latitude":"13.91409000","longitude":"-60.89132000","wikiDataId":"Q3556840"},{"id":66100,"name":"Dennery By Pass","stateId":3756,"stateCode":"05","stateName":"Dennery Quarter","countryId":186,"countryCode":"LC","countryName":"Saint Lucia","latitude":"13.91164000","longitude":"-60.89454000","wikiDataId":"Q3556840"},{"id":66101,"name":"Dennery By Pass/Green Mountain","stateId":3756,"stateCode":"05","stateName":"Dennery Quarter","countryId":186,"countryCode":"LC","countryName":"Saint Lucia","latitude":"13.91094000","longitude":"-60.89810000","wikiDataId":"Q3556840"},{"id":66102,"name":"Dennery By Pass/Rocky Lane","stateId":3756,"stateCode":"05","stateName":"Dennery Quarter","countryId":186,"countryCode":"LC","countryName":"Saint Lucia","latitude":"13.91443000","longitude":"-60.90017000","wikiDataId":"Q3556840"},{"id":66103,"name":"Dennery By Pass/White Rock Gardens","stateId":3756,"stateCode":"05","stateName":"Dennery Quarter","countryId":186,"countryCode":"LC","countryName":"Saint Lucia","latitude":"13.91424000","longitude":"-60.89333000","wikiDataId":"Q3556840"},{"id":66104,"name":"Dennery Village","stateId":3756,"stateCode":"05","stateName":"Dennery Quarter","countryId":186,"countryCode":"LC","countryName":"Saint Lucia","latitude":"13.91099000","longitude":"-60.89122000","wikiDataId":"Q3556840"},{"id":66108,"name":"Derniere Riviere","stateId":3756,"stateCode":"05","stateName":"Dennery Quarter","countryId":186,"countryCode":"LC","countryName":"Saint Lucia","latitude":"13.95679000","longitude":"-60.92578000","wikiDataId":"Q3556840"},{"id":66109,"name":"Derniere Riviere/Fond Maricient","stateId":3756,"stateCode":"05","stateName":"Dennery Quarter","countryId":186,"countryCode":"LC","countryName":"Saint Lucia","latitude":"13.95130000","longitude":"-60.92218000","wikiDataId":"Q3556840"},{"id":66110,"name":"Derniere Riviere/Mardi Gras/Morne Caca Cochon","stateId":3756,"stateCode":"05","stateName":"Dennery Quarter","countryId":186,"countryCode":"LC","countryName":"Saint Lucia","latitude":"13.96288000","longitude":"-60.92029000","wikiDataId":"Q3556840"},{"id":66111,"name":"Derniere Riviere/Morne Panache","stateId":3756,"stateCode":"05","stateName":"Dennery Quarter","countryId":186,"countryCode":"LC","countryName":"Saint Lucia","latitude":"13.95252000","longitude":"-60.92919000","wikiDataId":"Q3556840"},{"id":66117,"name":"Despinoze","stateId":3756,"stateCode":"05","stateName":"Dennery Quarter","countryId":186,"countryCode":"LC","countryName":"Saint Lucia","latitude":"13.94971000","longitude":"-60.91182000","wikiDataId":"Q3556840"},{"id":66123,"name":"Dubonnaire","stateId":3756,"stateCode":"05","stateName":"Dennery Quarter","countryId":186,"countryCode":"LC","countryName":"Saint Lucia","latitude":"13.92808000","longitude":"-60.92336000","wikiDataId":"Q3556840"},{"id":66156,"name":"Gadette","stateId":3756,"stateCode":"05","stateName":"Dennery Quarter","countryId":186,"countryCode":"LC","countryName":"Saint Lucia","latitude":"13.95937000","longitude":"-60.91029000","wikiDataId":"Q3556840"},{"id":66170,"name":"Grande Ravine","stateId":3756,"stateCode":"05","stateName":"Dennery Quarter","countryId":186,"countryCode":"LC","countryName":"Saint Lucia","latitude":"13.94263000","longitude":"-60.93404000","wikiDataId":"Q3556840"},{"id":66171,"name":"Grande Riviere","stateId":3756,"stateCode":"05","stateName":"Dennery Quarter","countryId":186,"countryCode":"LC","countryName":"Saint Lucia","latitude":"13.93306000","longitude":"-60.93239000","wikiDataId":"Q3556840"},{"id":66173,"name":"Grande Riviere/Des Branch","stateId":3756,"stateCode":"05","stateName":"Dennery Quarter","countryId":186,"countryCode":"LC","countryName":"Saint Lucia","latitude":"13.93383000","longitude":"-60.93499000","wikiDataId":"Q3556840"},{"id":66174,"name":"Grande Riviere/En Leur Morne/Discompere","stateId":3756,"stateCode":"05","stateName":"Dennery Quarter","countryId":186,"countryCode":"LC","countryName":"Saint Lucia","latitude":"13.93223000","longitude":"-60.93461000","wikiDataId":"Q3556840"},{"id":66175,"name":"Grande Riviere/Funier","stateId":3756,"stateCode":"05","stateName":"Dennery Quarter","countryId":186,"countryCode":"LC","countryName":"Saint Lucia","latitude":"13.93240000","longitude":"-60.93305000","wikiDataId":"Q3556840"},{"id":66177,"name":"Grande Riviere/Morne Caca Cochon","stateId":3756,"stateCode":"05","stateName":"Dennery Quarter","countryId":186,"countryCode":"LC","countryName":"Saint Lucia","latitude":"13.92960000","longitude":"-60.93794000","wikiDataId":"Q3556840"},{"id":66208,"name":"La Caye","stateId":3756,"stateCode":"05","stateName":"Dennery Quarter","countryId":186,"countryCode":"LC","countryName":"Saint Lucia","latitude":"13.93290000","longitude":"-60.90434000","wikiDataId":"Q3116994"},{"id":66220,"name":"La Pelle","stateId":3756,"stateCode":"05","stateName":"Dennery Quarter","countryId":186,"countryCode":"LC","countryName":"Saint Lucia","latitude":"13.94096000","longitude":"-60.90569000","wikiDataId":"Q3116994"},{"id":66224,"name":"La Pointe","stateId":3756,"stateCode":"05","stateName":"Dennery Quarter","countryId":186,"countryCode":"LC","countryName":"Saint Lucia","latitude":"13.91525000","longitude":"-60.88830000","wikiDataId":"Q3116994"},{"id":66226,"name":"La Ressource","stateId":3756,"stateCode":"05","stateName":"Dennery Quarter","countryId":186,"countryCode":"LC","countryName":"Saint Lucia","latitude":"13.94293000","longitude":"-60.91585000","wikiDataId":"Q3116994"},{"id":66242,"name":"Lumiere","stateId":3756,"stateCode":"05","stateName":"Dennery Quarter","countryId":186,"countryCode":"LC","countryName":"Saint Lucia","latitude":"13.93928000","longitude":"-60.88889000","wikiDataId":"Q13220042"},{"id":66303,"name":"Morne Panache","stateId":3756,"stateCode":"05","stateName":"Dennery Quarter","countryId":186,"countryCode":"LC","countryName":"Saint Lucia","latitude":"13.92167000","longitude":"-60.93654000","wikiDataId":"Q11779522"},{"id":66355,"name":"Riche Fond","stateId":3756,"stateCode":"05","stateName":"Dennery Quarter","countryId":186,"countryCode":"LC","countryName":"Saint Lucia","latitude":"13.93644000","longitude":"-60.92026000","wikiDataId":"Q11779522"},{"id":66356,"name":"Riche Fond/La Belle Vie","stateId":3756,"stateCode":"05","stateName":"Dennery Quarter","countryId":186,"countryCode":"LC","countryName":"Saint Lucia","latitude":"13.93782000","longitude":"-60.92908000","wikiDataId":"Q11779522"},{"id":66357,"name":"Riche Fond/New Village","stateId":3756,"stateCode":"05","stateName":"Dennery Quarter","countryId":186,"countryCode":"LC","countryName":"Saint Lucia","latitude":"13.93648000","longitude":"-60.92394000","wikiDataId":"Q11779522"},{"id":66384,"name":"St. Joseph Estate","stateId":3756,"stateCode":"05","stateName":"Dennery Quarter","countryId":186,"countryCode":"LC","countryName":"Saint Lucia","latitude":"13.90066000","longitude":"-60.91444000","wikiDataId":"Q493030"},{"id":66395,"name":"Thamazo","stateId":3756,"stateCode":"05","stateName":"Dennery Quarter","countryId":186,"countryCode":"LC","countryName":"Saint Lucia","latitude":"13.93245000","longitude":"-60.94786000","wikiDataId":"Q493030"}]