[{"id":31026,"name":"Bajos de Haina","stateId":4091,"stateCode":"21","stateName":"San Cristóbal Province","countryId":62,"countryCode":"DO","countryName":"Dominican Republic","latitude":"18.41667000","longitude":"-70.03333000","wikiDataId":"Q2438383"},{"id":31039,"name":"Cambita Garabitos","stateId":4091,"stateCode":"21","stateName":"San Cristóbal Province","countryId":62,"countryCode":"DO","countryName":"Dominican Republic","latitude":"18.50000000","longitude":"-70.23333000","wikiDataId":"Q3651189"},{"id":31056,"name":"El Cacao","stateId":4091,"stateCode":"21","stateName":"San Cristóbal Province","countryId":62,"countryCode":"DO","countryName":"Dominican Republic","latitude":"18.52719000","longitude":"-70.29585000","wikiDataId":"Q23775949"},{"id":31057,"name":"El Carril","stateId":4091,"stateCode":"21","stateName":"San Cristóbal Province","countryId":62,"countryCode":"DO","countryName":"Dominican Republic","latitude":"18.44905000","longitude":"-70.02785000","wikiDataId":"Q5350946"},{"id":31172,"name":"Sabana Grande de Palenque","stateId":4091,"stateCode":"21","stateName":"San Cristóbal Province","countryId":62,"countryCode":"DO","countryName":"Dominican Republic","latitude":"18.26256000","longitude":"-70.14821000","wikiDataId":"Q3944201"},{"id":31183,"name":"San Cristóbal","stateId":4091,"stateCode":"21","stateName":"San Cristóbal Province","countryId":62,"countryCode":"DO","countryName":"Dominican Republic","latitude":"18.41667000","longitude":"-70.13333000","wikiDataId":"Q373759"},{"id":31186,"name":"San Gregorio de Nigua","stateId":4091,"stateCode":"21","stateName":"San Cristóbal Province","countryId":62,"countryCode":"DO","countryName":"Dominican Republic","latitude":"18.38333000","longitude":"-70.08333000","wikiDataId":"Q3947356"},{"id":31211,"name":"Villa Altagracia","stateId":4091,"stateCode":"21","stateName":"San Cristóbal Province","countryId":62,"countryCode":"DO","countryName":"Dominican Republic","latitude":"18.63333000","longitude":"-70.25000000","wikiDataId":"Q4011765"},{"id":31223,"name":"Yaguate","stateId":4091,"stateCode":"21","stateName":"San Cristóbal Province","countryId":62,"countryCode":"DO","countryName":"Dominican Republic","latitude":"18.33333000","longitude":"-70.18333000","wikiDataId":"Q7930938"}]