[{"id":104956,"name":"Al Ḩarāk","stateId":2945,"stateCode":"DR","stateName":"Daraa","countryId":215,"countryCode":"SY","countryName":"Syria","latitude":"32.74932000","longitude":"36.30994000","wikiDataId":"Q212757"},{"id":104949,"name":"Al Muzayrīb","stateId":2945,"stateCode":"DR","stateName":"Daraa","countryId":215,"countryCode":"SY","countryName":"Syria","latitude":"32.71084000","longitude":"36.02751000","wikiDataId":"Q6944401"},{"id":104963,"name":"Al-Sanamayn District","stateId":2945,"stateCode":"DR","stateName":"Daraa","countryId":215,"countryCode":"SY","countryName":"Syria","latitude":"33.12559000","longitude":"36.27540000","wikiDataId":"Q4115585"},{"id":104984,"name":"Aş Şanamayn","stateId":2945,"stateCode":"DR","stateName":"Daraa","countryId":215,"countryCode":"SY","countryName":"Syria","latitude":"33.07186000","longitude":"36.18316000","wikiDataId":"Q2561767"},{"id":104979,"name":"Ash Shaykh Miskīn","stateId":2945,"stateCode":"DR","stateName":"Daraa","countryId":215,"countryCode":"SY","countryName":"Syria","latitude":"32.82944000","longitude":"36.15933000","wikiDataId":"Q3266216"},{"id":104986,"name":"Buşrá ash Shām","stateId":2945,"stateCode":"DR","stateName":"Daraa","countryId":215,"countryCode":"SY","countryName":"Syria","latitude":"32.52013000","longitude":"36.48256000","wikiDataId":"Q272680"},{"id":104990,"name":"Dar‘ā","stateId":2945,"stateCode":"DR","stateName":"Daraa","countryId":215,"countryCode":"SY","countryName":"Syria","latitude":"32.61889000","longitude":"36.10213000","wikiDataId":"Q238217"},{"id":104996,"name":"Ghabāghib","stateId":2945,"stateCode":"DR","stateName":"Daraa","countryId":215,"countryCode":"SY","countryName":"Syria","latitude":"33.18235000","longitude":"36.22534000","wikiDataId":"Q5555136"},{"id":105003,"name":"Inkhil","stateId":2945,"stateCode":"DR","stateName":"Daraa","countryId":215,"countryCode":"SY","countryName":"Syria","latitude":"33.01809000","longitude":"36.12828000","wikiDataId":"Q4119742"},{"id":105004,"name":"Izra District","stateId":2945,"stateCode":"DR","stateName":"Daraa","countryId":215,"countryCode":"SY","countryName":"Syria","latitude":"32.90121000","longitude":"36.16144000","wikiDataId":"Q3235210"},{"id":105005,"name":"Izra‘","stateId":2945,"stateCode":"DR","stateName":"Daraa","countryId":215,"countryCode":"SY","countryName":"Syria","latitude":"32.87060000","longitude":"36.25453000","wikiDataId":"Q3235210"},{"id":105014,"name":"Jāsim","stateId":2945,"stateCode":"DR","stateName":"Daraa","countryId":215,"countryCode":"SY","countryName":"Syria","latitude":"32.99233000","longitude":"36.06018000","wikiDataId":"Q4116040"},{"id":105037,"name":"Nawá","stateId":2945,"stateCode":"DR","stateName":"Daraa","countryId":215,"countryCode":"SY","countryName":"Syria","latitude":"32.89044000","longitude":"36.03990000","wikiDataId":"Q1758024"},{"id":105073,"name":"Ţafas","stateId":2945,"stateCode":"DR","stateName":"Daraa","countryId":215,"countryCode":"SY","countryName":"Syria","latitude":"32.73709000","longitude":"36.06654000","wikiDataId":"Q4120104"},{"id":105061,"name":"Tasīl","stateId":2945,"stateCode":"DR","stateName":"Daraa","countryId":215,"countryCode":"SY","countryName":"Syria","latitude":"32.83395000","longitude":"35.96973000","wikiDataId":"Q7687248"}]