[{"id":109318,"name":"Amvrosiivka Raion","stateId":4691,"stateCode":"14","stateName":"Donetska oblast","countryId":230,"countryCode":"UA","countryName":"Ukraine","latitude":"47.75000000","longitude":"38.50000000","wikiDataId":"Q2994010"},{"id":109319,"name":"Amvrosiyivka","stateId":4691,"stateCode":"14","stateName":"Donetska oblast","countryId":230,"countryCode":"UA","countryName":"Ukraine","latitude":"47.79348000","longitude":"38.47768000","wikiDataId":"Q1996358"},{"id":109333,"name":"Avdiyivka","stateId":4691,"stateCode":"14","stateName":"Donetska oblast","countryId":230,"countryCode":"UA","countryName":"Ukraine","latitude":"48.13989000","longitude":"37.74255000","wikiDataId":"Q791673"},{"id":109342,"name":"Bakhmut","stateId":4691,"stateCode":"14","stateName":"Donetska oblast","countryId":230,"countryCode":"UA","countryName":"Ukraine","latitude":"48.59559000","longitude":"37.99987000","wikiDataId":"Q706857"},{"id":109343,"name":"Bakhmut Raion","stateId":4691,"stateCode":"14","stateName":"Donetska oblast","countryId":230,"countryCode":"UA","countryName":"Ukraine","latitude":"48.58333000","longitude":"38.00000000","wikiDataId":"Q706857"},{"id":109389,"name":"Bezimenne","stateId":4691,"stateCode":"14","stateName":"Donetska oblast","countryId":230,"countryCode":"UA","countryName":"Ukraine","latitude":"47.10716000","longitude":"37.93815000","wikiDataId":"Q4081092"},{"id":109407,"name":"Bilyts’ke","stateId":4691,"stateCode":"14","stateName":"Donetska oblast","countryId":230,"countryCode":"UA","countryName":"Ukraine","latitude":"48.40642000","longitude":"37.18111000","wikiDataId":"Q2354480"},{"id":109410,"name":"Blahodatne","stateId":4691,"stateCode":"14","stateName":"Donetska oblast","countryId":230,"countryCode":"UA","countryName":"Ukraine","latitude":"47.87928000","longitude":"38.48492000","wikiDataId":"Q4087834"},{"id":109441,"name":"Boykivske","stateId":4691,"stateCode":"14","stateName":"Donetska oblast","countryId":230,"countryCode":"UA","countryName":"Ukraine","latitude":"47.40994000","longitude":"38.02476000","wikiDataId":"Q4454309"},{"id":109442,"name":"Boykivske Raion","stateId":4691,"stateCode":"14","stateName":"Donetska oblast","countryId":230,"countryCode":"UA","countryName":"Ukraine","latitude":"47.41667000","longitude":"38.00000000","wikiDataId":"Q2628116"},{"id":109473,"name":"Chasiv Yar","stateId":4691,"stateCode":"14","stateName":"Donetska oblast","countryId":230,"countryCode":"UA","countryName":"Ukraine","latitude":"48.59348000","longitude":"37.85724000","wikiDataId":"Q2415330"},{"id":109526,"name":"Chystyakove","stateId":4691,"stateCode":"14","stateName":"Donetska oblast","countryId":230,"countryCode":"UA","countryName":"Ukraine","latitude":"48.03876000","longitude":"38.59685000","wikiDataId":"Q162084"},{"id":109532,"name":"Debal’tseve","stateId":4691,"stateCode":"14","stateName":"Donetska oblast","countryId":230,"countryCode":"UA","countryName":"Ukraine","latitude":"48.34072000","longitude":"38.40490000","wikiDataId":"Q2371760"},{"id":109546,"name":"Dmytrivka","stateId":4691,"stateCode":"14","stateName":"Donetska oblast","countryId":230,"countryCode":"UA","countryName":"Ukraine","latitude":"47.93611000","longitude":"38.93661000","wikiDataId":"Q4162983"},{"id":109556,"name":"Dobropillia Raion","stateId":4691,"stateCode":"14","stateName":"Donetska oblast","countryId":230,"countryCode":"UA","countryName":"Ukraine","latitude":"48.41667000","longitude":"37.16667000","wikiDataId":"Q268656"},{"id":109557,"name":"Dobropillya","stateId":4691,"stateCode":"14","stateName":"Donetska oblast","countryId":230,"countryCode":"UA","countryName":"Ukraine","latitude":"48.46147000","longitude":"37.08524000","wikiDataId":"Q2415973"},{"id":109563,"name":"Dokuchayevs’k","stateId":4691,"stateCode":"14","stateName":"Donetska oblast","countryId":230,"countryCode":"UA","countryName":"Ukraine","latitude":"47.75046000","longitude":"37.67936000","wikiDataId":"Q2416554"},{"id":109570,"name":"Donetsk","stateId":4691,"stateCode":"14","stateName":"Donetska oblast","countryId":230,"countryCode":"UA","countryName":"Ukraine","latitude":"48.02300000","longitude":"37.80224000","wikiDataId":"Q43070"},{"id":109581,"name":"Druzhkivka","stateId":4691,"stateCode":"14","stateName":"Donetska oblast","countryId":230,"countryCode":"UA","countryName":"Ukraine","latitude":"48.63013000","longitude":"37.55259000","wikiDataId":"Q157795"},{"id":109641,"name":"Horlivka","stateId":4691,"stateCode":"14","stateName":"Donetska oblast","countryId":230,"countryCode":"UA","countryName":"Ukraine","latitude":"48.33576000","longitude":"38.05325000","wikiDataId":"Q157260"},{"id":109668,"name":"Ilovays’k","stateId":4691,"stateCode":"14","stateName":"Donetska oblast","countryId":230,"countryCode":"UA","countryName":"Ukraine","latitude":"47.92498000","longitude":"38.20235000","wikiDataId":"Q2415345"},{"id":109728,"name":"Khartsyz’k","stateId":4691,"stateCode":"14","stateName":"Donetska oblast","countryId":230,"countryCode":"UA","countryName":"Ukraine","latitude":"48.04243000","longitude":"38.14728000","wikiDataId":"Q1003757"},{"id":109811,"name":"Kostiantynivka Raion","stateId":4691,"stateCode":"14","stateName":"Donetska oblast","countryId":230,"countryCode":"UA","countryName":"Ukraine","latitude":"48.50000000","longitude":"37.75000000","wikiDataId":"Q593616"},{"id":109817,"name":"Kostyantynivka","stateId":4691,"stateCode":"14","stateName":"Donetska oblast","countryId":230,"countryCode":"UA","countryName":"Ukraine","latitude":"48.52770000","longitude":"37.70690000","wikiDataId":"Q165243"},{"id":109828,"name":"Kramators’k","stateId":4691,"stateCode":"14","stateName":"Donetska oblast","countryId":230,"countryCode":"UA","countryName":"Ukraine","latitude":"48.72305000","longitude":"37.55629000","wikiDataId":"Q33613"},{"id":109848,"name":"Krasnotorka","stateId":4691,"stateCode":"14","stateName":"Donetska oblast","countryId":230,"countryCode":"UA","countryName":"Ukraine","latitude":"48.68204000","longitude":"37.53266000","wikiDataId":"Q4239123"},{"id":109862,"name":"Krinichnaya","stateId":4691,"stateCode":"14","stateName":"Donetska oblast","countryId":230,"countryCode":"UA","countryName":"Ukraine","latitude":"48.12899000","longitude":"38.02597000","wikiDataId":"Q4241112"},{"id":109888,"name":"Kurakhovo","stateId":4691,"stateCode":"14","stateName":"Donetska oblast","countryId":230,"countryCode":"UA","countryName":"Ukraine","latitude":"47.98522000","longitude":"37.28210000","wikiDataId":"Q1023513"},{"id":109893,"name":"Kuteynykove","stateId":4691,"stateCode":"14","stateName":"Donetska oblast","countryId":230,"countryCode":"UA","countryName":"Ukraine","latitude":"47.81227000","longitude":"38.28822000","wikiDataId":"Q4249460"},{"id":109940,"name":"Luhans’ke","stateId":4691,"stateCode":"14","stateName":"Donetska oblast","countryId":230,"countryCode":"UA","countryName":"Ukraine","latitude":"48.44574000","longitude":"38.26153000","wikiDataId":"Q4267941"},{"id":109950,"name":"Lyman","stateId":4691,"stateCode":"14","stateName":"Donetska oblast","countryId":230,"countryCode":"UA","countryName":"Ukraine","latitude":"48.98837000","longitude":"37.80225000","wikiDataId":"Q2234641"},{"id":109952,"name":"Lyman Raion","stateId":4691,"stateCode":"14","stateName":"Donetska oblast","countryId":230,"countryCode":"UA","countryName":"Ukraine","latitude":"49.00000000","longitude":"37.83333000","wikiDataId":"Q4261659"},{"id":109976,"name":"Makiyivka","stateId":4691,"stateCode":"14","stateName":"Donetska oblast","countryId":230,"countryCode":"UA","countryName":"Ukraine","latitude":"48.04782000","longitude":"37.92576000","wikiDataId":"Q157134"},{"id":109977,"name":"Makiyivs’ka Mis’krada","stateId":4691,"stateCode":"14","stateName":"Donetska oblast","countryId":230,"countryCode":"UA","countryName":"Ukraine","latitude":"48.06287000","longitude":"38.03075000","wikiDataId":"Q4275688"},{"id":109994,"name":"Manhush","stateId":4691,"stateCode":"14","stateName":"Donetska oblast","countryId":230,"countryCode":"UA","countryName":"Ukraine","latitude":"47.05582000","longitude":"37.31068000","wikiDataId":"Q4280256"},{"id":109997,"name":"Mar'yinka","stateId":4691,"stateCode":"14","stateName":"Donetska oblast","countryId":230,"countryCode":"UA","countryName":"Ukraine","latitude":"47.94527000","longitude":"37.50544000","wikiDataId":"Q2494365"},{"id":110000,"name":"Mariupol","stateId":4691,"stateCode":"14","stateName":"Donetska oblast","countryId":230,"countryCode":"UA","countryName":"Ukraine","latitude":"47.09514000","longitude":"37.54131000","wikiDataId":"Q37133"},{"id":110016,"name":"Melekyne","stateId":4691,"stateCode":"14","stateName":"Donetska oblast","countryId":230,"countryCode":"UA","countryName":"Ukraine","latitude":"46.95957000","longitude":"37.39981000","wikiDataId":"Q4289319"},{"id":110055,"name":"Mospyne","stateId":4691,"stateCode":"14","stateName":"Donetska oblast","countryId":230,"countryCode":"UA","countryName":"Ukraine","latitude":"47.89081000","longitude":"38.06395000","wikiDataId":"Q2415358"},{"id":110075,"name":"Myrnohrad","stateId":4691,"stateCode":"14","stateName":"Donetska oblast","countryId":230,"countryCode":"UA","countryName":"Ukraine","latitude":"48.30523000","longitude":"37.26091000","wikiDataId":"Q45872"},{"id":110097,"name":"Nikolske Raion","stateId":4691,"stateCode":"14","stateName":"Donetska oblast","countryId":230,"countryCode":"UA","countryName":"Ukraine","latitude":"47.25000000","longitude":"37.25000000","wikiDataId":"Q1966428"},{"id":110120,"name":"Novoazovs'k","stateId":4691,"stateCode":"14","stateName":"Donetska oblast","countryId":230,"countryCode":"UA","countryName":"Ukraine","latitude":"47.11389000","longitude":"38.08599000","wikiDataId":"Q2353526"},{"id":110123,"name":"Novodonets’ke","stateId":4691,"stateCode":"14","stateName":"Donetska oblast","countryId":230,"countryCode":"UA","countryName":"Ukraine","latitude":"48.63526000","longitude":"36.98477000","wikiDataId":"Q149193"},{"id":110161,"name":"Novyy Svit","stateId":4691,"stateCode":"14","stateName":"Donetska oblast","countryId":230,"countryCode":"UA","countryName":"Ukraine","latitude":"47.80591000","longitude":"38.02112000","wikiDataId":"Q4326783"},{"id":110167,"name":"Nyzhnya Krynka","stateId":4691,"stateCode":"14","stateName":"Donetska oblast","countryId":230,"countryCode":"UA","countryName":"Ukraine","latitude":"48.11350000","longitude":"38.16064000","wikiDataId":"Q4319319"},{"id":110219,"name":"P'yatypill'ya","stateId":4691,"stateCode":"14","stateName":"Donetska oblast","countryId":230,"countryCode":"UA","countryName":"Ukraine","latitude":"48.01590000","longitude":"38.09979000","wikiDataId":"Q4332333"},{"id":110291,"name":"Pokrovsk","stateId":4691,"stateCode":"14","stateName":"Donetska oblast","countryId":230,"countryCode":"UA","countryName":"Ukraine","latitude":"48.28198000","longitude":"37.17585000","wikiDataId":"Q1000446"},{"id":110292,"name":"Pokrovsk Raion","stateId":4691,"stateCode":"14","stateName":"Donetska oblast","countryId":230,"countryCode":"UA","countryName":"Ukraine","latitude":"48.25000000","longitude":"37.16667000","wikiDataId":"Q1000446"},{"id":110359,"name":"Rodyns’ke","stateId":4691,"stateCode":"14","stateName":"Donetska oblast","countryId":230,"countryCode":"UA","countryName":"Ukraine","latitude":"48.35199000","longitude":"37.20602000","wikiDataId":"Q2416543"},{"id":110385,"name":"Rozsypne","stateId":4691,"stateCode":"14","stateName":"Donetska oblast","countryId":230,"countryCode":"UA","countryName":"Ukraine","latitude":"48.14966000","longitude":"38.57619000","wikiDataId":"Q4390544"},{"id":110408,"name":"Sartana","stateId":4691,"stateCode":"14","stateName":"Donetska oblast","countryId":230,"countryCode":"UA","countryName":"Ukraine","latitude":"47.17436000","longitude":"37.69266000","wikiDataId":"Q782264"},{"id":110413,"name":"Selydivs’ka Mis’krada","stateId":4691,"stateCode":"14","stateName":"Donetska oblast","countryId":230,"countryCode":"UA","countryName":"Ukraine","latitude":"48.14530000","longitude":"37.29962000","wikiDataId":"Q4413761"},{"id":110414,"name":"Selydove","stateId":4691,"stateCode":"14","stateName":"Donetska oblast","countryId":230,"countryCode":"UA","countryName":"Ukraine","latitude":"48.14708000","longitude":"37.30032000","wikiDataId":"Q951436"},{"id":110420,"name":"Serebryanka","stateId":4691,"stateCode":"14","stateName":"Donetska oblast","countryId":230,"countryCode":"UA","countryName":"Ukraine","latitude":"48.91917000","longitude":"38.13494000","wikiDataId":"Q4417363"},{"id":110428,"name":"Shakhtars’k","stateId":4691,"stateCode":"14","stateName":"Donetska oblast","countryId":230,"countryCode":"UA","countryName":"Ukraine","latitude":"48.05657000","longitude":"38.43826000","wikiDataId":"Q29756"},{"id":110435,"name":"Shcherbynivka","stateId":4691,"stateCode":"14","stateName":"Donetska oblast","countryId":230,"countryCode":"UA","countryName":"Ukraine","latitude":"48.39489000","longitude":"37.79102000","wikiDataId":"Q4528953"},{"id":110454,"name":"Shyroke","stateId":4691,"stateCode":"14","stateName":"Donetska oblast","countryId":230,"countryCode":"UA","countryName":"Ukraine","latitude":"47.95711000","longitude":"38.23160000","wikiDataId":"Q4524449"},{"id":110464,"name":"Sivers’k","stateId":4691,"stateCode":"14","stateName":"Donetska oblast","countryId":230,"countryCode":"UA","countryName":"Ukraine","latitude":"48.86699000","longitude":"38.10007000","wikiDataId":"Q1940853"},{"id":110486,"name":"Sloviansk","stateId":4691,"stateCode":"14","stateName":"Donetska oblast","countryId":230,"countryCode":"UA","countryName":"Ukraine","latitude":"48.86667000","longitude":"37.61667000","wikiDataId":"Q33581"},{"id":110487,"name":"Sloviansk Raion","stateId":4691,"stateCode":"14","stateName":"Donetska oblast","countryId":230,"countryCode":"UA","countryName":"Ukraine","latitude":"48.91667000","longitude":"37.50000000","wikiDataId":"Q2628096"},{"id":110493,"name":"Snizhne","stateId":4691,"stateCode":"14","stateName":"Donetska oblast","countryId":230,"countryCode":"UA","countryName":"Ukraine","latitude":"48.02612000","longitude":"38.77225000","wikiDataId":"Q1749424"},{"id":110503,"name":"Soledar","stateId":4691,"stateCode":"14","stateName":"Donetska oblast","countryId":230,"countryCode":"UA","countryName":"Ukraine","latitude":"48.67935000","longitude":"38.08902000","wikiDataId":"Q2399843"},{"id":110531,"name":"Starobesheve","stateId":4691,"stateCode":"14","stateName":"Donetska oblast","countryId":230,"countryCode":"UA","countryName":"Ukraine","latitude":"47.75038000","longitude":"38.03051000","wikiDataId":"Q4440090"},{"id":110539,"name":"Staryy Krym","stateId":4691,"stateCode":"14","stateName":"Donetska oblast","countryId":230,"countryCode":"UA","countryName":"Ukraine","latitude":"47.16146000","longitude":"37.48934000","wikiDataId":"Q4441079"},{"id":110552,"name":"Stizhkivs’ke","stateId":4691,"stateCode":"14","stateName":"Donetska oblast","countryId":230,"countryCode":"UA","countryName":"Ukraine","latitude":"48.11333000","longitude":"38.49250000","wikiDataId":"Q4442750"},{"id":110575,"name":"Svetlodarsk","stateId":4691,"stateCode":"14","stateName":"Donetska oblast","countryId":230,"countryCode":"UA","countryName":"Ukraine","latitude":"48.43374000","longitude":"38.22331000","wikiDataId":"Q2493295"},{"id":110579,"name":"Svyatogorsk","stateId":4691,"stateCode":"14","stateName":"Donetska oblast","countryId":230,"countryCode":"UA","countryName":"Ukraine","latitude":"49.03333000","longitude":"37.56667000","wikiDataId":"Q1020087"},{"id":110581,"name":"Syedove","stateId":4691,"stateCode":"14","stateName":"Donetska oblast","countryId":230,"countryCode":"UA","countryName":"Ukraine","latitude":"47.07678000","longitude":"38.15602000","wikiDataId":"Q1039619"},{"id":110595,"name":"Temriuk","stateId":4691,"stateCode":"14","stateName":"Donetska oblast","countryId":230,"countryCode":"UA","countryName":"Ukraine","latitude":"47.26857000","longitude":"36.98115000","wikiDataId":"Q2652162"},{"id":110616,"name":"Toretsk","stateId":4691,"stateCode":"14","stateName":"Donetska oblast","countryId":230,"countryCode":"UA","countryName":"Ukraine","latitude":"48.39869000","longitude":"37.84787000","wikiDataId":"Q2416525"},{"id":110659,"name":"Urzuf","stateId":4691,"stateCode":"14","stateName":"Donetska oblast","countryId":230,"countryCode":"UA","countryName":"Ukraine","latitude":"46.91562000","longitude":"37.09961000","wikiDataId":"Q6682473"},{"id":110732,"name":"Volnovakha","stateId":4691,"stateCode":"14","stateName":"Donetska oblast","countryId":230,"countryCode":"UA","countryName":"Ukraine","latitude":"47.60103000","longitude":"37.49674000","wikiDataId":"Q3562943"},{"id":110753,"name":"Vuhlehirs’k","stateId":4691,"stateCode":"14","stateName":"Donetska oblast","countryId":230,"countryCode":"UA","countryName":"Ukraine","latitude":"48.31474000","longitude":"38.27423000","wikiDataId":"Q1025478"},{"id":110777,"name":"Yalta","stateId":4691,"stateCode":"14","stateName":"Donetska oblast","countryId":230,"countryCode":"UA","countryName":"Ukraine","latitude":"46.96279000","longitude":"37.27365000","wikiDataId":"Q4537455"},{"id":110790,"name":"Yasynuvata","stateId":4691,"stateCode":"14","stateName":"Donetska oblast","countryId":230,"countryCode":"UA","countryName":"Ukraine","latitude":"48.12980000","longitude":"37.85940000","wikiDataId":"Q1020077"},{"id":110791,"name":"Yasynuvata Raion","stateId":4691,"stateCode":"14","stateName":"Donetska oblast","countryId":230,"countryCode":"UA","countryName":"Ukraine","latitude":"48.16667000","longitude":"37.83333000","wikiDataId":"Q596890"},{"id":110796,"name":"Yenakiyeve","stateId":4691,"stateCode":"14","stateName":"Donetska oblast","countryId":230,"countryCode":"UA","countryName":"Ukraine","latitude":"48.23331000","longitude":"38.21137000","wikiDataId":"Q1686835"},{"id":110867,"name":"Zuhres","stateId":4691,"stateCode":"14","stateName":"Donetska oblast","countryId":230,"countryCode":"UA","countryName":"Ukraine","latitude":"48.01140000","longitude":"38.26444000","wikiDataId":"Q669778"}]