[{"id":142968,"name":"Amajari","stateId":4858,"stateCode":"RR","stateName":"Roraima","countryId":31,"countryCode":"BR","countryName":"Brazil","latitude":"3.65416667","longitude":"-61.41694444","wikiDataId":"Q1646965"},{"id":142969,"name":"Boa Vista","stateId":4858,"stateCode":"RR","stateName":"Roraima","countryId":31,"countryCode":"BR","countryName":"Brazil","latitude":"2.82000000","longitude":"-60.67194444","wikiDataId":"Q181056"},{"id":142970,"name":"Bonfim","stateId":4858,"stateCode":"RR","stateName":"Roraima","countryId":31,"countryCode":"BR","countryName":"Brazil","latitude":"3.36000000","longitude":"-59.83277778","wikiDataId":"Q1763254"},{"id":142971,"name":"Cantá","stateId":4858,"stateCode":"RR","stateName":"Roraima","countryId":31,"countryCode":"BR","countryName":"Brazil","latitude":"2.61000000","longitude":"-60.59694444","wikiDataId":"Q1646914"},{"id":142972,"name":"Caracaraí","stateId":4858,"stateCode":"RR","stateName":"Roraima","countryId":31,"countryCode":"BR","countryName":"Brazil","latitude":"1.81583333","longitude":"-61.12777778","wikiDataId":"Q772563"},{"id":142973,"name":"Caroebe","stateId":4858,"stateCode":"RR","stateName":"Roraima","countryId":31,"countryCode":"BR","countryName":"Brazil","latitude":"0.88388889","longitude":"-59.69583333","wikiDataId":"Q748315"},{"id":142974,"name":"Iracema","stateId":4858,"stateCode":"RR","stateName":"Roraima","countryId":31,"countryCode":"BR","countryName":"Brazil","latitude":"2.18194444","longitude":"-61.04083333","wikiDataId":"Q1786374"},{"id":142975,"name":"Mucajaí","stateId":4858,"stateCode":"RR","stateName":"Roraima","countryId":31,"countryCode":"BR","countryName":"Brazil","latitude":"2.43000000","longitude":"-60.90000000","wikiDataId":"Q1637423"},{"id":142976,"name":"Normandia","stateId":4858,"stateCode":"RR","stateName":"Roraima","countryId":31,"countryCode":"BR","countryName":"Brazil","latitude":"3.88083333","longitude":"-59.62277778","wikiDataId":"Q1750038"},{"id":142977,"name":"Pacaraima","stateId":4858,"stateCode":"RR","stateName":"Roraima","countryId":31,"countryCode":"BR","countryName":"Brazil","latitude":"4.43083333","longitude":"-61.14583333","wikiDataId":"Q1647045"},{"id":142978,"name":"Rorainópolis","stateId":4858,"stateCode":"RR","stateName":"Roraima","countryId":31,"countryCode":"BR","countryName":"Brazil","latitude":"0.94583333","longitude":"-60.41777778","wikiDataId":"Q1646932"},{"id":142979,"name":"São João da Baliza","stateId":4858,"stateCode":"RR","stateName":"Roraima","countryId":31,"countryCode":"BR","countryName":"Brazil","latitude":"0.95083333","longitude":"-59.91083333","wikiDataId":"Q1646960"},{"id":142980,"name":"São Luís","stateId":4858,"stateCode":"RR","stateName":"Roraima","countryId":31,"countryCode":"BR","countryName":"Brazil","latitude":"1.00500000","longitude":"-60.15888889","wikiDataId":"Q1751337"},{"id":142981,"name":"Uiramutã","stateId":4858,"stateCode":"RR","stateName":"Roraima","countryId":31,"countryCode":"BR","countryName":"Brazil","latitude":"4.59583333","longitude":"-60.16777778","wikiDataId":"Q1637434"}]