[{"id":2233,"name":"Açores","countryId":177,"countryCode":"PT","countryName":"Portugal","stateCode":"20","type":null,"latitude":"37.74124880","longitude":"-25.67559440"},{"id":2235,"name":"Aveiro","countryId":177,"countryCode":"PT","countryName":"Portugal","stateCode":"01","type":null,"latitude":"40.72090230","longitude":"-8.57210160"},{"id":2230,"name":"Beja","countryId":177,"countryCode":"PT","countryName":"Portugal","stateCode":"02","type":null,"latitude":"37.96877860","longitude":"-7.87216000"},{"id":2244,"name":"Braga","countryId":177,"countryCode":"PT","countryName":"Portugal","stateCode":"03","type":null,"latitude":"41.55038800","longitude":"-8.42613010"},{"id":2229,"name":"Bragança","countryId":177,"countryCode":"PT","countryName":"Portugal","stateCode":"04","type":null,"latitude":"41.80616520","longitude":"-6.75674270"},{"id":2241,"name":"Castelo Branco","countryId":177,"countryCode":"PT","countryName":"Portugal","stateCode":"05","type":null,"latitude":"39.86313230","longitude":"-7.48141630"},{"id":2246,"name":"Coimbra","countryId":177,"countryCode":"PT","countryName":"Portugal","stateCode":"06","type":null,"latitude":"40.20579940","longitude":"-8.41369000"},{"id":2236,"name":"Évora","countryId":177,"countryCode":"PT","countryName":"Portugal","stateCode":"07","type":null,"latitude":"38.57444680","longitude":"-7.90765530"},{"id":2239,"name":"Faro","countryId":177,"countryCode":"PT","countryName":"Portugal","stateCode":"08","type":null,"latitude":"37.01935480","longitude":"-7.93043970"},{"id":4859,"name":"Guarda","countryId":177,"countryCode":"PT","countryName":"Portugal","stateCode":"09","type":null,"latitude":"40.53859720","longitude":"-7.26757720"},{"id":2240,"name":"Leiria","countryId":177,"countryCode":"PT","countryName":"Portugal","stateCode":"10","type":null,"latitude":"39.77095320","longitude":"-8.79218360"},{"id":2228,"name":"Lisbon","countryId":177,"countryCode":"PT","countryName":"Portugal","stateCode":"11","type":null,"latitude":"38.72232630","longitude":"-9.13927140"},{"id":2231,"name":"Madeira","countryId":177,"countryCode":"PT","countryName":"Portugal","stateCode":"30","type":null,"latitude":"32.76070740","longitude":"-16.95947230"},{"id":2232,"name":"Portalegre","countryId":177,"countryCode":"PT","countryName":"Portugal","stateCode":"12","type":null,"latitude":"39.29670860","longitude":"-7.42847550"},{"id":2243,"name":"Porto","countryId":177,"countryCode":"PT","countryName":"Portugal","stateCode":"13","type":null,"latitude":"41.14766290","longitude":"-8.60789730"},{"id":2238,"name":"Santarém","countryId":177,"countryCode":"PT","countryName":"Portugal","stateCode":"14","type":null,"latitude":"39.23666870","longitude":"-8.68599440"},{"id":2242,"name":"Setúbal","countryId":177,"countryCode":"PT","countryName":"Portugal","stateCode":"15","type":null,"latitude":"38.52409330","longitude":"-8.89258760"},{"id":2245,"name":"Viana do Castelo","countryId":177,"countryCode":"PT","countryName":"Portugal","stateCode":"16","type":null,"latitude":"41.69180460","longitude":"-8.83445100"},{"id":2234,"name":"Vila Real","countryId":177,"countryCode":"PT","countryName":"Portugal","stateCode":"17","type":null,"latitude":"41.30035270","longitude":"-7.74572740"},{"id":2237,"name":"Viseu","countryId":177,"countryCode":"PT","countryName":"Portugal","stateCode":"18","type":null,"latitude":"40.65884240","longitude":"-7.91475600"}]