[{"id":1048,"name":"Bács-Kiskun","countryId":99,"countryCode":"HU","countryName":"Hungary","stateCode":"BK","type":"county","latitude":"46.56614370","longitude":"19.42724640"},{"id":1055,"name":"Baranya","countryId":99,"countryCode":"HU","countryName":"Hungary","stateCode":"BA","type":"county","latitude":"46.04845850","longitude":"18.27191730"},{"id":1060,"name":"Békés","countryId":99,"countryCode":"HU","countryName":"Hungary","stateCode":"BE","type":"county","latitude":"46.67048990","longitude":"21.04349960"},{"id":1036,"name":"Békéscsaba","countryId":99,"countryCode":"HU","countryName":"Hungary","stateCode":"BC","type":"city with county rights","latitude":"46.67359390","longitude":"21.08773090"},{"id":1058,"name":"Borsod-Abaúj-Zemplén","countryId":99,"countryCode":"HU","countryName":"Hungary","stateCode":"BZ","type":"county","latitude":"48.29394010","longitude":"20.69341120"},{"id":1064,"name":"Budapest","countryId":99,"countryCode":"HU","countryName":"Hungary","stateCode":"BU","type":"capital city","latitude":"47.49791200","longitude":"19.04023500"},{"id":1031,"name":"Csongrád County","countryId":99,"countryCode":"HU","countryName":"Hungary","stateCode":"CS","type":"county","latitude":"46.41670500","longitude":"20.25661610"},{"id":1032,"name":"Debrecen","countryId":99,"countryCode":"HU","countryName":"Hungary","stateCode":"DE","type":"city with county rights","latitude":"47.53160490","longitude":"21.62731240"},{"id":1049,"name":"Dunaújváros","countryId":99,"countryCode":"HU","countryName":"Hungary","stateCode":"DU","type":"city with county rights","latitude":"46.96190590","longitude":"18.93552270"},{"id":1037,"name":"Eger","countryId":99,"countryCode":"HU","countryName":"Hungary","stateCode":"EG","type":"city with county rights","latitude":"47.90253480","longitude":"20.37722840"},{"id":1028,"name":"Érd","countryId":99,"countryCode":"HU","countryName":"Hungary","stateCode":"ER","type":"city with county rights","latitude":"47.39197180","longitude":"18.90454400"},{"id":1044,"name":"Fejér County","countryId":99,"countryCode":"HU","countryName":"Hungary","stateCode":"FE","type":"county","latitude":"47.12179320","longitude":"18.52948150"},{"id":1041,"name":"Győr","countryId":99,"countryCode":"HU","countryName":"Hungary","stateCode":"GY","type":"city with county rights","latitude":"47.68745690","longitude":"17.65039740"},{"id":1042,"name":"Győr-Moson-Sopron County","countryId":99,"countryCode":"HU","countryName":"Hungary","stateCode":"GS","type":"county","latitude":"47.65092850","longitude":"17.25058830"},{"id":1063,"name":"Hajdú-Bihar County","countryId":99,"countryCode":"HU","countryName":"Hungary","stateCode":"HB","type":"county","latitude":"47.46883550","longitude":"21.54532270"},{"id":1040,"name":"Heves County","countryId":99,"countryCode":"HU","countryName":"Hungary","stateCode":"HE","type":"county","latitude":"47.80576170","longitude":"20.20385590"},{"id":1027,"name":"Hódmezővásárhely","countryId":99,"countryCode":"HU","countryName":"Hungary","stateCode":"HV","type":"city with county rights","latitude":"46.41812620","longitude":"20.33003150"},{"id":1043,"name":"Jász-Nagykun-Szolnok County","countryId":99,"countryCode":"HU","countryName":"Hungary","stateCode":"JN","type":"county","latitude":"47.25555790","longitude":"20.52324560"},{"id":1067,"name":"Kaposvár","countryId":99,"countryCode":"HU","countryName":"Hungary","stateCode":"KV","type":"city with county rights","latitude":"46.35936060","longitude":"17.79676390"},{"id":1056,"name":"Kecskemét","countryId":99,"countryCode":"HU","countryName":"Hungary","stateCode":"KM","type":"city with county rights","latitude":"46.89637110","longitude":"19.68968610"},{"id":5085,"name":"Komárom-Esztergom","countryId":99,"countryCode":"HU","countryName":"Hungary","stateCode":"KE","type":"county","latitude":"47.57797860","longitude":"18.12568550"},{"id":1065,"name":"Miskolc","countryId":99,"countryCode":"HU","countryName":"Hungary","stateCode":"MI","type":"city with county rights","latitude":"48.10347750","longitude":"20.77843840"},{"id":1030,"name":"Nagykanizsa","countryId":99,"countryCode":"HU","countryName":"Hungary","stateCode":"NK","type":"city with county rights","latitude":"46.45902180","longitude":"16.98967960"},{"id":1051,"name":"Nógrád County","countryId":99,"countryCode":"HU","countryName":"Hungary","stateCode":"NO","type":"county","latitude":"47.90410310","longitude":"19.04985040"},{"id":1034,"name":"Nyíregyháza","countryId":99,"countryCode":"HU","countryName":"Hungary","stateCode":"NY","type":"city with county rights","latitude":"47.94953240","longitude":"21.72440530"},{"id":1053,"name":"Pécs","countryId":99,"countryCode":"HU","countryName":"Hungary","stateCode":"PS","type":"city with county rights","latitude":"46.07273450","longitude":"18.23226600"},{"id":1059,"name":"Pest County","countryId":99,"countryCode":"HU","countryName":"Hungary","stateCode":"PE","type":"county","latitude":"47.44800010","longitude":"19.46181280"},{"id":1068,"name":"Salgótarján","countryId":99,"countryCode":"HU","countryName":"Hungary","stateCode":"ST","type":"city with county rights","latitude":"48.09352370","longitude":"19.79998130"},{"id":1035,"name":"Somogy County","countryId":99,"countryCode":"HU","countryName":"Hungary","stateCode":"SO","type":"county","latitude":"46.55485900","longitude":"17.58667320"},{"id":1057,"name":"Sopron","countryId":99,"countryCode":"HU","countryName":"Hungary","stateCode":"SN","type":"city with county rights","latitude":"47.68166190","longitude":"16.58447950"},{"id":1045,"name":"Szabolcs-Szatmár-Bereg County","countryId":99,"countryCode":"HU","countryName":"Hungary","stateCode":"SZ","type":"county","latitude":"48.03949540","longitude":"22.00333000"},{"id":1029,"name":"Szeged","countryId":99,"countryCode":"HU","countryName":"Hungary","stateCode":"SD","type":"city with county rights","latitude":"46.25301020","longitude":"20.14142530"},{"id":1033,"name":"Székesfehérvár","countryId":99,"countryCode":"HU","countryName":"Hungary","stateCode":"SF","type":"city with county rights","latitude":"47.18602620","longitude":"18.42213580"},{"id":1061,"name":"Szekszárd","countryId":99,"countryCode":"HU","countryName":"Hungary","stateCode":"SS","type":"city with county rights","latitude":"46.34743260","longitude":"18.70622930"},{"id":1047,"name":"Szolnok","countryId":99,"countryCode":"HU","countryName":"Hungary","stateCode":"SK","type":"city with county rights","latitude":"47.16213550","longitude":"20.18247120"},{"id":1052,"name":"Szombathely","countryId":99,"countryCode":"HU","countryName":"Hungary","stateCode":"SH","type":"city with county rights","latitude":"47.23068510","longitude":"16.62184410"},{"id":1066,"name":"Tatabánya","countryId":99,"countryCode":"HU","countryName":"Hungary","stateCode":"TB","type":"city with county rights","latitude":"47.56924600","longitude":"18.40481800"},{"id":1038,"name":"Tolna County","countryId":99,"countryCode":"HU","countryName":"Hungary","stateCode":"TO","type":"county","latitude":"46.47627540","longitude":"18.55706270"},{"id":1039,"name":"Vas County","countryId":99,"countryCode":"HU","countryName":"Hungary","stateCode":"VA","type":"county","latitude":"47.09291110","longitude":"16.68121830"},{"id":1062,"name":"Veszprém","countryId":99,"countryCode":"HU","countryName":"Hungary","stateCode":"VM","type":"city with county rights","latitude":"47.10280870","longitude":"17.90930190"},{"id":1054,"name":"Veszprém County","countryId":99,"countryCode":"HU","countryName":"Hungary","stateCode":"VE","type":"county","latitude":"47.09309740","longitude":"17.91007630"},{"id":1046,"name":"Zala County","countryId":99,"countryCode":"HU","countryName":"Hungary","stateCode":"ZA","type":"county","latitude":"46.73844040","longitude":"16.91522520"},{"id":1050,"name":"Zalaegerszeg","countryId":99,"countryCode":"HU","countryName":"Hungary","stateCode":"ZE","type":"county","latitude":"46.84169360","longitude":"16.84163220"}]