[{"id":97489,"name":"Abramovka","stateId":1906,"stateCode":"VOR","stateName":"Voronezh Oblast","countryId":182,"countryCode":"RU","countryName":"Russia","latitude":"51.18860000","longitude":"41.02020000","wikiDataId":"Q558757"},{"id":97633,"name":"Anna","stateId":1906,"stateCode":"VOR","stateName":"Voronezh Oblast","countryId":182,"countryCode":"RU","countryName":"Russia","latitude":"51.48420000","longitude":"40.42990000","wikiDataId":"Q31883756"},{"id":97637,"name":"Anninskiy Rayon","stateId":1906,"stateCode":"VOR","stateName":"Voronezh Oblast","countryId":182,"countryCode":"RU","countryName":"Russia","latitude":"51.41667000","longitude":"40.25000000","wikiDataId":"Q1650963"},{"id":97855,"name":"Belogor’ye","stateId":1906,"stateCode":"VOR","stateName":"Voronezh Oblast","countryId":182,"countryCode":"RU","countryName":"Russia","latitude":"50.49040000","longitude":"40.00950000","wikiDataId":"Q31913762"},{"id":97955,"name":"Bobrov","stateId":1906,"stateCode":"VOR","stateName":"Voronezh Oblast","countryId":182,"countryCode":"RU","countryName":"Russia","latitude":"51.09611000","longitude":"40.03333000","wikiDataId":"Q105215"},{"id":97959,"name":"Bobrovskiy Rayon","stateId":1906,"stateCode":"VOR","stateName":"Voronezh Oblast","countryId":182,"countryCode":"RU","countryName":"Russia","latitude":"51.25000000","longitude":"40.00000000","wikiDataId":"Q832764"},{"id":97983,"name":"Boguchar","stateId":1906,"stateCode":"VOR","stateName":"Voronezh Oblast","countryId":182,"countryCode":"RU","countryName":"Russia","latitude":"49.93577000","longitude":"40.54500000","wikiDataId":"Q105264"},{"id":98024,"name":"Borisoglebsk","stateId":1906,"stateCode":"VOR","stateName":"Voronezh Oblast","countryId":182,"countryCode":"RU","countryName":"Russia","latitude":"51.36713000","longitude":"42.08494000","wikiDataId":"Q132698"},{"id":98088,"name":"Buturlinovka","stateId":1906,"stateCode":"VOR","stateName":"Voronezh Oblast","countryId":182,"countryCode":"RU","countryName":"Russia","latitude":"50.82389000","longitude":"40.60917000","wikiDataId":"Q132939"},{"id":98089,"name":"Buturlinovskiy Rayon","stateId":1906,"stateCode":"VOR","stateName":"Voronezh Oblast","countryId":182,"countryCode":"RU","countryName":"Russia","latitude":"50.83333000","longitude":"40.66667000","wikiDataId":"Q1651081"},{"id":98251,"name":"Davydovka","stateId":1906,"stateCode":"VOR","stateName":"Voronezh Oblast","countryId":182,"countryCode":"RU","countryName":"Russia","latitude":"51.15781000","longitude":"39.42915000","wikiDataId":"Q34800748"},{"id":98271,"name":"Devitsa","stateId":1906,"stateCode":"VOR","stateName":"Voronezh Oblast","countryId":182,"countryCode":"RU","countryName":"Russia","latitude":"51.63520000","longitude":"38.94500000","wikiDataId":"Q34801616"},{"id":98324,"name":"Drakino","stateId":1906,"stateCode":"VOR","stateName":"Voronezh Oblast","countryId":182,"countryCode":"RU","countryName":"Russia","latitude":"51.13898000","longitude":"39.40215000","wikiDataId":"Q37783800"},{"id":98401,"name":"Ertil’","stateId":1906,"stateCode":"VOR","stateName":"Voronezh Oblast","countryId":182,"countryCode":"RU","countryName":"Russia","latitude":"51.84056000","longitude":"40.80556000","wikiDataId":"Q198753"},{"id":98402,"name":"Ertil’skiy Rayon","stateId":1906,"stateCode":"VOR","stateName":"Voronezh Oblast","countryId":182,"countryCode":"RU","countryName":"Russia","latitude":"51.75000000","longitude":"40.75000000","wikiDataId":"Q4025627"},{"id":98587,"name":"Gribanovskiy","stateId":1906,"stateCode":"VOR","stateName":"Voronezh Oblast","countryId":182,"countryCode":"RU","countryName":"Russia","latitude":"51.45792000","longitude":"41.97637000","wikiDataId":"Q37804943"},{"id":98588,"name":"Gribanovskiy Rayon","stateId":1906,"stateCode":"VOR","stateName":"Voronezh Oblast","countryId":182,"countryCode":"RU","countryName":"Russia","latitude":"51.50000000","longitude":"42.00000000","wikiDataId":"Q264578"},{"id":98664,"name":"Imeni Pervogo Maya","stateId":1906,"stateCode":"VOR","stateName":"Voronezh Oblast","countryId":182,"countryCode":"RU","countryName":"Russia","latitude":"50.88997000","longitude":"39.59190000","wikiDataId":"Q546318"},{"id":98778,"name":"Kalach","stateId":1906,"stateCode":"VOR","stateName":"Voronezh Oblast","countryId":182,"countryCode":"RU","countryName":"Russia","latitude":"50.42580000","longitude":"41.02610000","wikiDataId":"Q143557"},{"id":98810,"name":"Kamenka","stateId":1906,"stateCode":"VOR","stateName":"Voronezh Oblast","countryId":182,"countryCode":"RU","countryName":"Russia","latitude":"51.32230000","longitude":"42.76780000","wikiDataId":"Q19804834"},{"id":98822,"name":"Kamenskiy Rayon","stateId":1906,"stateCode":"VOR","stateName":"Voronezh Oblast","countryId":182,"countryCode":"RU","countryName":"Russia","latitude":"51.31667000","longitude":"42.76667000","wikiDataId":"Q3812685"},{"id":98846,"name":"Kantemirovka","stateId":1906,"stateCode":"VOR","stateName":"Voronezh Oblast","countryId":182,"countryCode":"RU","countryName":"Russia","latitude":"49.70887000","longitude":"39.85922000","wikiDataId":"Q2109878"},{"id":98894,"name":"Kashirskiy Rayon","stateId":1906,"stateCode":"VOR","stateName":"Voronezh Oblast","countryId":182,"countryCode":"RU","countryName":"Russia","latitude":"51.41667000","longitude":"39.61667000","wikiDataId":"Q3814199"},{"id":98895,"name":"Kashirskoye","stateId":1906,"stateCode":"VOR","stateName":"Voronezh Oblast","countryId":182,"countryCode":"RU","countryName":"Russia","latitude":"51.41945000","longitude":"39.61248000","wikiDataId":"Q37824568"},{"id":99014,"name":"Khrenovoye","stateId":1906,"stateCode":"VOR","stateName":"Voronezh Oblast","countryId":182,"countryCode":"RU","countryName":"Russia","latitude":"51.12000000","longitude":"40.28889000","wikiDataId":"Q35695553"},{"id":99139,"name":"Kolodeznyy","stateId":1906,"stateCode":"VOR","stateName":"Voronezh Oblast","countryId":182,"countryCode":"RU","countryName":"Russia","latitude":"51.33333000","longitude":"39.18333000","wikiDataId":"Q37845330"},{"id":99217,"name":"Korotoyak","stateId":1906,"stateCode":"VOR","stateName":"Voronezh Oblast","countryId":182,"countryCode":"RU","countryName":"Russia","latitude":"50.98665000","longitude":"39.17677000","wikiDataId":"Q35699889"},{"id":99267,"name":"Kozlovka","stateId":1906,"stateCode":"VOR","stateName":"Voronezh Oblast","countryId":182,"countryCode":"RU","countryName":"Russia","latitude":"50.86222000","longitude":"40.45556000","wikiDataId":"Q35701313"},{"id":99327,"name":"Krasnolesnyy","stateId":1906,"stateCode":"VOR","stateName":"Voronezh Oblast","countryId":182,"countryCode":"RU","countryName":"Russia","latitude":"51.88072000","longitude":"39.58772000","wikiDataId":"Q35702426"},{"id":99546,"name":"Latnaya","stateId":1906,"stateCode":"VOR","stateName":"Voronezh Oblast","countryId":182,"countryCode":"RU","countryName":"Russia","latitude":"51.65860000","longitude":"38.90110000","wikiDataId":"Q4254994"},{"id":99637,"name":"Liski","stateId":1906,"stateCode":"VOR","stateName":"Voronezh Oblast","countryId":182,"countryCode":"RU","countryName":"Russia","latitude":"50.98405000","longitude":"39.51545000","wikiDataId":"Q157622"},{"id":99638,"name":"Liskinskiy Rayon","stateId":1906,"stateCode":"VOR","stateName":"Voronezh Oblast","countryId":182,"countryCode":"RU","countryName":"Russia","latitude":"50.91667000","longitude":"39.50000000","wikiDataId":"Q1652789"},{"id":99665,"name":"Losevo","stateId":1906,"stateCode":"VOR","stateName":"Voronezh Oblast","countryId":182,"countryCode":"RU","countryName":"Russia","latitude":"50.67667000","longitude":"40.04500000","wikiDataId":"Q35719444"},{"id":99811,"name":"Maslovka","stateId":1906,"stateCode":"VOR","stateName":"Voronezh Oblast","countryId":182,"countryCode":"RU","countryName":"Russia","latitude":"51.55346000","longitude":"39.23573000","wikiDataId":"Q35725898"},{"id":99932,"name":"Mitrofanovka","stateId":1906,"stateCode":"VOR","stateName":"Voronezh Oblast","countryId":182,"countryCode":"RU","countryName":"Russia","latitude":"49.97083000","longitude":"39.69389000","wikiDataId":"Q35730783"},{"id":100151,"name":"Nizhnedevitsk","stateId":1906,"stateCode":"VOR","stateName":"Voronezh Oblast","countryId":182,"countryCode":"RU","countryName":"Russia","latitude":"51.54190000","longitude":"38.36570000","wikiDataId":"Q37896676"},{"id":100152,"name":"Nizhnedevitskiy Rayon","stateId":1906,"stateCode":"VOR","stateName":"Voronezh Oblast","countryId":182,"countryCode":"RU","countryName":"Russia","latitude":"51.50000000","longitude":"38.41667000","wikiDataId":"Q1653589"},{"id":100168,"name":"Nizhniy Kislyay","stateId":1906,"stateCode":"VOR","stateName":"Voronezh Oblast","countryId":182,"countryCode":"RU","countryName":"Russia","latitude":"50.84970000","longitude":"40.17190000","wikiDataId":"Q37896952"},{"id":100172,"name":"Nizhniy Mamon","stateId":1906,"stateCode":"VOR","stateName":"Voronezh Oblast","countryId":182,"countryCode":"RU","countryName":"Russia","latitude":"50.19370000","longitude":"40.50830000","wikiDataId":"Q4319162"},{"id":100202,"name":"Novaya Chigla","stateId":1906,"stateCode":"VOR","stateName":"Voronezh Oblast","countryId":182,"countryCode":"RU","countryName":"Russia","latitude":"51.22333000","longitude":"40.47806000","wikiDataId":"Q18406045"},{"id":100211,"name":"Novaya Usman’","stateId":1906,"stateCode":"VOR","stateName":"Voronezh Oblast","countryId":182,"countryCode":"RU","countryName":"Russia","latitude":"51.64177000","longitude":"39.40863000","wikiDataId":"Q37898171"},{"id":100249,"name":"Novokhopërsk","stateId":1906,"stateCode":"VOR","stateName":"Voronezh Oblast","countryId":182,"countryCode":"RU","countryName":"Russia","latitude":"51.09690000","longitude":"41.62520000","wikiDataId":"Q175407"},{"id":100248,"name":"Novokhoperskiy Rayon","stateId":1906,"stateCode":"VOR","stateName":"Voronezh Oblast","countryId":182,"countryCode":"RU","countryName":"Russia","latitude":"51.08333000","longitude":"41.58333000","wikiDataId":"Q3879092"},{"id":100323,"name":"Novousmanskiy Rayon","stateId":1906,"stateCode":"VOR","stateName":"Voronezh Oblast","countryId":182,"countryCode":"RU","countryName":"Russia","latitude":"51.58333000","longitude":"39.41667000","wikiDataId":"Q1654862"},{"id":100329,"name":"Novovoronezh","stateId":1906,"stateCode":"VOR","stateName":"Voronezh Oblast","countryId":182,"countryCode":"RU","countryName":"Russia","latitude":"51.30719000","longitude":"39.21732000","wikiDataId":"Q173943"},{"id":100336,"name":"Novozhivotinnoye","stateId":1906,"stateCode":"VOR","stateName":"Voronezh Oblast","countryId":182,"countryCode":"RU","countryName":"Russia","latitude":"51.88770000","longitude":"39.16894000","wikiDataId":"Q37898832"},{"id":100437,"name":"Ol’khovatka","stateId":1906,"stateCode":"VOR","stateName":"Voronezh Oblast","countryId":182,"countryCode":"RU","countryName":"Russia","latitude":"50.28308000","longitude":"39.28715000","wikiDataId":"Q37901170"},{"id":100438,"name":"Ol’khovatskiy Rayon","stateId":1906,"stateCode":"VOR","stateName":"Voronezh Oblast","countryId":182,"countryCode":"RU","countryName":"Russia","latitude":"50.25000000","longitude":"39.25000000","wikiDataId":"Q2003555"},{"id":100472,"name":"Orlovo","stateId":1906,"stateCode":"VOR","stateName":"Voronezh Oblast","countryId":182,"countryCode":"RU","countryName":"Russia","latitude":"51.75397000","longitude":"39.58731000","wikiDataId":"Q37903600"},{"id":100495,"name":"Ostrogozhsk","stateId":1906,"stateCode":"VOR","stateName":"Voronezh Oblast","countryId":182,"countryCode":"RU","countryName":"Russia","latitude":"50.86640000","longitude":"39.07561000","wikiDataId":"Q177737"},{"id":100535,"name":"Panino","stateId":1906,"stateCode":"VOR","stateName":"Voronezh Oblast","countryId":182,"countryCode":"RU","countryName":"Russia","latitude":"51.64670000","longitude":"40.13460000","wikiDataId":"Q37959342"},{"id":100536,"name":"Paninskiy Rayon","stateId":1906,"stateCode":"VOR","stateName":"Voronezh Oblast","countryId":182,"countryCode":"RU","countryName":"Russia","latitude":"51.66667000","longitude":"40.16667000","wikiDataId":"Q1884296"},{"id":100572,"name":"Pavlovsk","stateId":1906,"stateCode":"VOR","stateName":"Voronezh Oblast","countryId":182,"countryCode":"RU","countryName":"Russia","latitude":"50.45778000","longitude":"40.10806000","wikiDataId":"Q177867"},{"id":100580,"name":"Pavlovskiy Rayon","stateId":1906,"stateCode":"VOR","stateName":"Voronezh Oblast","countryId":182,"countryCode":"RU","countryName":"Russia","latitude":"50.41667000","longitude":"40.16667000","wikiDataId":"Q3898356"},{"id":100598,"name":"Pereleshino","stateId":1906,"stateCode":"VOR","stateName":"Voronezh Oblast","countryId":182,"countryCode":"RU","countryName":"Russia","latitude":"51.73760000","longitude":"40.13880000","wikiDataId":"Q37959230"},{"id":100599,"name":"Pereleshinskiy","stateId":1906,"stateCode":"VOR","stateName":"Voronezh Oblast","countryId":182,"countryCode":"RU","countryName":"Russia","latitude":"51.71480000","longitude":"40.19530000","wikiDataId":"Q37959228"},{"id":100713,"name":"Podgorenskiy","stateId":1906,"stateCode":"VOR","stateName":"Voronezh Oblast","countryId":182,"countryCode":"RU","countryName":"Russia","latitude":"50.40498000","longitude":"39.64295000","wikiDataId":"Q37959018"},{"id":100714,"name":"Podgorenskiy Rayon","stateId":1906,"stateCode":"VOR","stateName":"Voronezh Oblast","countryId":182,"countryCode":"RU","countryName":"Russia","latitude":"50.50000000","longitude":"39.58333000","wikiDataId":"Q1653945"},{"id":100716,"name":"Podgornoye","stateId":1906,"stateCode":"VOR","stateName":"Voronezh Oblast","countryId":182,"countryCode":"RU","countryName":"Russia","latitude":"51.73504000","longitude":"39.14961000","wikiDataId":"Q37959010"},{"id":100719,"name":"Podkletnoye","stateId":1906,"stateCode":"VOR","stateName":"Voronezh Oblast","countryId":182,"countryCode":"RU","countryName":"Russia","latitude":"51.58993000","longitude":"39.46230000","wikiDataId":"Q37959004"},{"id":100794,"name":"Povorino","stateId":1906,"stateCode":"VOR","stateName":"Voronezh Oblast","countryId":182,"countryCode":"RU","countryName":"Russia","latitude":"51.19450000","longitude":"42.24570000","wikiDataId":"Q179495"},{"id":100795,"name":"Povorinskiy Rayon","stateId":1906,"stateCode":"VOR","stateName":"Voronezh Oblast","countryId":182,"countryCode":"RU","countryName":"Russia","latitude":"51.18333000","longitude":"42.20000000","wikiDataId":"Q1654021"},{"id":100818,"name":"Pridonskoy","stateId":1906,"stateCode":"VOR","stateName":"Voronezh Oblast","countryId":182,"countryCode":"RU","countryName":"Russia","latitude":"51.68406000","longitude":"39.07270000","wikiDataId":"Q37958836"},{"id":100940,"name":"Ramon’","stateId":1906,"stateCode":"VOR","stateName":"Voronezh Oblast","countryId":182,"countryCode":"RU","countryName":"Russia","latitude":"51.91569000","longitude":"39.33609000","wikiDataId":"Q385986"},{"id":100939,"name":"Ramonskiy Rayon","stateId":1906,"stateCode":"VOR","stateName":"Voronezh Oblast","countryId":182,"countryCode":"RU","countryName":"Russia","latitude":"51.91667000","longitude":"39.33333000","wikiDataId":"Q1654556"},{"id":100963,"name":"Rep’yevskiy Rayon","stateId":1906,"stateCode":"VOR","stateName":"Voronezh Oblast","countryId":182,"countryCode":"RU","countryName":"Russia","latitude":"51.16667000","longitude":"38.66667000","wikiDataId":"Q3933139"},{"id":101004,"name":"Rossosh’","stateId":1906,"stateCode":"VOR","stateName":"Voronezh Oblast","countryId":182,"countryCode":"RU","countryName":"Russia","latitude":"51.12090000","longitude":"38.51160000","wikiDataId":"Q37958530"},{"id":101003,"name":"Rossoshanskiy Rayon","stateId":1906,"stateCode":"VOR","stateName":"Voronezh Oblast","countryId":182,"countryCode":"RU","countryName":"Russia","latitude":"50.16667000","longitude":"39.58333000","wikiDataId":"Q1654431"},{"id":101064,"name":"Sadovoye","stateId":1906,"stateCode":"VOR","stateName":"Voronezh Oblast","countryId":182,"countryCode":"RU","countryName":"Russia","latitude":"51.53111000","longitude":"40.50194000","wikiDataId":"Q37958374"},{"id":101165,"name":"Semiluki","stateId":1906,"stateCode":"VOR","stateName":"Voronezh Oblast","countryId":182,"countryCode":"RU","countryName":"Russia","latitude":"51.68525000","longitude":"39.02787000","wikiDataId":"Q105520"},{"id":101166,"name":"Semilukskiy Rayon","stateId":1906,"stateCode":"VOR","stateName":"Voronezh Oblast","countryId":182,"countryCode":"RU","countryName":"Russia","latitude":"51.66667000","longitude":"39.00000000","wikiDataId":"Q1654015"},{"id":101316,"name":"Shilovo","stateId":1906,"stateCode":"VOR","stateName":"Voronezh Oblast","countryId":182,"countryCode":"RU","countryName":"Russia","latitude":"51.54583000","longitude":"39.08917000","wikiDataId":"Q37957738"},{"id":101407,"name":"Sloboda","stateId":1906,"stateCode":"VOR","stateName":"Voronezh Oblast","countryId":182,"countryCode":"RU","countryName":"Russia","latitude":"51.14210000","longitude":"40.30210000","wikiDataId":"Q37957499"},{"id":101475,"name":"Somovo","stateId":1906,"stateCode":"VOR","stateName":"Voronezh Oblast","countryId":182,"countryCode":"RU","countryName":"Russia","latitude":"51.74098000","longitude":"39.36655000","wikiDataId":"Q37957336"},{"id":101546,"name":"Sredniy Ikorets","stateId":1906,"stateCode":"VOR","stateName":"Voronezh Oblast","countryId":182,"countryCode":"RU","countryName":"Russia","latitude":"51.06749000","longitude":"39.75838000","wikiDataId":"Q37957190"},{"id":101625,"name":"Strelitsa","stateId":1906,"stateCode":"VOR","stateName":"Voronezh Oblast","countryId":182,"countryCode":"RU","countryName":"Russia","latitude":"51.60830000","longitude":"38.91020000","wikiDataId":"Q37957017"},{"id":101755,"name":"Talovaya","stateId":1906,"stateCode":"VOR","stateName":"Voronezh Oblast","countryId":182,"countryCode":"RU","countryName":"Russia","latitude":"51.11444000","longitude":"40.73000000","wikiDataId":"Q4450545"},{"id":101834,"name":"Ternovka","stateId":1906,"stateCode":"VOR","stateName":"Voronezh Oblast","countryId":182,"countryCode":"RU","countryName":"Russia","latitude":"51.67803000","longitude":"41.63750000","wikiDataId":"Q37956545"},{"id":101835,"name":"Ternovskiy Rayon","stateId":1906,"stateCode":"VOR","stateName":"Voronezh Oblast","countryId":182,"countryCode":"RU","countryName":"Russia","latitude":"51.66667000","longitude":"41.25000000","wikiDataId":"Q1655750"},{"id":102039,"name":"Uglyanets","stateId":1906,"stateCode":"VOR","stateName":"Voronezh Oblast","countryId":182,"countryCode":"RU","countryName":"Russia","latitude":"51.81908000","longitude":"39.59606000","wikiDataId":"Q37956145"},{"id":102093,"name":"Uryv-Pokrovka","stateId":1906,"stateCode":"VOR","stateName":"Voronezh Oblast","countryId":182,"countryCode":"RU","countryName":"Russia","latitude":"51.11590000","longitude":"39.16394000","wikiDataId":"Q37956000"},{"id":102256,"name":"Verkhniy Mamon","stateId":1906,"stateCode":"VOR","stateName":"Voronezh Oblast","countryId":182,"countryCode":"RU","countryName":"Russia","latitude":"50.16350000","longitude":"40.38320000","wikiDataId":"Q37955459"},{"id":102267,"name":"Verkhnyaya Khava","stateId":1906,"stateCode":"VOR","stateName":"Voronezh Oblast","countryId":182,"countryCode":"RU","countryName":"Russia","latitude":"51.84045000","longitude":"39.94134000","wikiDataId":"Q37955440"},{"id":102273,"name":"Verkhnyaya Tishanka","stateId":1906,"stateCode":"VOR","stateName":"Voronezh Oblast","countryId":182,"countryCode":"RU","countryName":"Russia","latitude":"51.32389000","longitude":"40.53278000","wikiDataId":"Q4108984"},{"id":102368,"name":"Volya","stateId":1906,"stateCode":"VOR","stateName":"Voronezh Oblast","countryId":182,"countryCode":"RU","countryName":"Russia","latitude":"51.76510000","longitude":"39.54040000","wikiDataId":"Q37955149"},{"id":102378,"name":"Vorob’yevskiy Rayon","stateId":1906,"stateCode":"VOR","stateName":"Voronezh Oblast","countryId":182,"countryCode":"RU","countryName":"Russia","latitude":"50.65000000","longitude":"40.93333000","wikiDataId":"Q4016457"},{"id":102380,"name":"Voronezh","stateId":1906,"stateCode":"VOR","stateName":"Voronezh Oblast","countryId":182,"countryCode":"RU","countryName":"Russia","latitude":"51.67204000","longitude":"39.18430000","wikiDataId":"Q3426"},{"id":102381,"name":"Vorontsovka","stateId":1906,"stateCode":"VOR","stateName":"Voronezh Oblast","countryId":182,"countryCode":"RU","countryName":"Russia","latitude":"50.61320000","longitude":"40.35490000","wikiDataId":"Q37955112"},{"id":102535,"name":"Yelan’-Koleno","stateId":1906,"stateCode":"VOR","stateName":"Voronezh Oblast","countryId":182,"countryCode":"RU","countryName":"Russia","latitude":"51.15230000","longitude":"41.23060000","wikiDataId":"Q37963083"},{"id":102536,"name":"Yelan’-Kolenovskiy","stateId":1906,"stateCode":"VOR","stateName":"Voronezh Oblast","countryId":182,"countryCode":"RU","countryName":"Russia","latitude":"51.16320000","longitude":"41.15100000","wikiDataId":"Q37963083"},{"id":102625,"name":"Zabolotovka","stateId":1906,"stateCode":"VOR","stateName":"Voronezh Oblast","countryId":182,"countryCode":"RU","countryName":"Russia","latitude":"50.27799000","longitude":"39.31439000","wikiDataId":"Q33523913"},{"id":102705,"name":"Zemlyansk","stateId":1906,"stateCode":"VOR","stateName":"Voronezh Oblast","countryId":182,"countryCode":"RU","countryName":"Russia","latitude":"51.90410000","longitude":"38.73340000","wikiDataId":"Q2269363"}]