[{"id":80556,"name":"Acolla","stateId":3693,"stateCode":"JUN","stateName":"Junín","countryId":173,"countryCode":"PE","countryName":"Peru","latitude":"-11.73193000","longitude":"-75.54634000","wikiDataId":"Q25247498"},{"id":80591,"name":"Carhuamayo","stateId":3693,"stateCode":"JUN","stateName":"Junín","countryId":173,"countryCode":"PE","countryName":"Peru","latitude":"-10.91667000","longitude":"-76.03333000","wikiDataId":"Q3344236"},{"id":80604,"name":"Chanchamayo","stateId":3693,"stateCode":"JUN","stateName":"Junín","countryId":173,"countryCode":"PE","countryName":"Peru","latitude":"-11.05000000","longitude":"-75.31667000","wikiDataId":"Q765311"},{"id":80625,"name":"Chupaca","stateId":3693,"stateCode":"JUN","stateName":"Junín","countryId":173,"countryCode":"PE","countryName":"Peru","latitude":"-12.06667000","longitude":"-75.28333000","wikiDataId":"Q3344173"},{"id":80630,"name":"Concepción","stateId":3693,"stateCode":"JUN","stateName":"Junín","countryId":173,"countryCode":"PE","countryName":"Peru","latitude":"-11.91762000","longitude":"-75.31401000","wikiDataId":"Q43418"},{"id":80652,"name":"Huancayo","stateId":3693,"stateCode":"JUN","stateName":"Junín","countryId":173,"countryCode":"PE","countryName":"Peru","latitude":"-12.06513000","longitude":"-75.20486000","wikiDataId":"Q468782"},{"id":80659,"name":"Huasahuasi","stateId":3693,"stateCode":"JUN","stateName":"Junín","countryId":173,"countryCode":"PE","countryName":"Peru","latitude":"-11.26527000","longitude":"-75.64722000","wikiDataId":"Q430862"},{"id":80663,"name":"Huayucachi","stateId":3693,"stateCode":"JUN","stateName":"Junín","countryId":173,"countryCode":"PE","countryName":"Peru","latitude":"-12.13333000","longitude":"-75.23333000","wikiDataId":"Q629736"},{"id":80674,"name":"Jauja","stateId":3693,"stateCode":"JUN","stateName":"Junín","countryId":173,"countryCode":"PE","countryName":"Peru","latitude":"-11.77584000","longitude":"-75.49656000","wikiDataId":"Q917434"},{"id":80685,"name":"Junín","stateId":3693,"stateCode":"JUN","stateName":"Junín","countryId":173,"countryCode":"PE","countryName":"Peru","latitude":"-11.15895000","longitude":"-75.99304000","wikiDataId":"Q2640092"},{"id":80688,"name":"La Oroya","stateId":3693,"stateCode":"JUN","stateName":"Junín","countryId":173,"countryCode":"PE","countryName":"Peru","latitude":"-11.51893000","longitude":"-75.89935000","wikiDataId":"Q1759360"},{"id":80713,"name":"Mazamari","stateId":3693,"stateCode":"JUN","stateName":"Junín","countryId":173,"countryCode":"PE","countryName":"Peru","latitude":"-11.32583000","longitude":"-74.53083000","wikiDataId":"Q580017"},{"id":80720,"name":"Morococha","stateId":3693,"stateCode":"JUN","stateName":"Junín","countryId":173,"countryCode":"PE","countryName":"Peru","latitude":"-11.59972000","longitude":"-76.14111000","wikiDataId":"Q766735"},{"id":80734,"name":"Orcotuna","stateId":3693,"stateCode":"JUN","stateName":"Junín","countryId":173,"countryCode":"PE","countryName":"Peru","latitude":"-11.96886000","longitude":"-75.30780000","wikiDataId":"Q916382"},{"id":80758,"name":"Perené","stateId":3693,"stateCode":"JUN","stateName":"Junín","countryId":173,"countryCode":"PE","countryName":"Peru","latitude":"-10.94510000","longitude":"-75.22394000","wikiDataId":"Q2070443"},{"id":80761,"name":"Pilcomay","stateId":3693,"stateCode":"JUN","stateName":"Junín","countryId":173,"countryCode":"PE","countryName":"Peru","latitude":"-12.04722000","longitude":"-75.24931000","wikiDataId":"Q3344087"},{"id":80809,"name":"Provincia de Chupaca","stateId":3693,"stateCode":"JUN","stateName":"Junín","countryId":173,"countryCode":"PE","countryName":"Peru","latitude":"-12.30000000","longitude":"-75.43300000","wikiDataId":"Q1777631"},{"id":80811,"name":"Provincia de Concepción","stateId":3693,"stateCode":"JUN","stateName":"Junín","countryId":173,"countryCode":"PE","countryName":"Peru","latitude":"-11.75000000","longitude":"-75.00000000","wikiDataId":"Q1991124"},{"id":80834,"name":"Provincia de Huancayo","stateId":3693,"stateCode":"JUN","stateName":"Junín","countryId":173,"countryCode":"PE","countryName":"Peru","latitude":"-12.17319000","longitude":"-75.16169000","wikiDataId":"Q1777621"},{"id":80846,"name":"Provincia de Jauja","stateId":3693,"stateCode":"JUN","stateName":"Junín","countryId":173,"countryCode":"PE","countryName":"Peru","latitude":"-11.72600000","longitude":"-75.54700000","wikiDataId":"Q922867"},{"id":80848,"name":"Provincia de Junín","stateId":3693,"stateCode":"JUN","stateName":"Junín","countryId":173,"countryCode":"PE","countryName":"Peru","latitude":"-11.08333000","longitude":"-76.00000000","wikiDataId":"Q644721"},{"id":80893,"name":"Provincia de Satipo","stateId":3693,"stateCode":"JUN","stateName":"Junín","countryId":173,"countryCode":"PE","countryName":"Peru","latitude":"-11.50000000","longitude":"-74.25000000","wikiDataId":"Q1335384"},{"id":80902,"name":"Provincia de Tarma","stateId":3693,"stateCode":"JUN","stateName":"Junín","countryId":173,"countryCode":"PE","countryName":"Peru","latitude":"-11.40562000","longitude":"-75.69129000","wikiDataId":"Q946269"},{"id":80909,"name":"Provincia de Yauli","stateId":3693,"stateCode":"JUN","stateName":"Junín","countryId":173,"countryCode":"PE","countryName":"Peru","latitude":"-11.66667000","longitude":"-76.16667000","wikiDataId":"Q1342828"},{"id":80940,"name":"San Agustin","stateId":3693,"stateCode":"JUN","stateName":"Junín","countryId":173,"countryCode":"PE","countryName":"Peru","latitude":"-11.97195000","longitude":"-75.25562000","wikiDataId":"Q3348291"},{"id":80947,"name":"San Jerónimo","stateId":3693,"stateCode":"JUN","stateName":"Junín","countryId":173,"countryCode":"PE","countryName":"Peru","latitude":"-11.95591000","longitude":"-75.28411000","wikiDataId":"Q11011907"},{"id":80954,"name":"San Pedro de Cajas","stateId":3693,"stateCode":"JUN","stateName":"Junín","countryId":173,"countryCode":"PE","countryName":"Peru","latitude":"-11.25061000","longitude":"-75.86116000","wikiDataId":"Q25400021"},{"id":80956,"name":"San Ramón","stateId":3693,"stateCode":"JUN","stateName":"Junín","countryId":173,"countryCode":"PE","countryName":"Peru","latitude":"-11.12417000","longitude":"-75.35733000","wikiDataId":"Q2219996"},{"id":80970,"name":"Satipo","stateId":3693,"stateCode":"JUN","stateName":"Junín","countryId":173,"countryCode":"PE","countryName":"Peru","latitude":"-11.25222000","longitude":"-74.63861000","wikiDataId":"Q3057885"},{"id":80974,"name":"Sicaya","stateId":3693,"stateCode":"JUN","stateName":"Junín","countryId":173,"countryCode":"PE","countryName":"Peru","latitude":"-12.03333000","longitude":"-75.28333000","wikiDataId":"Q7507402"},{"id":80991,"name":"Tarma","stateId":3693,"stateCode":"JUN","stateName":"Junín","countryId":173,"countryCode":"PE","countryName":"Peru","latitude":"-11.41899000","longitude":"-75.68992000","wikiDataId":"Q1759366"}]