[{"id":79998,"name":"Boca de Parita","stateId":1389,"stateCode":"6","stateName":"Herrera Province","countryId":170,"countryCode":"PA","countryName":"Panama","latitude":"8.00796000","longitude":"-80.45320000","wikiDataId":"Q1956983"},{"id":80015,"name":"Cabuya","stateId":1389,"stateCode":"6","stateName":"Herrera Province","countryId":170,"countryCode":"PA","countryName":"Panama","latitude":"8.03138000","longitude":"-80.63227000","wikiDataId":"Q804144"},{"id":80049,"name":"Cerro Largo","stateId":1389,"stateCode":"6","stateName":"Herrera Province","countryId":170,"countryCode":"PA","countryName":"Panama","latitude":"7.83377000","longitude":"-80.83168000","wikiDataId":"Q804144"},{"id":80064,"name":"Chitré","stateId":1389,"stateCode":"6","stateName":"Herrera Province","countryId":170,"countryCode":"PA","countryName":"Panama","latitude":"7.96082000","longitude":"-80.42944000","wikiDataId":"Q657763"},{"id":80065,"name":"Chumical","stateId":1389,"stateCode":"6","stateName":"Herrera Province","countryId":170,"countryCode":"PA","countryName":"Panama","latitude":"7.84482000","longitude":"-80.72627000","wikiDataId":"Q657763"},{"id":80066,"name":"Chupampa","stateId":1389,"stateCode":"6","stateName":"Herrera Province","countryId":170,"countryCode":"PA","countryName":"Panama","latitude":"8.07620000","longitude":"-80.77656000","wikiDataId":"Q657763"},{"id":80105,"name":"Distrito de Chitré","stateId":1389,"stateCode":"6","stateName":"Herrera Province","countryId":170,"countryCode":"PA","countryName":"Panama","latitude":"7.98333000","longitude":"-80.43333000","wikiDataId":"Q2216071"},{"id":80115,"name":"Distrito de Las Minas","stateId":1389,"stateCode":"6","stateName":"Herrera Province","countryId":170,"countryCode":"PA","countryName":"Panama","latitude":"7.76525000","longitude":"-80.82249000","wikiDataId":"Q2216080"},{"id":80118,"name":"Distrito de Los Pozos","stateId":1389,"stateCode":"6","stateName":"Herrera Province","countryId":170,"countryCode":"PA","countryName":"Panama","latitude":"7.70944000","longitude":"-80.64311000","wikiDataId":"Q2217030"},{"id":80123,"name":"Distrito de Ocú","stateId":1389,"stateCode":"6","stateName":"Herrera Province","countryId":170,"countryCode":"PA","countryName":"Panama","latitude":"7.90641000","longitude":"-80.79752000","wikiDataId":"Q2216607"},{"id":80126,"name":"Distrito de Parita","stateId":1389,"stateCode":"6","stateName":"Herrera Province","countryId":170,"countryCode":"PA","countryName":"Panama","latitude":"8.06240000","longitude":"-80.56373000","wikiDataId":"Q2216637"},{"id":80128,"name":"Distrito de Pesé","stateId":1389,"stateCode":"6","stateName":"Herrera Province","countryId":170,"countryCode":"PA","countryName":"Panama","latitude":"7.88194000","longitude":"-80.63261000","wikiDataId":"Q2217039"},{"id":80141,"name":"Distrito de Santa María","stateId":1389,"stateCode":"6","stateName":"Herrera Province","countryId":170,"countryCode":"PA","countryName":"Panama","latitude":"8.11667000","longitude":"-80.68333000","wikiDataId":"Q3585237"},{"id":80153,"name":"El Calabacito","stateId":1389,"stateCode":"6","stateName":"Herrera Province","countryId":170,"countryCode":"PA","countryName":"Panama","latitude":"7.71843000","longitude":"-80.59757000","wikiDataId":"Q2216393"},{"id":80154,"name":"El Capurí","stateId":1389,"stateCode":"6","stateName":"Herrera Province","countryId":170,"countryCode":"PA","countryName":"Panama","latitude":"7.72571000","longitude":"-80.64349000","wikiDataId":"Q2216393"},{"id":80158,"name":"El Cedro","stateId":1389,"stateCode":"6","stateName":"Herrera Province","countryId":170,"countryCode":"PA","countryName":"Panama","latitude":"7.68565000","longitude":"-80.65927000","wikiDataId":"Q2216393"},{"id":80188,"name":"El Pedregoso","stateId":1389,"stateCode":"6","stateName":"Herrera Province","countryId":170,"countryCode":"PA","countryName":"Panama","latitude":"7.93642000","longitude":"-80.63807000","wikiDataId":"Q2216393"},{"id":80199,"name":"El Rincón","stateId":1389,"stateCode":"6","stateName":"Herrera Province","countryId":170,"countryCode":"PA","countryName":"Panama","latitude":"8.11923000","longitude":"-80.61707000","wikiDataId":"Q1018577"},{"id":80204,"name":"El Toro","stateId":1389,"stateCode":"6","stateName":"Herrera Province","countryId":170,"countryCode":"PA","countryName":"Panama","latitude":"7.75110000","longitude":"-80.86943000","wikiDataId":"Q1018577"},{"id":80241,"name":"La Arena","stateId":1389,"stateCode":"6","stateName":"Herrera Province","countryId":170,"countryCode":"PA","countryName":"Panama","latitude":"7.96766000","longitude":"-80.46523000","wikiDataId":"Q751010"},{"id":80279,"name":"La Trinidad","stateId":1389,"stateCode":"6","stateName":"Herrera Province","countryId":170,"countryCode":"PA","countryName":"Panama","latitude":"7.91457000","longitude":"-80.70332000","wikiDataId":"Q10315061"},{"id":80289,"name":"Las Guabas","stateId":1389,"stateCode":"6","stateName":"Herrera Province","countryId":170,"countryCode":"PA","countryName":"Panama","latitude":"7.90949000","longitude":"-80.80706000","wikiDataId":"Q3916792"},{"id":80300,"name":"Las Minas","stateId":1389,"stateCode":"6","stateName":"Herrera Province","countryId":170,"countryCode":"PA","countryName":"Panama","latitude":"7.79581000","longitude":"-80.74570000","wikiDataId":"Q3916792"},{"id":80309,"name":"Leones Arriba","stateId":1389,"stateCode":"6","stateName":"Herrera Province","countryId":170,"countryCode":"PA","countryName":"Panama","latitude":"7.76590000","longitude":"-80.84515000","wikiDataId":"Q2712890"},{"id":80312,"name":"Limón de Tijeras","stateId":1389,"stateCode":"6","stateName":"Herrera Province","countryId":170,"countryCode":"PA","countryName":"Panama","latitude":"7.81756000","longitude":"-80.91335000","wikiDataId":"Q2712890"},{"id":80314,"name":"Llano Bonito","stateId":1389,"stateCode":"6","stateName":"Herrera Province","countryId":170,"countryCode":"PA","countryName":"Panama","latitude":"7.97637000","longitude":"-80.41646000","wikiDataId":"Q2712890"},{"id":80321,"name":"Llano de La Cruz","stateId":1389,"stateCode":"6","stateName":"Herrera Province","countryId":170,"countryCode":"PA","countryName":"Panama","latitude":"7.95178000","longitude":"-80.64239000","wikiDataId":"Q2712890"},{"id":80315,"name":"Llano Grande","stateId":1389,"stateCode":"6","stateName":"Herrera Province","countryId":170,"countryCode":"PA","countryName":"Panama","latitude":"7.97406000","longitude":"-80.71103000","wikiDataId":"Q2712890"},{"id":80330,"name":"Los Canelos","stateId":1389,"stateCode":"6","stateName":"Herrera Province","countryId":170,"countryCode":"PA","countryName":"Panama","latitude":"8.11722000","longitude":"-80.70769000","wikiDataId":"Q2712890"},{"id":80331,"name":"Los Castillos","stateId":1389,"stateCode":"6","stateName":"Herrera Province","countryId":170,"countryCode":"PA","countryName":"Panama","latitude":"7.98565000","longitude":"-80.61886000","wikiDataId":"Q2712890"},{"id":80333,"name":"Los Cerritos","stateId":1389,"stateCode":"6","stateName":"Herrera Province","countryId":170,"countryCode":"PA","countryName":"Panama","latitude":"7.79746000","longitude":"-80.61071000","wikiDataId":"Q2712890"},{"id":80334,"name":"Los Cerros de Paja","stateId":1389,"stateCode":"6","stateName":"Herrera Province","countryId":170,"countryCode":"PA","countryName":"Panama","latitude":"7.71821000","longitude":"-80.67273000","wikiDataId":"Q2712890"},{"id":80341,"name":"Los Pozos","stateId":1389,"stateCode":"6","stateName":"Herrera Province","countryId":170,"countryCode":"PA","countryName":"Panama","latitude":"7.78300000","longitude":"-80.64524000","wikiDataId":"Q2712890"},{"id":80358,"name":"Monagrillo","stateId":1389,"stateCode":"6","stateName":"Herrera Province","countryId":170,"countryCode":"PA","countryName":"Panama","latitude":"7.98179000","longitude":"-80.43764000","wikiDataId":"Q3711142"},{"id":80382,"name":"Ocú","stateId":1389,"stateCode":"6","stateName":"Herrera Province","countryId":170,"countryCode":"PA","countryName":"Panama","latitude":"7.94052000","longitude":"-80.77936000","wikiDataId":"Q7068690"},{"id":80401,"name":"París","stateId":1389,"stateCode":"6","stateName":"Herrera Province","countryId":170,"countryCode":"PA","countryName":"Panama","latitude":"8.05053000","longitude":"-80.55409000","wikiDataId":"Q3306"},{"id":80398,"name":"Parita","stateId":1389,"stateCode":"6","stateName":"Herrera Province","countryId":170,"countryCode":"PA","countryName":"Panama","latitude":"7.99393000","longitude":"-80.52097000","wikiDataId":"Q3306"},{"id":80410,"name":"Peñas Chatas","stateId":1389,"stateCode":"6","stateName":"Herrera Province","countryId":170,"countryCode":"PA","countryName":"Panama","latitude":"8.01502000","longitude":"-80.80366000","wikiDataId":"Q654169"},{"id":80408,"name":"Pesé","stateId":1389,"stateCode":"6","stateName":"Herrera Province","countryId":170,"countryCode":"PA","countryName":"Panama","latitude":"7.90863000","longitude":"-80.61433000","wikiDataId":"Q654169"},{"id":80413,"name":"Pitaloza Arriba","stateId":1389,"stateCode":"6","stateName":"Herrera Province","countryId":170,"countryCode":"PA","countryName":"Panama","latitude":"7.64216000","longitude":"-80.66788000","wikiDataId":"Q654169"},{"id":80422,"name":"Portobelillo","stateId":1389,"stateCode":"6","stateName":"Herrera Province","countryId":170,"countryCode":"PA","countryName":"Panama","latitude":"8.01738000","longitude":"-80.59538000","wikiDataId":"Q654169"},{"id":80427,"name":"Potuga","stateId":1389,"stateCode":"6","stateName":"Herrera Province","countryId":170,"countryCode":"PA","countryName":"Panama","latitude":"8.06317000","longitude":"-80.62271000","wikiDataId":"Q7235136"},{"id":80448,"name":"Quebrada del Rosario","stateId":1389,"stateCode":"6","stateName":"Herrera Province","countryId":170,"countryCode":"PA","countryName":"Panama","latitude":"7.71238000","longitude":"-80.74222000","wikiDataId":"Q3130855"},{"id":80453,"name":"Rincón Hondo","stateId":1389,"stateCode":"6","stateName":"Herrera Province","countryId":170,"countryCode":"PA","countryName":"Panama","latitude":"7.84436000","longitude":"-80.60397000","wikiDataId":"Q3130855"},{"id":80467,"name":"Sabana Grande","stateId":1389,"stateCode":"6","stateName":"Herrera Province","countryId":170,"countryCode":"PA","countryName":"Panama","latitude":"7.88002000","longitude":"-80.63818000","wikiDataId":"Q7386411"},{"id":80485,"name":"San Juan Bautista","stateId":1389,"stateCode":"6","stateName":"Herrera Province","countryId":170,"countryCode":"PA","countryName":"Panama","latitude":"7.96099000","longitude":"-80.41283000","wikiDataId":"Q7386411"},{"id":80504,"name":"Santa María","stateId":1389,"stateCode":"6","stateName":"Herrera Province","countryId":170,"countryCode":"PA","countryName":"Panama","latitude":"8.11143000","longitude":"-80.66582000","wikiDataId":"Q5620819"}]