[{"id":79706,"name":"Bhadrapur","stateId":2069,"stateCode":"4","stateName":"Eastern Development Region","countryId":154,"countryCode":"NP","countryName":"Nepal","latitude":"26.54404000","longitude":"88.09436000","wikiDataId":"Q1751446"},{"id":79709,"name":"Bhojpur","stateId":2069,"stateCode":"4","stateName":"Eastern Development Region","countryId":154,"countryCode":"NP","countryName":"Nepal","latitude":"27.17150000","longitude":"87.04607000","wikiDataId":"Q2900702"},{"id":79711,"name":"Biratnagar","stateId":2069,"stateCode":"4","stateName":"Eastern Development Region","countryId":154,"countryCode":"NP","countryName":"Nepal","latitude":"26.45505000","longitude":"87.27007000","wikiDataId":"Q8247"},{"id":79720,"name":"Dhankutā","stateId":2069,"stateCode":"4","stateName":"Eastern Development Region","countryId":154,"countryCode":"NP","countryName":"Nepal","latitude":"26.98333000","longitude":"87.33333000","wikiDataId":"Q1530717"},{"id":79721,"name":"Dharān","stateId":2069,"stateCode":"4","stateName":"Eastern Development Region","countryId":154,"countryCode":"NP","countryName":"Nepal","latitude":"26.81436000","longitude":"87.27972000","wikiDataId":"Q8254"},{"id":79730,"name":"Ilām","stateId":2069,"stateCode":"4","stateName":"Eastern Development Region","countryId":154,"countryCode":"NP","countryName":"Nepal","latitude":"26.90943000","longitude":"87.92824000","wikiDataId":"Q950072"},{"id":79731,"name":"Inaruwa","stateId":2069,"stateCode":"4","stateName":"Eastern Development Region","countryId":154,"countryCode":"NP","countryName":"Nepal","latitude":"26.60675000","longitude":"87.14780000","wikiDataId":"Q2465447"},{"id":79736,"name":"Khanbari","stateId":2069,"stateCode":"4","stateName":"Eastern Development Region","countryId":154,"countryCode":"NP","countryName":"Nepal","latitude":"27.37604000","longitude":"87.20767000","wikiDataId":"Q1740554"},{"id":79738,"name":"Lahān","stateId":2069,"stateCode":"4","stateName":"Eastern Development Region","countryId":154,"countryCode":"NP","countryName":"Nepal","latitude":"26.72022000","longitude":"86.48258000","wikiDataId":"Q1748922"},{"id":79739,"name":"Lobujya","stateId":2069,"stateCode":"4","stateName":"Eastern Development Region","countryId":154,"countryCode":"NP","countryName":"Nepal","latitude":"27.95000000","longitude":"86.81667000","wikiDataId":"Q3294611"},{"id":79744,"name":"Namche Bazar","stateId":2069,"stateCode":"4","stateName":"Eastern Development Region","countryId":154,"countryCode":"NP","countryName":"Nepal","latitude":"27.80528000","longitude":"86.71058000","wikiDataId":"Q376123"},{"id":79750,"name":"Rājbirāj","stateId":2069,"stateCode":"4","stateName":"Eastern Development Region","countryId":154,"countryCode":"NP","countryName":"Nepal","latitude":"26.53968000","longitude":"86.74796000","wikiDataId":"Q2463109"},{"id":79753,"name":"Siraha","stateId":2069,"stateCode":"4","stateName":"Eastern Development Region","countryId":154,"countryCode":"NP","countryName":"Nepal","latitude":"26.65422000","longitude":"86.20795000","wikiDataId":"Q1930452"},{"id":79754,"name":"Titahari","stateId":2069,"stateCode":"4","stateName":"Eastern Development Region","countryId":154,"countryCode":"NP","countryName":"Nepal","latitude":"26.66371000","longitude":"87.27403000","wikiDataId":"Q1675026"},{"id":79755,"name":"Triyuga","stateId":2069,"stateCode":"4","stateName":"Eastern Development Region","countryId":154,"countryCode":"NP","countryName":"Nepal","latitude":"26.79190000","longitude":"86.69900000","wikiDataId":"Q1675026"}]