[{"id":3583,"name":"Bahr el Gazel","countryId":43,"countryCode":"TD","countryName":"Chad","stateCode":"BG","type":"province","latitude":"14.77022660","longitude":"16.91225100"},{"id":3590,"name":"Batha","countryId":43,"countryCode":"TD","countryName":"Chad","stateCode":"BA","type":"province","latitude":"13.93717750","longitude":"18.42760470"},{"id":3574,"name":"Borkou","countryId":43,"countryCode":"TD","countryName":"Chad","stateCode":"BO","type":"province","latitude":"17.86888450","longitude":"18.80761950"},{"id":5114,"name":"Chari-Baguirmi","countryId":43,"countryCode":"TD","countryName":"Chad","stateCode":"CB","type":"province","latitude":"11.46186260","longitude":"15.24463940"},{"id":3575,"name":"Ennedi-Est","countryId":43,"countryCode":"TD","countryName":"Chad","stateCode":"EE","type":"province","latitude":"16.34204960","longitude":"23.00119890"},{"id":3584,"name":"Ennedi-Ouest","countryId":43,"countryCode":"TD","countryName":"Chad","stateCode":"EO","type":"province","latitude":"18.97756300","longitude":"21.85685860"},{"id":3576,"name":"Guéra","countryId":43,"countryCode":"TD","countryName":"Chad","stateCode":"GR","type":"province","latitude":"11.12190150","longitude":"18.42760470"},{"id":3573,"name":"Hadjer-Lamis","countryId":43,"countryCode":"TD","countryName":"Chad","stateCode":"HL","type":"province","latitude":"12.45772730","longitude":"16.72346390"},{"id":3588,"name":"Kanem","countryId":43,"countryCode":"TD","countryName":"Chad","stateCode":"KA","type":"province","latitude":"14.87812620","longitude":"15.40680790"},{"id":3577,"name":"Lac","countryId":43,"countryCode":"TD","countryName":"Chad","stateCode":"LC","type":"province","latitude":"13.69153770","longitude":"14.10013260"},{"id":3585,"name":"Logone Occidental","countryId":43,"countryCode":"TD","countryName":"Chad","stateCode":"LO","type":"province","latitude":"8.75967600","longitude":"15.87600400"},{"id":3591,"name":"Logone Oriental","countryId":43,"countryCode":"TD","countryName":"Chad","stateCode":"LR","type":"province","latitude":"8.31499490","longitude":"16.34637910"},{"id":3589,"name":"Mandoul","countryId":43,"countryCode":"TD","countryName":"Chad","stateCode":"MA","type":"province","latitude":"8.60309100","longitude":"17.47951730"},{"id":3580,"name":"Mayo-Kebbi Est","countryId":43,"countryCode":"TD","countryName":"Chad","stateCode":"ME","type":"province","latitude":"9.40460390","longitude":"14.84546190"},{"id":3571,"name":"Mayo-Kebbi Ouest","countryId":43,"countryCode":"TD","countryName":"Chad","stateCode":"MO","type":"province","latitude":"10.41130140","longitude":"15.59433880"},{"id":3570,"name":"Moyen-Chari","countryId":43,"countryCode":"TD","countryName":"Chad","stateCode":"MC","type":"province","latitude":"9.06399980","longitude":"18.42760470"},{"id":3586,"name":"N'Djamena","countryId":43,"countryCode":"TD","countryName":"Chad","stateCode":"ND","type":"province","latitude":"12.13484570","longitude":"15.05574150"},{"id":3582,"name":"Ouaddaï","countryId":43,"countryCode":"TD","countryName":"Chad","stateCode":"OD","type":"province","latitude":"13.74847600","longitude":"20.71224650"},{"id":3592,"name":"Salamat","countryId":43,"countryCode":"TD","countryName":"Chad","stateCode":"SA","type":"province","latitude":"10.96916010","longitude":"20.71224650"},{"id":3572,"name":"Sila","countryId":43,"countryCode":"TD","countryName":"Chad","stateCode":"SI","type":"province","latitude":"12.13074000","longitude":"21.28450250"},{"id":3579,"name":"Tandjilé","countryId":43,"countryCode":"TD","countryName":"Chad","stateCode":"TA","type":"province","latitude":"9.66257290","longitude":"16.72346390"},{"id":3587,"name":"Tibesti","countryId":43,"countryCode":"TD","countryName":"Chad","stateCode":"TI","type":"province","latitude":"21.36500310","longitude":"16.91225100"},{"id":3581,"name":"Wadi Fira","countryId":43,"countryCode":"TD","countryName":"Chad","stateCode":"WF","type":"province","latitude":"15.08924160","longitude":"21.47528510"}]