[{"id":31473,"name":"’Aïn Merane","stateId":1130,"stateCode":"48","stateName":"Relizane","countryId":4,"countryCode":"DZ","countryName":"Algeria","latitude":"36.16277000","longitude":"0.97037000","wikiDataId":"Q2876264"},{"id":31232,"name":"Ammi Moussa","stateId":1130,"stateCode":"48","stateName":"Relizane","countryId":4,"countryCode":"DZ","countryName":"Algeria","latitude":"35.86781000","longitude":"1.11143000","wikiDataId":"Q4747238"},{"id":31319,"name":"Djidiouia","stateId":1130,"stateCode":"48","stateName":"Relizane","countryId":4,"countryCode":"DZ","countryName":"Algeria","latitude":"35.92989000","longitude":"0.82871000","wikiDataId":"Q3032949"},{"id":31376,"name":"Mazouna","stateId":1130,"stateCode":"48","stateName":"Relizane","countryId":4,"countryCode":"DZ","countryName":"Algeria","latitude":"36.12232000","longitude":"0.89865000","wikiDataId":"Q978267"},{"id":31398,"name":"Oued Rhiou","stateId":1130,"stateCode":"48","stateName":"Relizane","countryId":4,"countryCode":"DZ","countryName":"Algeria","latitude":"35.96124000","longitude":"0.91896000","wikiDataId":"Q1571443"},{"id":31409,"name":"Relizane","stateId":1130,"stateCode":"48","stateName":"Relizane","countryId":4,"countryCode":"DZ","countryName":"Algeria","latitude":"35.73734000","longitude":"0.55599000","wikiDataId":"Q402738"},{"id":31435,"name":"Smala","stateId":1130,"stateCode":"48","stateName":"Relizane","countryId":4,"countryCode":"DZ","countryName":"Algeria","latitude":"35.71652000","longitude":"0.75437000","wikiDataId":"Q2292517"},{"id":31464,"name":"Zemoura","stateId":1130,"stateCode":"48","stateName":"Relizane","countryId":4,"countryCode":"DZ","countryName":"Algeria","latitude":"35.72251000","longitude":"0.75509000","wikiDataId":"Q3324824"}]