[{"id":65281,"name":"Changnyeong","stateId":3857,"stateCode":"48","stateName":"South Gyeongsang Province","countryId":116,"countryCode":"KR","countryName":"South Korea","latitude":"35.54145000","longitude":"128.49506000","wikiDataId":"Q50247"},{"id":65282,"name":"Changnyeong-gun","stateId":3857,"stateCode":"48","stateName":"South Gyeongsang Province","countryId":116,"countryCode":"KR","countryName":"South Korea","latitude":"35.50822000","longitude":"128.49020000","wikiDataId":"Q50247"},{"id":65284,"name":"Changwon","stateId":3857,"stateCode":"48","stateName":"South Gyeongsang Province","countryId":116,"countryCode":"KR","countryName":"South Korea","latitude":"35.22806000","longitude":"128.68111000","wikiDataId":"Q243327"},{"id":65285,"name":"Changwon-si","stateId":3857,"stateCode":"48","stateName":"South Gyeongsang Province","countryId":116,"countryCode":"KR","countryName":"South Korea","latitude":"35.27533000","longitude":"128.65152000","wikiDataId":"Q243327"},{"id":65296,"name":"Chinju","stateId":3857,"stateCode":"48","stateName":"South Gyeongsang Province","countryId":116,"countryCode":"KR","countryName":"South Korea","latitude":"35.19278000","longitude":"128.08472000","wikiDataId":"Q42144"},{"id":65328,"name":"Geochang-gun","stateId":3857,"stateCode":"48","stateName":"South Gyeongsang Province","countryId":116,"countryCode":"KR","countryName":"South Korea","latitude":"35.73034000","longitude":"127.90149000","wikiDataId":"Q50203"},{"id":65329,"name":"Geoje-si","stateId":3857,"stateCode":"48","stateName":"South Gyeongsang Province","countryId":116,"countryCode":"KR","countryName":"South Korea","latitude":"34.90000000","longitude":"128.66666000","wikiDataId":"Q50203"},{"id":65337,"name":"Gimhae-si","stateId":3857,"stateCode":"48","stateName":"South Gyeongsang Province","countryId":116,"countryCode":"KR","countryName":"South Korea","latitude":"35.25000000","longitude":"128.86667000","wikiDataId":"Q42082"},{"id":65347,"name":"Goseong","stateId":3857,"stateCode":"48","stateName":"South Gyeongsang Province","countryId":116,"countryCode":"KR","countryName":"South Korea","latitude":"34.97631000","longitude":"128.32361000","wikiDataId":"Q42062"},{"id":65348,"name":"Goseong-gun","stateId":3857,"stateCode":"48","stateName":"South Gyeongsang Province","countryId":116,"countryCode":"KR","countryName":"South Korea","latitude":"35.01478000","longitude":"128.28244000","wikiDataId":"Q50208"},{"id":65372,"name":"Hadong-gun","stateId":3857,"stateCode":"48","stateName":"South Gyeongsang Province","countryId":116,"countryCode":"KR","countryName":"South Korea","latitude":"35.13628000","longitude":"127.77291000","wikiDataId":"Q26212"},{"id":65376,"name":"Haman-gun","stateId":3857,"stateCode":"48","stateName":"South Gyeongsang Province","countryId":116,"countryCode":"KR","countryName":"South Korea","latitude":"35.29117000","longitude":"128.42970000","wikiDataId":"Q50338"},{"id":65380,"name":"Hapcheon-gun","stateId":3857,"stateCode":"48","stateName":"South Gyeongsang Province","countryId":116,"countryCode":"KR","countryName":"South Korea","latitude":"35.57410000","longitude":"128.13841000","wikiDataId":"Q50341"},{"id":65418,"name":"Jinju-si","stateId":3857,"stateCode":"48","stateName":"South Gyeongsang Province","countryId":116,"countryCode":"KR","countryName":"South Korea","latitude":"35.20445000","longitude":"128.12408000","wikiDataId":"Q50325"},{"id":65425,"name":"Kimhae","stateId":3857,"stateCode":"48","stateName":"South Gyeongsang Province","countryId":116,"countryCode":"KR","countryName":"South Korea","latitude":"35.23417000","longitude":"128.88111000","wikiDataId":"Q50444"},{"id":65435,"name":"Kyosai","stateId":3857,"stateCode":"48","stateName":"South Gyeongsang Province","countryId":116,"countryCode":"KR","countryName":"South Korea","latitude":"34.85028000","longitude":"128.58861000","wikiDataId":"Q42057"},{"id":65439,"name":"Miryang","stateId":3857,"stateCode":"48","stateName":"South Gyeongsang Province","countryId":116,"countryCode":"KR","countryName":"South Korea","latitude":"35.49333000","longitude":"128.74889000","wikiDataId":"Q42096"},{"id":65440,"name":"Miryang-si","stateId":3857,"stateCode":"48","stateName":"South Gyeongsang Province","countryId":116,"countryCode":"KR","countryName":"South Korea","latitude":"35.49750000","longitude":"128.78690000","wikiDataId":"Q42096"},{"id":65449,"name":"Naes≈è","stateId":3857,"stateCode":"48","stateName":"South Gyeongsang Province","countryId":116,"countryCode":"KR","countryName":"South Korea","latitude":"35.24972000","longitude":"128.52000000","wikiDataId":"Q42095"},{"id":65454,"name":"Namhae-gun","stateId":3857,"stateCode":"48","stateName":"South Gyeongsang Province","countryId":116,"countryCode":"KR","countryName":"South Korea","latitude":"34.80433000","longitude":"127.92708000","wikiDataId":"Q50364"},{"id":65476,"name":"Sacheon-si","stateId":3857,"stateCode":"48","stateName":"South Gyeongsang Province","countryId":116,"countryCode":"KR","countryName":"South Korea","latitude":"35.00385000","longitude":"128.06857000","wikiDataId":"Q42154"},{"id":65479,"name":"Sancheong-gun","stateId":3857,"stateCode":"48","stateName":"South Gyeongsang Province","countryId":116,"countryCode":"KR","countryName":"South Korea","latitude":"35.36625000","longitude":"127.87065000","wikiDataId":"Q50248"},{"id":65502,"name":"Sinhyeon","stateId":3857,"stateCode":"48","stateName":"South Gyeongsang Province","countryId":116,"countryCode":"KR","countryName":"South Korea","latitude":"34.88250000","longitude":"128.62667000","wikiDataId":"Q50252"},{"id":65521,"name":"Uiryeong-gun","stateId":3857,"stateCode":"48","stateName":"South Gyeongsang Province","countryId":116,"countryCode":"KR","countryName":"South Korea","latitude":"35.39230000","longitude":"128.26917000","wikiDataId":"Q50316"},{"id":65528,"name":"Ungsang","stateId":3857,"stateCode":"48","stateName":"South Gyeongsang Province","countryId":116,"countryCode":"KR","countryName":"South Korea","latitude":"35.40611000","longitude":"129.16861000","wikiDataId":"Q485570"},{"id":65542,"name":"Yangsan","stateId":3857,"stateCode":"48","stateName":"South Gyeongsang Province","countryId":116,"countryCode":"KR","countryName":"South Korea","latitude":"35.34199000","longitude":"129.03358000","wikiDataId":"Q42123"}]