[{"id":79762,"name":"Arijejen","stateId":4656,"stateCode":"01","stateName":"Aiwo District","countryId":153,"countryCode":"NR","countryName":"Nauru","latitude":"-0.52545000","longitude":"166.91247000","wikiDataId":"Q1835785"},{"id":79761,"name":"Anabar","stateId":4658,"stateCode":"02","stateName":"Anabar District","countryId":153,"countryCode":"NR","countryName":"Nauru","latitude":"-0.50845000","longitude":"166.95326000","wikiDataId":"Q1835785"},{"id":79763,"name":"Baiti","stateId":4660,"stateCode":"05","stateName":"Baiti District","countryId":153,"countryCode":"NR","countryName":"Nauru","latitude":"-0.50803000","longitude":"166.92945000","wikiDataId":"Q1835785"},{"id":79764,"name":"Ijuw","stateId":4661,"stateCode":"10","stateName":"Ijuw District","countryId":153,"countryCode":"NR","countryName":"Nauru","latitude":"-0.52100000","longitude":"166.95813000","wikiDataId":"Q1835785"},{"id":79765,"name":"Menen","stateId":4657,"stateCode":"11","stateName":"Meneng District","countryId":153,"countryCode":"NR","countryName":"Nauru","latitude":"-0.54539000","longitude":"166.94871000","wikiDataId":"Q1835785"},{"id":79766,"name":"Uaboe","stateId":4655,"stateCode":"13","stateName":"Uaboe District","countryId":153,"countryCode":"NR","countryName":"Nauru","latitude":"-0.51393000","longitude":"166.92384000","wikiDataId":"Q1835785"},{"id":79767,"name":"Yaren","stateId":4664,"stateCode":"14","stateName":"Yaren District","countryId":153,"countryCode":"NR","countryName":"Nauru","latitude":"-0.55085000","longitude":"166.92520000","wikiDataId":"Q1835785"}]