[{"id":107393,"name":"Bozüyük","stateId":2221,"stateCode":"11","stateName":"Bilecik","countryId":225,"countryCode":"TR","countryName":"Turkey","latitude":"39.90778000","longitude":"30.03667000","wikiDataId":"Q896218"},{"id":107702,"name":"Gölpazarı","stateId":2221,"stateCode":"11","stateName":"Bilecik","countryId":225,"countryCode":"TR","countryName":"Turkey","latitude":"40.28472000","longitude":"30.31722000","wikiDataId":"Q1258883"},{"id":108903,"name":"İnhisar","stateId":2221,"stateCode":"11","stateName":"Bilecik","countryId":225,"countryCode":"TR","countryName":"Turkey","latitude":"40.04932000","longitude":"30.38521000","wikiDataId":"Q343973"},{"id":107356,"name":"Merkez","stateId":2221,"stateCode":"11","stateName":"Bilecik","countryId":225,"countryCode":"TR","countryName":"Turkey","latitude":"40.14192000","longitude":"29.97932000","wikiDataId":"Q208006"},{"id":108291,"name":"Osmaneli","stateId":2221,"stateCode":"11","stateName":"Bilecik","countryId":225,"countryCode":"TR","countryName":"Turkey","latitude":"40.35722000","longitude":"30.01417000","wikiDataId":"Q1014135"},{"id":108329,"name":"Pazaryeri","stateId":2221,"stateCode":"11","stateName":"Bilecik","countryId":225,"countryCode":"TR","countryName":"Turkey","latitude":"39.99395000","longitude":"29.90424000","wikiDataId":"Q2671066"},{"id":108518,"name":"Söğüt","stateId":2221,"stateCode":"11","stateName":"Bilecik","countryId":225,"countryCode":"TR","countryName":"Turkey","latitude":"40.02479000","longitude":"30.17300000","wikiDataId":"Q1004566"},{"id":108705,"name":"Yenipazar","stateId":2221,"stateCode":"11","stateName":"Bilecik","countryId":225,"countryCode":"TR","countryName":"Turkey","latitude":"40.17833000","longitude":"30.52000000","wikiDataId":"Q3056035"}]