[{"id":3327,"name":"Cabo Delgado Province","countryId":150,"countryCode":"MZ","countryName":"Mozambique","stateCode":"P","type":null,"latitude":"-12.33354740","longitude":"39.32062410"},{"id":3329,"name":"Gaza Province","countryId":150,"countryCode":"MZ","countryName":"Mozambique","stateCode":"G","type":null,"latitude":"-23.02219280","longitude":"32.71813750"},{"id":3330,"name":"Inhambane Province","countryId":150,"countryCode":"MZ","countryName":"Mozambique","stateCode":"I","type":null,"latitude":"-22.85279970","longitude":"34.55087580"},{"id":3337,"name":"Manica Province","countryId":150,"countryCode":"MZ","countryName":"Mozambique","stateCode":"B","type":null,"latitude":"-19.50597870","longitude":"33.43835300"},{"id":3335,"name":"Maputo","countryId":150,"countryCode":"MZ","countryName":"Mozambique","stateCode":"MPM","type":null,"latitude":"-25.96924800","longitude":"32.57317460"},{"id":3332,"name":"Maputo Province","countryId":150,"countryCode":"MZ","countryName":"Mozambique","stateCode":"L","type":null,"latitude":"-25.25698760","longitude":"32.53727410"},{"id":3336,"name":"Nampula Province","countryId":150,"countryCode":"MZ","countryName":"Mozambique","stateCode":"N","type":null,"latitude":"-14.76049310","longitude":"39.32062410"},{"id":3333,"name":"Niassa Province","countryId":150,"countryCode":"MZ","countryName":"Mozambique","stateCode":"A","type":null,"latitude":"-12.78262020","longitude":"36.60939260"},{"id":3331,"name":"Sofala Province","countryId":150,"countryCode":"MZ","countryName":"Mozambique","stateCode":"S","type":null,"latitude":"-19.20390730","longitude":"34.86241660"},{"id":3334,"name":"Tete Province","countryId":150,"countryCode":"MZ","countryName":"Mozambique","stateCode":"T","type":null,"latitude":"-15.65960560","longitude":"32.71813750"},{"id":3328,"name":"Zambezia Province","countryId":150,"countryCode":"MZ","countryName":"Mozambique","stateCode":"Q","type":null,"latitude":"-16.56389870","longitude":"36.60939260"}]