[{"id":66600,"name":"Gargždai","stateId":1604,"stateCode":"21","stateName":"Klaipėda District Municipality","countryId":126,"countryCode":"LT","countryName":"Lithuania","latitude":"55.70951000","longitude":"21.39441000","wikiDataId":"Q1390465"},{"id":66620,"name":"Klaipėda","stateId":1604,"stateCode":"21","stateName":"Klaipėda District Municipality","countryId":126,"countryCode":"LT","countryName":"Lithuania","latitude":"55.71667000","longitude":"21.11667000","wikiDataId":"Q776965"},{"id":66622,"name":"Kretinga","stateId":1604,"stateCode":"21","stateName":"Klaipėda District Municipality","countryId":126,"countryCode":"LT","countryName":"Lithuania","latitude":"55.88880000","longitude":"21.24448000","wikiDataId":"Q1788115"},{"id":66644,"name":"Neringa","stateId":1604,"stateCode":"21","stateName":"Klaipėda District Municipality","countryId":126,"countryCode":"LT","countryName":"Lithuania","latitude":"55.36667000","longitude":"21.06667000","wikiDataId":"Q9305847"},{"id":66645,"name":"Nida","stateId":1604,"stateCode":"21","stateName":"Klaipėda District Municipality","countryId":126,"countryCode":"LT","countryName":"Lithuania","latitude":"55.30860000","longitude":"20.99651000","wikiDataId":"Q1004306"},{"id":66650,"name":"Palanga","stateId":1604,"stateCode":"21","stateName":"Klaipėda District Municipality","countryId":126,"countryCode":"LT","countryName":"Lithuania","latitude":"55.91750000","longitude":"21.06861000","wikiDataId":"Q2047414"},{"id":66660,"name":"Priekulė","stateId":1604,"stateCode":"21","stateName":"Klaipėda District Municipality","countryId":126,"countryCode":"LT","countryName":"Lithuania","latitude":"55.55427000","longitude":"21.31903000","wikiDataId":"Q768416"},{"id":66670,"name":"Rusnė","stateId":1604,"stateCode":"21","stateName":"Klaipėda District Municipality","countryId":126,"countryCode":"LT","countryName":"Lithuania","latitude":"55.29820000","longitude":"21.37120000","wikiDataId":"Q712011"},{"id":66673,"name":"Salantai","stateId":1604,"stateCode":"21","stateName":"Klaipėda District Municipality","countryId":126,"countryCode":"LT","countryName":"Lithuania","latitude":"56.05650000","longitude":"21.56890000","wikiDataId":"Q157516"},{"id":66677,"name":"Silute","stateId":1604,"stateCode":"21","stateName":"Klaipėda District Municipality","countryId":126,"countryCode":"LT","countryName":"Lithuania","latitude":"55.34889000","longitude":"21.48306000","wikiDataId":"Q391626"},{"id":66681,"name":"Skuodas","stateId":1604,"stateCode":"21","stateName":"Klaipėda District Municipality","countryId":126,"countryCode":"LT","countryName":"Lithuania","latitude":"56.26667000","longitude":"21.53333000","wikiDataId":"Q5247193"},{"id":66718,"name":"Šventoji","stateId":1604,"stateCode":"21","stateName":"Klaipėda District Municipality","countryId":126,"countryCode":"LT","countryName":"Lithuania","latitude":"56.02610000","longitude":"21.08411000","wikiDataId":"Q1417346"},{"id":66722,"name":"Žemaičių Naumiestis","stateId":1604,"stateCode":"21","stateName":"Klaipėda District Municipality","countryId":126,"countryCode":"LT","countryName":"Lithuania","latitude":"55.35941000","longitude":"21.70364000","wikiDataId":"Q393828"}]