[{"id":31643,"name":"Kuressaare","stateId":3561,"stateCode":"74","stateName":"Saare County","countryId":69,"countryCode":"EE","countryName":"Estonia","latitude":"58.24806000","longitude":"22.50389000","wikiDataId":"Q188179"},{"id":31649,"name":"Liiva","stateId":3561,"stateCode":"74","stateName":"Saare County","countryId":69,"countryCode":"EE","countryName":"Estonia","latitude":"58.60194000","longitude":"23.24694000","wikiDataId":"Q2670409"},{"id":31660,"name":"Muhu vald","stateId":3561,"stateCode":"74","stateName":"Saare County","countryId":69,"countryCode":"EE","countryName":"Estonia","latitude":"58.58486000","longitude":"23.25609000","wikiDataId":"Q634654"},{"id":31670,"name":"Orissaare","stateId":3561,"stateCode":"74","stateName":"Saare County","countryId":69,"countryCode":"EE","countryName":"Estonia","latitude":"58.55917000","longitude":"23.08262000","wikiDataId":"Q3139373"},{"id":31696,"name":"Ruhnu","stateId":3561,"stateCode":"74","stateName":"Saare County","countryId":69,"countryCode":"EE","countryName":"Estonia","latitude":"57.80028000","longitude":"23.24833000","wikiDataId":"Q2006948"},{"id":31697,"name":"Ruhnu vald","stateId":3561,"stateCode":"74","stateName":"Saare County","countryId":69,"countryCode":"EE","countryName":"Estonia","latitude":"57.80309000","longitude":"23.24250000","wikiDataId":"Q604504"},{"id":31723,"name":"Tehumardi","stateId":3561,"stateCode":"74","stateName":"Saare County","countryId":69,"countryCode":"EE","countryName":"Estonia","latitude":"58.18027000","longitude":"22.24646000","wikiDataId":"Q3451173"}]