[{"id":107298,"name":"Baykan","stateId":2207,"stateCode":"56","stateName":"Siirt","countryId":225,"countryCode":"TR","countryName":"Turkey","latitude":"38.15754000","longitude":"41.77330000","wikiDataId":"Q211828"},{"id":107598,"name":"Eruh","stateId":2207,"stateCode":"56","stateName":"Siirt","countryId":225,"countryCode":"TR","countryName":"Turkey","latitude":"37.74183000","longitude":"42.17422000","wikiDataId":"Q16957420"},{"id":108055,"name":"Kurtalan","stateId":2207,"stateCode":"56","stateName":"Siirt","countryId":225,"countryCode":"TR","countryName":"Turkey","latitude":"37.92533000","longitude":"41.68493000","wikiDataId":"Q1792040"},{"id":108457,"name":"Merkez","stateId":2207,"stateCode":"56","stateName":"Siirt","countryId":225,"countryCode":"TR","countryName":"Turkey","latitude":"37.92930000","longitude":"41.94134000","wikiDataId":"Q185084"},{"id":108339,"name":"Pervari","stateId":2207,"stateCode":"56","stateName":"Siirt","countryId":225,"countryCode":"TR","countryName":"Turkey","latitude":"37.93573000","longitude":"42.54927000","wikiDataId":"Q990298"},{"id":108961,"name":"Åžirvan","stateId":2207,"stateCode":"56","stateName":"Siirt","countryId":225,"countryCode":"TR","countryName":"Turkey","latitude":"38.06251000","longitude":"42.02517000","wikiDataId":"Q241631"},{"id":108576,"name":"Tillo","stateId":2207,"stateCode":"56","stateName":"Siirt","countryId":225,"countryCode":"TR","countryName":"Turkey","latitude":"37.94911000","longitude":"42.01210000","wikiDataId":"Q2665536"}]