[{"id":130666,"name":"Ad Dis","stateId":1238,"stateCode":"HD","stateName":"Hadhramaut","countryId":245,"countryCode":"YE","countryName":"Yemen","latitude":"15.09490000","longitude":"50.01590000","wikiDataId":"Q4117698"},{"id":130668,"name":"Ad Dīs ash Sharqīyah","stateId":1238,"stateCode":"HD","stateName":"Hadhramaut","countryId":245,"countryCode":"YE","countryName":"Yemen","latitude":"14.90840000","longitude":"49.94847000","wikiDataId":"Q4678136"},{"id":130670,"name":"Adh Dhlia'ah","stateId":1238,"stateCode":"HD","stateName":"Hadhramaut","countryId":245,"countryCode":"YE","countryName":"Yemen","latitude":"15.01390000","longitude":"47.89720000","wikiDataId":"Q4117682"},{"id":130678,"name":"Al Abr","stateId":1238,"stateCode":"HD","stateName":"Hadhramaut","countryId":245,"countryCode":"YE","countryName":"Yemen","latitude":"15.91370000","longitude":"47.22880000","wikiDataId":"Q4117641"},{"id":130755,"name":"Al Ḩamdī","stateId":1238,"stateCode":"HD","stateName":"Hadhramaut","countryId":245,"countryCode":"YE","countryName":"Yemen","latitude":"15.94727000","longitude":"48.77965000","wikiDataId":"Q20299945"},{"id":130737,"name":"Al Mukalla","stateId":1238,"stateCode":"HD","stateName":"Hadhramaut","countryId":245,"countryCode":"YE","countryName":"Yemen","latitude":"14.72920000","longitude":"48.91990000","wikiDataId":"Q4117614"},{"id":130738,"name":"Al Mukalla City","stateId":1238,"stateCode":"HD","stateName":"Hadhramaut","countryId":245,"countryCode":"YE","countryName":"Yemen","latitude":"14.62033000","longitude":"49.24800000","wikiDataId":"Q4117650"},{"id":130744,"name":"Al Qaf","stateId":1238,"stateCode":"HD","stateName":"Hadhramaut","countryId":245,"countryCode":"YE","countryName":"Yemen","latitude":"17.42870000","longitude":"48.94050000","wikiDataId":"Q4117689"},{"id":130749,"name":"Al Qatn","stateId":1238,"stateCode":"HD","stateName":"Hadhramaut","countryId":245,"countryCode":"YE","countryName":"Yemen","latitude":"15.92320000","longitude":"48.21460000","wikiDataId":"Q4117526"},{"id":130763,"name":"Amd","stateId":1238,"stateCode":"HD","stateName":"Hadhramaut","countryId":245,"countryCode":"YE","countryName":"Yemen","latitude":"15.34860000","longitude":"47.92860000","wikiDataId":"Q4117560"},{"id":130767,"name":"Ar Raydah Wa Qusayar","stateId":1238,"stateCode":"HD","stateName":"Hadhramaut","countryId":245,"countryCode":"YE","countryName":"Yemen","latitude":"15.18410000","longitude":"50.31330000","wikiDataId":"Q4117638"},{"id":130780,"name":"As Sawm","stateId":1238,"stateCode":"HD","stateName":"Hadhramaut","countryId":245,"countryCode":"YE","countryName":"Yemen","latitude":"15.99800000","longitude":"49.66860000","wikiDataId":"Q4117602"},{"id":130793,"name":"Ash Shihr","stateId":1238,"stateCode":"HD","stateName":"Hadhramaut","countryId":245,"countryCode":"YE","countryName":"Yemen","latitude":"14.97230000","longitude":"49.55260000","wikiDataId":"Q4117645"},{"id":130797,"name":"At Taḩāluf","stateId":1238,"stateCode":"HD","stateName":"Hadhramaut","countryId":245,"countryCode":"YE","countryName":"Yemen","latitude":"15.93786000","longitude":"48.78641000","wikiDataId":"Q20304899"},{"id":130827,"name":"Brom Mayfa","stateId":1238,"stateCode":"HD","stateName":"Hadhramaut","countryId":245,"countryCode":"YE","countryName":"Yemen","latitude":"14.34230000","longitude":"48.72810000","wikiDataId":"Q4117805"},{"id":130832,"name":"Daw'an","stateId":1238,"stateCode":"HD","stateName":"Hadhramaut","countryId":245,"countryCode":"YE","countryName":"Yemen","latitude":"15.05070000","longitude":"48.30720000","wikiDataId":"Q4117696"},{"id":130843,"name":"Ghayl Ba Wazir","stateId":1238,"stateCode":"HD","stateName":"Hadhramaut","countryId":245,"countryCode":"YE","countryName":"Yemen","latitude":"14.87780000","longitude":"49.02450000","wikiDataId":"Q4117550"},{"id":130844,"name":"Ghayl Bin Yamin","stateId":1238,"stateCode":"HD","stateName":"Hadhramaut","countryId":245,"countryCode":"YE","countryName":"Yemen","latitude":"15.38960000","longitude":"49.28540000","wikiDataId":"Q4117704"},{"id":130849,"name":"Hagr As Sai'ar","stateId":1238,"stateCode":"HD","stateName":"Hadhramaut","countryId":245,"countryCode":"YE","countryName":"Yemen","latitude":"16.30560000","longitude":"47.95370000","wikiDataId":"Q4117648"},{"id":130851,"name":"Hajr","stateId":1238,"stateCode":"HD","stateName":"Hadhramaut","countryId":245,"countryCode":"YE","countryName":"Yemen","latitude":"14.47080000","longitude":"48.27740000","wikiDataId":"Q4117687"},{"id":130869,"name":"Huraidhah","stateId":1238,"stateCode":"HD","stateName":"Hadhramaut","countryId":245,"countryCode":"YE","countryName":"Yemen","latitude":"15.55425000","longitude":"48.17505000","wikiDataId":"Q4118387"},{"id":130893,"name":"Kilmia","stateId":1238,"stateCode":"HD","stateName":"Hadhramaut","countryId":245,"countryCode":"YE","countryName":"Yemen","latitude":"12.18576000","longitude":"52.23332000","wikiDataId":"Q4117301"},{"id":130929,"name":"Mukalla","stateId":1238,"stateCode":"HD","stateName":"Hadhramaut","countryId":245,"countryCode":"YE","countryName":"Yemen","latitude":"14.54248000","longitude":"49.12424000","wikiDataId":"Q310772"},{"id":130951,"name":"Rakhyah","stateId":1238,"stateCode":"HD","stateName":"Hadhramaut","countryId":245,"countryCode":"YE","countryName":"Yemen","latitude":"15.46180000","longitude":"47.77280000","wikiDataId":"Q4117554"},{"id":130955,"name":"Rumah","stateId":1238,"stateCode":"HD","stateName":"Hadhramaut","countryId":245,"countryCode":"YE","countryName":"Yemen","latitude":"17.81450000","longitude":"51.07590000","wikiDataId":"Q4117633"},{"id":130961,"name":"Sah","stateId":1238,"stateCode":"HD","stateName":"Hadhramaut","countryId":245,"countryCode":"YE","countryName":"Yemen","latitude":"15.53420000","longitude":"48.89550000","wikiDataId":"Q4117543"},{"id":130969,"name":"Sayun","stateId":1238,"stateCode":"HD","stateName":"Hadhramaut","countryId":245,"countryCode":"YE","countryName":"Yemen","latitude":"15.98310000","longitude":"48.83150000","wikiDataId":"Q4117557"},{"id":130979,"name":"Shibam","stateId":1238,"stateCode":"HD","stateName":"Hadhramaut","countryId":245,"countryCode":"YE","countryName":"Yemen","latitude":"15.87030000","longitude":"48.65340000","wikiDataId":"Q4117552"},{"id":130984,"name":"Suḩayl Shibām","stateId":1238,"stateCode":"HD","stateName":"Hadhramaut","countryId":245,"countryCode":"YE","countryName":"Yemen","latitude":"15.91448000","longitude":"48.63864000","wikiDataId":"Q20308824"},{"id":130986,"name":"Tarim","stateId":1238,"stateCode":"HD","stateName":"Hadhramaut","countryId":245,"countryCode":"YE","countryName":"Yemen","latitude":"16.06600000","longitude":"49.02290000","wikiDataId":"Q4117824"},{"id":130989,"name":"Thamud","stateId":1238,"stateCode":"HD","stateName":"Hadhramaut","countryId":245,"countryCode":"YE","countryName":"Yemen","latitude":"17.60310000","longitude":"49.73610000","wikiDataId":"Q4117622"},{"id":130997,"name":"Wadi Al Ayn","stateId":1238,"stateCode":"HD","stateName":"Hadhramaut","countryId":245,"countryCode":"YE","countryName":"Yemen","latitude":"15.74033000","longitude":"48.14747000","wikiDataId":"Q4117652"},{"id":131002,"name":"Yabuth","stateId":1238,"stateCode":"HD","stateName":"Hadhramaut","countryId":245,"countryCode":"YE","countryName":"Yemen","latitude":"14.71820000","longitude":"47.73580000","wikiDataId":"Q4117608"},{"id":131007,"name":"Zamakh wa Manwakh","stateId":1238,"stateCode":"HD","stateName":"Hadhramaut","countryId":245,"countryCode":"YE","countryName":"Yemen","latitude":"17.20320000","longitude":"47.70330000","wikiDataId":"Q4117646"}]