[{"id":458,"name":"Balzers","countryId":125,"countryCode":"LI","countryName":"Liechtenstein","stateCode":"01","type":null,"latitude":"42.05283570","longitude":"-88.03668480"},{"id":451,"name":"Eschen","countryId":125,"countryCode":"LI","countryName":"Liechtenstein","stateCode":"02","type":null,"latitude":"40.76695740","longitude":"-73.95228210"},{"id":457,"name":"Gamprin","countryId":125,"countryCode":"LI","countryName":"Liechtenstein","stateCode":"03","type":null,"latitude":"47.21324900","longitude":"9.50251950"},{"id":455,"name":"Mauren","countryId":125,"countryCode":"LI","countryName":"Liechtenstein","stateCode":"04","type":null,"latitude":"47.21892850","longitude":"9.54173500"},{"id":454,"name":"Planken","countryId":125,"countryCode":"LI","countryName":"Liechtenstein","stateCode":"05","type":null,"latitude":"40.66505760","longitude":"-73.50479800"},{"id":453,"name":"Ruggell","countryId":125,"countryCode":"LI","countryName":"Liechtenstein","stateCode":"06","type":null,"latitude":"47.25292220","longitude":"9.54021270"},{"id":450,"name":"Schaan","countryId":125,"countryCode":"LI","countryName":"Liechtenstein","stateCode":"07","type":null,"latitude":"47.12043400","longitude":"9.59416020"},{"id":449,"name":"Schellenberg","countryId":125,"countryCode":"LI","countryName":"Liechtenstein","stateCode":"08","type":null,"latitude":"47.23096600","longitude":"9.54678430"},{"id":459,"name":"Triesen","countryId":125,"countryCode":"LI","countryName":"Liechtenstein","stateCode":"09","type":null,"latitude":"47.10979880","longitude":"9.52482960"},{"id":456,"name":"Triesenberg","countryId":125,"countryCode":"LI","countryName":"Liechtenstein","stateCode":"10","type":null,"latitude":"47.12245110","longitude":"9.57019850"},{"id":452,"name":"Vaduz","countryId":125,"countryCode":"LI","countryName":"Liechtenstein","stateCode":"11","type":null,"latitude":"47.14103030","longitude":"9.52092770"}]