[{"id":64946,"name":"Kampong Speu","stateId":3988,"stateCode":"5","stateName":"Kampong Speu","countryId":37,"countryCode":"KH","countryName":"Cambodia","latitude":"11.45332000","longitude":"104.52085000","wikiDataId":"Q2344811"},{"id":64962,"name":"Krŏng Chbar Mon","stateId":3988,"stateCode":"5","stateName":"Kampong Speu","countryId":37,"countryCode":"KH","countryName":"Cambodia","latitude":"11.47091000","longitude":"104.50655000","wikiDataId":"Q5088735"},{"id":64989,"name":"Srŏk Basedth","stateId":3988,"stateCode":"5","stateName":"Kampong Speu","countryId":37,"countryCode":"KH","countryName":"Cambodia","latitude":"11.18432000","longitude":"104.53584000","wikiDataId":"Q4866644"},{"id":65008,"name":"Srŏk Kông Pĭsei","stateId":3988,"stateCode":"5","stateName":"Kampong Speu","countryId":37,"countryCode":"KH","countryName":"Cambodia","latitude":"11.31648000","longitude":"104.65992000","wikiDataId":"Q4929012"},{"id":65032,"name":"Srŏk Ŏdŏngk","stateId":3988,"stateCode":"5","stateName":"Kampong Speu","countryId":37,"countryCode":"KH","countryName":"Cambodia","latitude":"11.66845000","longitude":"104.61224000","wikiDataId":"Q4929250"}]