[{"id":81135,"name":"Abucay","stateId":1345,"stateCode":"03","stateName":"Central Luzon","countryId":174,"countryCode":"PH","countryName":"Philippines","latitude":"14.73347000","longitude":"120.53358000","wikiDataId":"Q54455"},{"id":81144,"name":"Acli","stateId":1345,"stateCode":"03","stateName":"Central Luzon","countryId":174,"countryCode":"PH","countryName":"Philippines","latitude":"15.12279000","longitude":"120.64470000","wikiDataId":"Q31461479"},{"id":81155,"name":"Agbannawag","stateId":1345,"stateCode":"03","stateName":"Central Luzon","countryId":174,"countryCode":"PH","countryName":"Philippines","latitude":"15.67920000","longitude":"121.08330000","wikiDataId":"Q31462071"},{"id":81175,"name":"Akle","stateId":1345,"stateCode":"03","stateName":"Central Luzon","countryId":174,"countryCode":"PH","countryName":"Philippines","latitude":"15.04820000","longitude":"121.07330000","wikiDataId":"Q31462738"},{"id":81207,"name":"Aliaga","stateId":1345,"stateCode":"03","stateName":"Central Luzon","countryId":174,"countryCode":"PH","countryName":"Philippines","latitude":"15.50000000","longitude":"120.84300000","wikiDataId":"Q55543"},{"id":81227,"name":"Almendras","stateId":1345,"stateCode":"03","stateName":"Central Luzon","countryId":174,"countryCode":"PH","countryName":"Philippines","latitude":"15.27576000","longitude":"120.69873000","wikiDataId":"Q31464719"},{"id":81233,"name":"Alua","stateId":1345,"stateCode":"03","stateName":"Central Luzon","countryId":174,"countryCode":"PH","countryName":"Philippines","latitude":"15.31154000","longitude":"120.89433000","wikiDataId":"Q31465032"},{"id":81238,"name":"Amacalan","stateId":1345,"stateCode":"03","stateName":"Central Luzon","countryId":174,"countryCode":"PH","countryName":"Philippines","latitude":"15.58150000","longitude":"120.61120000","wikiDataId":"Q31465168"},{"id":81251,"name":"Amucao","stateId":1345,"stateCode":"03","stateName":"Central Luzon","countryId":174,"countryCode":"PH","countryName":"Philippines","latitude":"15.46405000","longitude":"120.68643000","wikiDataId":"Q31465766"},{"id":81253,"name":"Amuñgan","stateId":1345,"stateCode":"03","stateName":"Central Luzon","countryId":174,"countryCode":"PH","countryName":"Philippines","latitude":"15.36520000","longitude":"119.95820000","wikiDataId":"Q31465795"},{"id":81257,"name":"Anao","stateId":1345,"stateCode":"03","stateName":"Central Luzon","countryId":174,"countryCode":"PH","countryName":"Philippines","latitude":"15.14150000","longitude":"120.69136000","wikiDataId":"Q31465980"},{"id":81266,"name":"Angat","stateId":1345,"stateCode":"03","stateName":"Central Luzon","countryId":174,"countryCode":"PH","countryName":"Philippines","latitude":"14.79278000","longitude":"120.87889000","wikiDataId":"Q54558"},{"id":81268,"name":"Angeles City","stateId":1345,"stateCode":"03","stateName":"Central Luzon","countryId":174,"countryCode":"PH","countryName":"Philippines","latitude":"15.15000000","longitude":"120.58333000","wikiDataId":"Q31466551"},{"id":81282,"name":"Antipolo","stateId":1345,"stateCode":"03","stateName":"Central Luzon","countryId":174,"countryCode":"PH","countryName":"Philippines","latitude":"15.61810000","longitude":"121.19000000","wikiDataId":"Q31467301"},{"id":81291,"name":"Apalit","stateId":1345,"stateCode":"03","stateName":"Central Luzon","countryId":174,"countryCode":"PH","countryName":"Philippines","latitude":"14.95333000","longitude":"120.77000000","wikiDataId":"Q55693"},{"id":81309,"name":"Arayat","stateId":1345,"stateCode":"03","stateName":"Central Luzon","countryId":174,"countryCode":"PH","countryName":"Philippines","latitude":"15.15050000","longitude":"120.76970000","wikiDataId":"Q55694"},{"id":81311,"name":"Arenas","stateId":1345,"stateCode":"03","stateName":"Central Luzon","countryId":174,"countryCode":"PH","countryName":"Philippines","latitude":"15.17042000","longitude":"120.68571000","wikiDataId":"Q31468478"},{"id":81316,"name":"Arminia","stateId":1345,"stateCode":"03","stateName":"Central Luzon","countryId":174,"countryCode":"PH","countryName":"Philippines","latitude":"15.43563000","longitude":"120.56379000","wikiDataId":"Q31468884"},{"id":81349,"name":"Babo-Pangulo","stateId":1345,"stateCode":"03","stateName":"Central Luzon","countryId":174,"countryCode":"PH","countryName":"Philippines","latitude":"15.08333000","longitude":"120.51667000","wikiDataId":"Q212907"},{"id":81351,"name":"Bacabac","stateId":1345,"stateCode":"03","stateName":"Central Luzon","countryId":174,"countryCode":"PH","countryName":"Philippines","latitude":"15.72477000","longitude":"120.42816000","wikiDataId":"Q31472713"},{"id":81367,"name":"Bacolor","stateId":1345,"stateCode":"03","stateName":"Central Luzon","countryId":174,"countryCode":"PH","countryName":"Philippines","latitude":"15.00030000","longitude":"120.65200000","wikiDataId":"Q55696"},{"id":81371,"name":"Bacsay","stateId":1345,"stateCode":"03","stateName":"Central Luzon","countryId":174,"countryCode":"PH","countryName":"Philippines","latitude":"15.62063000","longitude":"120.34341000","wikiDataId":"Q31473913"},{"id":81385,"name":"Bagac","stateId":1345,"stateCode":"03","stateName":"Central Luzon","countryId":174,"countryCode":"PH","countryName":"Philippines","latitude":"14.59620000","longitude":"120.39280000","wikiDataId":"Q54456"},{"id":81398,"name":"Bagong Barrio","stateId":1345,"stateCode":"03","stateName":"Central Luzon","countryId":174,"countryCode":"PH","countryName":"Philippines","latitude":"14.88993000","longitude":"120.94095000","wikiDataId":"Q31475521"},{"id":81402,"name":"Bagong-Sikat","stateId":1345,"stateCode":"03","stateName":"Central Luzon","countryId":174,"countryCode":"PH","countryName":"Philippines","latitude":"15.48010000","longitude":"121.30730000","wikiDataId":"Q31475648"},{"id":81417,"name":"Bahay Pare","stateId":1345,"stateCode":"03","stateName":"Central Luzon","countryId":174,"countryCode":"PH","countryName":"Philippines","latitude":"15.03238000","longitude":"120.88083000","wikiDataId":"Q31476263"},{"id":81425,"name":"Bakulong","stateId":1345,"stateCode":"03","stateName":"Central Luzon","countryId":174,"countryCode":"PH","countryName":"Philippines","latitude":"15.53790000","longitude":"120.63850000","wikiDataId":"Q31477373"},{"id":81434,"name":"Balagtas","stateId":1345,"stateCode":"03","stateName":"Central Luzon","countryId":174,"countryCode":"PH","countryName":"Philippines","latitude":"14.81667000","longitude":"120.86667000","wikiDataId":"Q54553"},{"id":81441,"name":"Balanga","stateId":1345,"stateCode":"03","stateName":"Central Luzon","countryId":174,"countryCode":"PH","countryName":"Philippines","latitude":"14.67611000","longitude":"120.53611000","wikiDataId":"Q1719"},{"id":81447,"name":"Balaoang","stateId":1345,"stateCode":"03","stateName":"Central Luzon","countryId":174,"countryCode":"PH","countryName":"Philippines","latitude":"15.66330000","longitude":"120.51470000","wikiDataId":"Q31478463"},{"id":81450,"name":"Balas","stateId":1345,"stateCode":"03","stateName":"Central Luzon","countryId":174,"countryCode":"PH","countryName":"Philippines","latitude":"15.04998000","longitude":"120.58611000","wikiDataId":"Q31478546"},{"id":81452,"name":"Balasing","stateId":1345,"stateCode":"03","stateName":"Central Luzon","countryId":174,"countryCode":"PH","countryName":"Philippines","latitude":"14.85450000","longitude":"121.01270000","wikiDataId":"Q31478625"},{"id":81456,"name":"Balayang","stateId":1345,"stateCode":"03","stateName":"Central Luzon","countryId":174,"countryCode":"PH","countryName":"Philippines","latitude":"15.54950000","longitude":"120.69430000","wikiDataId":"Q31478867"},{"id":81461,"name":"Baler","stateId":1345,"stateCode":"03","stateName":"Central Luzon","countryId":174,"countryCode":"PH","countryName":"Philippines","latitude":"15.75890000","longitude":"121.56070000","wikiDataId":"Q53081"},{"id":81466,"name":"Balibago","stateId":1345,"stateCode":"03","stateName":"Central Luzon","countryId":174,"countryCode":"PH","countryName":"Philippines","latitude":"15.16240000","longitude":"120.59540000","wikiDataId":"Q31480155"},{"id":81477,"name":"Balingcanaway","stateId":1345,"stateCode":"03","stateName":"Central Luzon","countryId":174,"countryCode":"PH","countryName":"Philippines","latitude":"15.48215000","longitude":"120.68543000","wikiDataId":"Q31480806"},{"id":81481,"name":"Balite","stateId":1345,"stateCode":"03","stateName":"Central Luzon","countryId":174,"countryCode":"PH","countryName":"Philippines","latitude":"15.64451000","longitude":"120.64196000","wikiDataId":"Q31481020"},{"id":81485,"name":"Baliuag","stateId":1345,"stateCode":"03","stateName":"Central Luzon","countryId":174,"countryCode":"PH","countryName":"Philippines","latitude":"14.95472000","longitude":"120.89694000","wikiDataId":"Q31481082"},{"id":81490,"name":"Baloc","stateId":1345,"stateCode":"03","stateName":"Central Luzon","countryId":174,"countryCode":"PH","countryName":"Philippines","latitude":"15.64350000","longitude":"120.88520000","wikiDataId":"Q31481461"},{"id":81497,"name":"Baloy","stateId":1345,"stateCode":"03","stateName":"Central Luzon","countryId":174,"countryCode":"PH","countryName":"Philippines","latitude":"15.80530000","longitude":"120.77420000","wikiDataId":"Q31481719"},{"id":81498,"name":"Balsic","stateId":1345,"stateCode":"03","stateName":"Central Luzon","countryId":174,"countryCode":"PH","countryName":"Philippines","latitude":"14.85906000","longitude":"120.48240000","wikiDataId":"Q31481739"},{"id":81500,"name":"Balucuc","stateId":1345,"stateCode":"03","stateName":"Central Luzon","countryId":174,"countryCode":"PH","countryName":"Philippines","latitude":"14.95282000","longitude":"120.81452000","wikiDataId":"Q31482011"},{"id":81506,"name":"Balut","stateId":1345,"stateCode":"03","stateName":"Central Luzon","countryId":174,"countryCode":"PH","countryName":"Philippines","latitude":"14.68333000","longitude":"120.55000000","wikiDataId":"Q31482330"},{"id":81508,"name":"Balutu","stateId":1345,"stateCode":"03","stateName":"Central Luzon","countryId":174,"countryCode":"PH","countryName":"Philippines","latitude":"15.29875000","longitude":"120.69226000","wikiDataId":"Q31482432"},{"id":81510,"name":"Bamban","stateId":1345,"stateCode":"03","stateName":"Central Luzon","countryId":174,"countryCode":"PH","countryName":"Philippines","latitude":"15.67470000","longitude":"120.33150000","wikiDataId":"Q56420"},{"id":81517,"name":"Banawang","stateId":1345,"stateCode":"03","stateName":"Central Luzon","countryId":174,"countryCode":"PH","countryName":"Philippines","latitude":"14.61210000","longitude":"120.39000000","wikiDataId":"Q31796280"},{"id":81523,"name":"Bangad","stateId":1345,"stateCode":"03","stateName":"Central Luzon","countryId":174,"countryCode":"PH","countryName":"Philippines","latitude":"15.50190000","longitude":"121.02750000","wikiDataId":"Q31796311"},{"id":81537,"name":"Bani","stateId":1345,"stateCode":"03","stateName":"Central Luzon","countryId":174,"countryCode":"PH","countryName":"Philippines","latitude":"15.58230000","longitude":"119.93350000","wikiDataId":"Q31483864"},{"id":81562,"name":"Baquero Norte","stateId":1345,"stateCode":"03","stateName":"Central Luzon","countryId":174,"countryCode":"PH","countryName":"Philippines","latitude":"15.71620000","longitude":"120.55430000","wikiDataId":"Q31485626"},{"id":81621,"name":"Batasan Bata","stateId":1345,"stateCode":"03","stateName":"Central Luzon","countryId":174,"countryCode":"PH","countryName":"Philippines","latitude":"15.14442000","longitude":"120.94077000","wikiDataId":"Q31490193"},{"id":81624,"name":"Batitang","stateId":1345,"stateCode":"03","stateName":"Central Luzon","countryId":174,"countryCode":"PH","countryName":"Philippines","latitude":"15.40040000","longitude":"120.80276000","wikiDataId":"Q31490411"},{"id":81655,"name":"Bayanan","stateId":1345,"stateCode":"03","stateName":"Central Luzon","countryId":174,"countryCode":"PH","countryName":"Philippines","latitude":"13.35920000","longitude":"121.16990000","wikiDataId":"Q31492266"},{"id":81674,"name":"Beddeng","stateId":1345,"stateCode":"03","stateName":"Central Luzon","countryId":174,"countryCode":"PH","countryName":"Philippines","latitude":"14.97728000","longitude":"120.08493000","wikiDataId":"Q31494497"},{"id":81686,"name":"Biay","stateId":1345,"stateCode":"03","stateName":"Central Luzon","countryId":174,"countryCode":"PH","countryName":"Philippines","latitude":"15.74020000","longitude":"119.90670000","wikiDataId":"Q31498310"},{"id":81687,"name":"Bibiclat","stateId":1345,"stateCode":"03","stateName":"Central Luzon","countryId":174,"countryCode":"PH","countryName":"Philippines","latitude":"15.52186000","longitude":"120.86235000","wikiDataId":"Q31498375"},{"id":81689,"name":"Bicos","stateId":1345,"stateCode":"03","stateName":"Central Luzon","countryId":174,"countryCode":"PH","countryName":"Philippines","latitude":"15.66020000","longitude":"121.04140000","wikiDataId":"Q31498644"},{"id":81692,"name":"Biga","stateId":1345,"stateCode":"03","stateName":"Central Luzon","countryId":174,"countryCode":"PH","countryName":"Philippines","latitude":"13.31060000","longitude":"121.16100000","wikiDataId":"Q31500716"},{"id":81699,"name":"Bilad","stateId":1345,"stateCode":"03","stateName":"Central Luzon","countryId":174,"countryCode":"PH","countryName":"Philippines","latitude":"15.73676000","longitude":"120.43321000","wikiDataId":"Q31501008"},{"id":81747,"name":"Bituñgol","stateId":1345,"stateCode":"03","stateName":"Central Luzon","countryId":174,"countryCode":"PH","countryName":"Philippines","latitude":"14.88333000","longitude":"121.03333000","wikiDataId":"Q31504138"},{"id":81755,"name":"Bobon Second","stateId":1345,"stateCode":"03","stateName":"Central Luzon","countryId":174,"countryCode":"PH","countryName":"Philippines","latitude":"15.65653000","longitude":"120.38119000","wikiDataId":"Q31507371"},{"id":81758,"name":"Bocaue","stateId":1345,"stateCode":"03","stateName":"Central Luzon","countryId":174,"countryCode":"PH","countryName":"Philippines","latitude":"14.79833000","longitude":"120.92611000","wikiDataId":"Q54555"},{"id":81760,"name":"Bodega","stateId":1345,"stateCode":"03","stateName":"Central Luzon","countryId":174,"countryCode":"PH","countryName":"Philippines","latitude":"14.92290000","longitude":"120.47982000","wikiDataId":"Q31507673"},{"id":81773,"name":"Bolitoc","stateId":1345,"stateCode":"03","stateName":"Central Luzon","countryId":174,"countryCode":"PH","countryName":"Philippines","latitude":"15.73950000","longitude":"119.87690000","wikiDataId":"Q31508621"},{"id":81788,"name":"Bongabon","stateId":1345,"stateCode":"03","stateName":"Central Luzon","countryId":174,"countryCode":"PH","countryName":"Philippines","latitude":"15.63210000","longitude":"121.14480000","wikiDataId":"Q55544"},{"id":81804,"name":"Botolan","stateId":1345,"stateCode":"03","stateName":"Central Luzon","countryId":174,"countryCode":"PH","countryName":"Philippines","latitude":"15.28960000","longitude":"120.02450000","wikiDataId":"Q56529"},{"id":81834,"name":"Buenlag","stateId":1345,"stateCode":"03","stateName":"Central Luzon","countryId":174,"countryCode":"PH","countryName":"Philippines","latitude":"15.62743000","longitude":"120.58199000","wikiDataId":"Q31516154"},{"id":81836,"name":"Buensuseso","stateId":1345,"stateCode":"03","stateName":"Central Luzon","countryId":174,"countryCode":"PH","countryName":"Philippines","latitude":"15.19333000","longitude":"120.67314000","wikiDataId":"Q31516171"},{"id":81867,"name":"Bulaon","stateId":1345,"stateCode":"03","stateName":"Central Luzon","countryId":174,"countryCode":"PH","countryName":"Philippines","latitude":"15.08262000","longitude":"120.66288000","wikiDataId":"Q31517466"},{"id":81868,"name":"Bularit","stateId":1345,"stateCode":"03","stateName":"Central Luzon","countryId":174,"countryCode":"PH","countryName":"Philippines","latitude":"15.56824000","longitude":"120.62167000","wikiDataId":"Q31517481"},{"id":81872,"name":"Bulawin","stateId":1345,"stateCode":"03","stateName":"Central Luzon","countryId":174,"countryCode":"PH","countryName":"Philippines","latitude":"15.41730000","longitude":"119.95640000","wikiDataId":"Q31517537"},{"id":81874,"name":"Bulihan","stateId":1345,"stateCode":"03","stateName":"Central Luzon","countryId":174,"countryCode":"PH","countryName":"Philippines","latitude":"14.87581000","longitude":"120.89563000","wikiDataId":"Q31517708"},{"id":81877,"name":"Buliran","stateId":1345,"stateCode":"03","stateName":"Central Luzon","countryId":174,"countryCode":"PH","countryName":"Philippines","latitude":"15.54602000","longitude":"120.95959000","wikiDataId":"Q31517743"},{"id":81878,"name":"Buliran Segundo","stateId":1345,"stateCode":"03","stateName":"Central Luzon","countryId":174,"countryCode":"PH","countryName":"Philippines","latitude":"15.26667000","longitude":"120.86667000","wikiDataId":"Q31517761"},{"id":81885,"name":"Bulualto","stateId":1345,"stateCode":"03","stateName":"Central Luzon","countryId":174,"countryCode":"PH","countryName":"Philippines","latitude":"15.22127000","longitude":"120.95326000","wikiDataId":"Q31518244"},{"id":81893,"name":"Bundoc","stateId":1345,"stateCode":"03","stateName":"Central Luzon","countryId":174,"countryCode":"PH","countryName":"Philippines","latitude":"15.48575000","longitude":"120.71743000","wikiDataId":"Q31518554"},{"id":81901,"name":"Bunol","stateId":1345,"stateCode":"03","stateName":"Central Luzon","countryId":174,"countryCode":"PH","countryName":"Philippines","latitude":"15.66710000","longitude":"120.83440000","wikiDataId":"Q31518837"},{"id":81907,"name":"Burgos","stateId":1345,"stateCode":"03","stateName":"Central Luzon","countryId":174,"countryCode":"PH","countryName":"Philippines","latitude":"15.72892000","longitude":"120.57224000","wikiDataId":"Q31519294"},{"id":81920,"name":"Bustos","stateId":1345,"stateCode":"03","stateName":"Central Luzon","countryId":174,"countryCode":"PH","countryName":"Philippines","latitude":"14.95806000","longitude":"120.91778000","wikiDataId":"Q31520491"},{"id":81944,"name":"Cabanatuan City","stateId":1345,"stateCode":"03","stateName":"Central Luzon","countryId":174,"countryCode":"PH","countryName":"Philippines","latitude":"15.48586000","longitude":"120.96648000","wikiDataId":"Q55595"},{"id":81949,"name":"Cabangan","stateId":1345,"stateCode":"03","stateName":"Central Luzon","countryId":174,"countryCode":"PH","countryName":"Philippines","latitude":"15.15800000","longitude":"120.05690000","wikiDataId":"Q56533"},{"id":81962,"name":"Cabayaoasan","stateId":1345,"stateCode":"03","stateName":"Central Luzon","countryId":174,"countryCode":"PH","countryName":"Philippines","latitude":"15.66323000","longitude":"120.55135000","wikiDataId":"Q31523236"},{"id":81964,"name":"Cabcaben","stateId":1345,"stateCode":"03","stateName":"Central Luzon","countryId":174,"countryCode":"PH","countryName":"Philippines","latitude":"14.45400000","longitude":"120.59140000","wikiDataId":"Q31523321"},{"id":81965,"name":"Cabiao","stateId":1345,"stateCode":"03","stateName":"Central Luzon","countryId":174,"countryCode":"PH","countryName":"Philippines","latitude":"15.24880000","longitude":"120.85480000","wikiDataId":"Q55545"},{"id":81974,"name":"Cabog","stateId":1345,"stateCode":"03","stateName":"Central Luzon","countryId":174,"countryCode":"PH","countryName":"Philippines","latitude":"15.31530000","longitude":"121.37030000","wikiDataId":"Q31523768"},{"id":81991,"name":"Cafe","stateId":1345,"stateCode":"03","stateName":"Central Luzon","countryId":174,"countryCode":"PH","countryName":"Philippines","latitude":"15.33686000","longitude":"120.70623000","wikiDataId":"Q31525016"},{"id":82006,"name":"Calaba","stateId":1345,"stateCode":"03","stateName":"Central Luzon","countryId":174,"countryCode":"PH","countryName":"Philippines","latitude":"15.30050000","longitude":"120.87423000","wikiDataId":"Q31526235"},{"id":82022,"name":"Calancuasan Norte","stateId":1345,"stateCode":"03","stateName":"Central Luzon","countryId":174,"countryCode":"PH","countryName":"Philippines","latitude":"15.80137000","longitude":"120.64102000","wikiDataId":"Q31526918"},{"id":82023,"name":"Calangain","stateId":1345,"stateCode":"03","stateName":"Central Luzon","countryId":174,"countryCode":"PH","countryName":"Philippines","latitude":"14.89815000","longitude":"120.55877000","wikiDataId":"Q31526971"},{"id":82026,"name":"Calantas","stateId":1345,"stateCode":"03","stateName":"Central Luzon","countryId":174,"countryCode":"PH","countryName":"Philippines","latitude":"15.01933000","longitude":"120.51793000","wikiDataId":"Q31527149"},{"id":82044,"name":"Calayaan","stateId":1345,"stateCode":"03","stateName":"Central Luzon","countryId":174,"countryCode":"PH","countryName":"Philippines","latitude":"15.56739000","longitude":"120.51434000","wikiDataId":"Q31527745"},{"id":82049,"name":"Calibungan","stateId":1345,"stateCode":"03","stateName":"Central Luzon","countryId":174,"countryCode":"PH","countryName":"Philippines","latitude":"15.59820000","longitude":"120.72400000","wikiDataId":"Q31528101"},{"id":82050,"name":"Calibutbut","stateId":1345,"stateCode":"03","stateName":"Central Luzon","countryId":174,"countryCode":"PH","countryName":"Philippines","latitude":"15.11494000","longitude":"120.59815000","wikiDataId":"Q31528119"},{"id":82054,"name":"Calingcuan","stateId":1345,"stateCode":"03","stateName":"Central Luzon","countryId":174,"countryCode":"PH","countryName":"Philippines","latitude":"15.33333000","longitude":"120.58333000","wikiDataId":"Q31528353"},{"id":82072,"name":"Calumpang","stateId":1345,"stateCode":"03","stateName":"Central Luzon","countryId":174,"countryCode":"PH","countryName":"Philippines","latitude":"15.17400000","longitude":"121.02490000","wikiDataId":"Q31528994"},{"id":82073,"name":"Calumpit","stateId":1345,"stateCode":"03","stateName":"Central Luzon","countryId":174,"countryCode":"PH","countryName":"Philippines","latitude":"14.91639000","longitude":"120.76583000","wikiDataId":"Q54564"},{"id":82075,"name":"Cama Juan","stateId":1345,"stateCode":"03","stateName":"Central Luzon","countryId":174,"countryCode":"PH","countryName":"Philippines","latitude":"15.39223000","longitude":"120.76848000","wikiDataId":"Q31529256"},{"id":82076,"name":"Camachile","stateId":1345,"stateCode":"03","stateName":"Central Luzon","countryId":174,"countryCode":"PH","countryName":"Philippines","latitude":"14.64361000","longitude":"120.58083000","wikiDataId":"Q31529290"},{"id":82088,"name":"Camias","stateId":1345,"stateCode":"03","stateName":"Central Luzon","countryId":174,"countryCode":"PH","countryName":"Philippines","latitude":"15.16679000","longitude":"120.97416000","wikiDataId":"Q31530047"},{"id":82089,"name":"Camiling","stateId":1345,"stateCode":"03","stateName":"Central Luzon","countryId":174,"countryCode":"PH","countryName":"Philippines","latitude":"15.68660000","longitude":"120.41280000","wikiDataId":"Q31530047"},{"id":82105,"name":"Candaba","stateId":1345,"stateCode":"03","stateName":"Central Luzon","countryId":174,"countryCode":"PH","countryName":"Philippines","latitude":"15.09560000","longitude":"120.82670000","wikiDataId":"Q55699"},{"id":82107,"name":"Candating","stateId":1345,"stateCode":"03","stateName":"Central Luzon","countryId":174,"countryCode":"PH","countryName":"Philippines","latitude":"15.15056000","longitude":"120.81847000","wikiDataId":"Q31531654"},{"id":82137,"name":"Capas","stateId":1345,"stateCode":"03","stateName":"Central Luzon","countryId":174,"countryCode":"PH","countryName":"Philippines","latitude":"15.33117000","longitude":"120.58980000","wikiDataId":"Q56427"},{"id":82159,"name":"Cardona","stateId":1345,"stateCode":"03","stateName":"Central Luzon","countryId":174,"countryCode":"PH","countryName":"Philippines","latitude":"15.57220000","longitude":"120.58970000","wikiDataId":"Q31534341"},{"id":82172,"name":"Carmen","stateId":1345,"stateCode":"03","stateName":"Central Luzon","countryId":174,"countryCode":"PH","countryName":"Philippines","latitude":"15.44702000","longitude":"120.82676000","wikiDataId":"Q31534865"},{"id":82180,"name":"Carranglan","stateId":1345,"stateCode":"03","stateName":"Central Luzon","countryId":174,"countryCode":"PH","countryName":"Philippines","latitude":"15.96130000","longitude":"121.06410000","wikiDataId":"Q55546"},{"id":82197,"name":"Castillejos","stateId":1345,"stateCode":"03","stateName":"Central Luzon","countryId":174,"countryCode":"PH","countryName":"Philippines","latitude":"14.93363000","longitude":"120.19785000","wikiDataId":"Q56561"},{"id":82222,"name":"Cauayan","stateId":1345,"stateCode":"03","stateName":"Central Luzon","countryId":174,"countryCode":"PH","countryName":"Philippines","latitude":"15.15149000","longitude":"120.67166000","wikiDataId":"Q31538024"},{"id":82226,"name":"Cavite","stateId":1345,"stateCode":"03","stateName":"Central Luzon","countryId":174,"countryCode":"PH","countryName":"Philippines","latitude":"15.67785000","longitude":"120.76978000","wikiDataId":"Q31538684"},{"id":82232,"name":"Cawayan Bugtong","stateId":1345,"stateCode":"03","stateName":"Central Luzon","countryId":174,"countryCode":"PH","countryName":"Philippines","latitude":"15.63362000","longitude":"120.77695000","wikiDataId":"Q31538801"},{"id":82265,"name":"Comillas","stateId":1345,"stateCode":"03","stateName":"Central Luzon","countryId":174,"countryCode":"PH","countryName":"Philippines","latitude":"15.39833000","longitude":"120.70045000","wikiDataId":"Q31550446"},{"id":82267,"name":"Communal","stateId":1345,"stateCode":"03","stateName":"Central Luzon","countryId":174,"countryCode":"PH","countryName":"Philippines","latitude":"13.25480000","longitude":"121.13660000","wikiDataId":"Q31550502"},{"id":82273,"name":"Concepcion","stateId":1345,"stateCode":"03","stateName":"Central Luzon","countryId":174,"countryCode":"PH","countryName":"Philippines","latitude":"15.32546000","longitude":"120.65723000","wikiDataId":"Q30934"},{"id":82288,"name":"Conversion","stateId":1345,"stateCode":"03","stateName":"Central Luzon","countryId":174,"countryCode":"PH","countryName":"Philippines","latitude":"15.89840000","longitude":"121.12770000","wikiDataId":"Q31552072"},{"id":82315,"name":"Culianin","stateId":1345,"stateCode":"03","stateName":"Central Luzon","countryId":174,"countryCode":"PH","countryName":"Philippines","latitude":"14.91511000","longitude":"120.89847000","wikiDataId":"Q31557185"},{"id":82318,"name":"Culubasa","stateId":1345,"stateCode":"03","stateName":"Central Luzon","countryId":174,"countryCode":"PH","countryName":"Philippines","latitude":"15.14431000","longitude":"120.65223000","wikiDataId":"Q31557380"},{"id":82323,"name":"Cut-cut Primero","stateId":1345,"stateCode":"03","stateName":"Central Luzon","countryId":174,"countryCode":"PH","countryName":"Philippines","latitude":"15.48277000","longitude":"120.58604000","wikiDataId":"Q31557801"},{"id":82324,"name":"Cuyapo","stateId":1345,"stateCode":"03","stateName":"Central Luzon","countryId":174,"countryCode":"PH","countryName":"Philippines","latitude":"15.78194000","longitude":"120.66472000","wikiDataId":"Q55547"},{"id":82364,"name":"Dampol","stateId":1345,"stateCode":"03","stateName":"Central Luzon","countryId":174,"countryCode":"PH","countryName":"Philippines","latitude":"14.90128000","longitude":"120.82187000","wikiDataId":"Q31560847"},{"id":82404,"name":"Del Carmen","stateId":1345,"stateCode":"03","stateName":"Central Luzon","countryId":174,"countryCode":"PH","countryName":"Philippines","latitude":"15.00544000","longitude":"120.53412000","wikiDataId":"Q31564495"},{"id":82409,"name":"Del Pilar","stateId":1345,"stateCode":"03","stateName":"Central Luzon","countryId":174,"countryCode":"PH","countryName":"Philippines","latitude":"15.03601000","longitude":"120.69935000","wikiDataId":"Q31564695"},{"id":82423,"name":"Digdig","stateId":1345,"stateCode":"03","stateName":"Central Luzon","countryId":174,"countryCode":"PH","countryName":"Philippines","latitude":"15.94900000","longitude":"120.97780000","wikiDataId":"Q31566853"},{"id":82427,"name":"Diliman Primero","stateId":1345,"stateCode":"03","stateName":"Central Luzon","countryId":174,"countryCode":"PH","countryName":"Philippines","latitude":"15.02470000","longitude":"120.95208000","wikiDataId":"Q31567215"},{"id":82437,"name":"Dinalupihan","stateId":1345,"stateCode":"03","stateName":"Central Luzon","countryId":174,"countryCode":"PH","countryName":"Philippines","latitude":"14.87827000","longitude":"120.45221000","wikiDataId":"Q54457"},{"id":82438,"name":"Dingalan","stateId":1345,"stateCode":"03","stateName":"Central Luzon","countryId":174,"countryCode":"PH","countryName":"Philippines","latitude":"15.38970000","longitude":"121.39290000","wikiDataId":"Q53087"},{"id":82454,"name":"Dolores","stateId":1345,"stateCode":"03","stateName":"Central Luzon","countryId":174,"countryCode":"PH","countryName":"Philippines","latitude":"15.09498000","longitude":"120.52889000","wikiDataId":"Q31569668"},{"id":82467,"name":"Doña Remedios Trinidad","stateId":1345,"stateCode":"03","stateName":"Central Luzon","countryId":174,"countryCode":"PH","countryName":"Philippines","latitude":"15.00000000","longitude":"121.08333000","wikiDataId":"Q54566"},{"id":82489,"name":"Dumarais","stateId":1345,"stateCode":"03","stateName":"Central Luzon","countryId":174,"countryCode":"PH","countryName":"Philippines","latitude":"15.43455000","longitude":"120.69213000","wikiDataId":"Q316019"},{"id":82510,"name":"Entablado","stateId":1345,"stateCode":"03","stateName":"Central Luzon","countryId":174,"countryCode":"PH","countryName":"Philippines","latitude":"15.28661000","longitude":"120.86302000","wikiDataId":"Q31578451"},{"id":82526,"name":"Estacion","stateId":1345,"stateCode":"03","stateName":"Central Luzon","countryId":174,"countryCode":"PH","countryName":"Philippines","latitude":"15.69944000","longitude":"120.60833000","wikiDataId":"Q39346"},{"id":82530,"name":"Estipona","stateId":1345,"stateCode":"03","stateName":"Central Luzon","countryId":174,"countryCode":"PH","countryName":"Philippines","latitude":"15.59020000","longitude":"120.63770000","wikiDataId":"Q31579541"},{"id":82531,"name":"Estrella","stateId":1345,"stateCode":"03","stateName":"Central Luzon","countryId":174,"countryCode":"PH","countryName":"Philippines","latitude":"15.75000000","longitude":"121.03333000","wikiDataId":"Q31579577"},{"id":82540,"name":"Floridablanca","stateId":1345,"stateCode":"03","stateName":"Central Luzon","countryId":174,"countryCode":"PH","countryName":"Philippines","latitude":"14.97750000","longitude":"120.52850000","wikiDataId":"Q55700"},{"id":82543,"name":"Gabaldon","stateId":1345,"stateCode":"03","stateName":"Central Luzon","countryId":174,"countryCode":"PH","countryName":"Philippines","latitude":"15.45220000","longitude":"121.33870000","wikiDataId":"Q31587261"},{"id":82567,"name":"Gapan","stateId":1345,"stateCode":"03","stateName":"Central Luzon","countryId":174,"countryCode":"PH","countryName":"Philippines","latitude":"15.30720000","longitude":"120.94640000","wikiDataId":"Q55596"},{"id":82578,"name":"General Luna","stateId":1345,"stateCode":"03","stateName":"Central Luzon","countryId":174,"countryCode":"PH","countryName":"Philippines","latitude":"15.73060000","longitude":"121.17910000","wikiDataId":"Q31589858"},{"id":82580,"name":"General Mamerto Natividad","stateId":1345,"stateCode":"03","stateName":"Central Luzon","countryId":174,"countryCode":"PH","countryName":"Philippines","latitude":"15.60250000","longitude":"121.05150000","wikiDataId":"Q55549"},{"id":82583,"name":"General Tinio","stateId":1345,"stateCode":"03","stateName":"Central Luzon","countryId":174,"countryCode":"PH","countryName":"Philippines","latitude":"15.35075000","longitude":"121.04773000","wikiDataId":"Q594275"},{"id":82585,"name":"Gerona","stateId":1345,"stateCode":"03","stateName":"Central Luzon","countryId":174,"countryCode":"PH","countryName":"Philippines","latitude":"15.60650000","longitude":"120.59780000","wikiDataId":"Q56439"},{"id":82613,"name":"Guagua","stateId":1345,"stateCode":"03","stateName":"Central Luzon","countryId":174,"countryCode":"PH","countryName":"Philippines","latitude":"14.96530000","longitude":"120.63250000","wikiDataId":"Q55702"},{"id":82617,"name":"Gueset","stateId":1345,"stateCode":"03","stateName":"Central Luzon","countryId":174,"countryCode":"PH","countryName":"Philippines","latitude":"15.95000000","longitude":"120.63333000","wikiDataId":"Q31811350"},{"id":82620,"name":"Guiguinto","stateId":1345,"stateCode":"03","stateName":"Central Luzon","countryId":174,"countryCode":"PH","countryName":"Philippines","latitude":"14.83333000","longitude":"120.88333000","wikiDataId":"Q54589"},{"id":82626,"name":"Guimba","stateId":1345,"stateCode":"03","stateName":"Central Luzon","countryId":174,"countryCode":"PH","countryName":"Philippines","latitude":"15.66050000","longitude":"120.76830000","wikiDataId":"Q55552"},{"id":82647,"name":"Guisguis","stateId":1345,"stateCode":"03","stateName":"Central Luzon","countryId":174,"countryCode":"PH","countryName":"Philippines","latitude":"15.79280000","longitude":"119.97660000","wikiDataId":"Q31811381"},{"id":82659,"name":"Gutad","stateId":1345,"stateCode":"03","stateName":"Central Luzon","countryId":174,"countryCode":"PH","countryName":"Philippines","latitude":"14.92740000","longitude":"120.48940000","wikiDataId":"Q31811395"},{"id":82662,"name":"Guyong","stateId":1345,"stateCode":"03","stateName":"Central Luzon","countryId":174,"countryCode":"PH","countryName":"Philippines","latitude":"14.83610000","longitude":"120.97844000","wikiDataId":"Q31811398"},{"id":82669,"name":"Hagonoy","stateId":1345,"stateCode":"03","stateName":"Central Luzon","countryId":174,"countryCode":"PH","countryName":"Philippines","latitude":"14.83413000","longitude":"120.73271000","wikiDataId":"Q54592"},{"id":82680,"name":"Hermosa","stateId":1345,"stateCode":"03","stateName":"Central Luzon","countryId":174,"countryCode":"PH","countryName":"Philippines","latitude":"14.83140000","longitude":"120.50810000","wikiDataId":"Q54458"},{"id":82706,"name":"Iba","stateId":1345,"stateCode":"03","stateName":"Central Luzon","countryId":174,"countryCode":"PH","countryName":"Philippines","latitude":"15.32760000","longitude":"119.97800000","wikiDataId":"Q56566"},{"id":82780,"name":"Jaen","stateId":1345,"stateCode":"03","stateName":"Central Luzon","countryId":174,"countryCode":"PH","countryName":"Philippines","latitude":"15.32750000","longitude":"120.91920000","wikiDataId":"Q30871"},{"id":82948,"name":"La Paz","stateId":1345,"stateCode":"03","stateName":"Central Luzon","countryId":174,"countryCode":"PH","countryName":"Philippines","latitude":"15.44125000","longitude":"120.72863000","wikiDataId":"Q28733"},{"id":82995,"name":"Lambakin","stateId":1345,"stateCode":"03","stateName":"Central Luzon","countryId":174,"countryCode":"PH","countryName":"Philippines","latitude":"14.75000000","longitude":"120.86667000","wikiDataId":"Q31811758"},{"id":83010,"name":"Lanat","stateId":1345,"stateCode":"03","stateName":"Central Luzon","countryId":174,"countryCode":"PH","countryName":"Philippines","latitude":"15.79189000","longitude":"120.60461000","wikiDataId":"Q31811773"},{"id":83049,"name":"Laug","stateId":1345,"stateCode":"03","stateName":"Central Luzon","countryId":174,"countryCode":"PH","countryName":"Philippines","latitude":"15.04659000","longitude":"120.75149000","wikiDataId":"Q31811813"},{"id":83050,"name":"Laur","stateId":1345,"stateCode":"03","stateName":"Central Luzon","countryId":174,"countryCode":"PH","countryName":"Philippines","latitude":"15.58650000","longitude":"121.18340000","wikiDataId":"Q55556"},{"id":83053,"name":"Lawang Kupang","stateId":1345,"stateCode":"03","stateName":"Central Luzon","countryId":174,"countryCode":"PH","countryName":"Philippines","latitude":"15.34807000","longitude":"120.85752000","wikiDataId":"Q31811816"},{"id":83065,"name":"Lennec","stateId":1345,"stateCode":"03","stateName":"Central Luzon","countryId":174,"countryCode":"PH","countryName":"Philippines","latitude":"15.68350000","longitude":"120.73380000","wikiDataId":"Q31811827"},{"id":83100,"name":"Licab","stateId":1345,"stateCode":"03","stateName":"Central Luzon","countryId":174,"countryCode":"PH","countryName":"Philippines","latitude":"15.54390000","longitude":"120.76340000","wikiDataId":"Q55557"},{"id":83101,"name":"Liciada","stateId":1345,"stateCode":"03","stateName":"Central Luzon","countryId":174,"countryCode":"PH","countryName":"Philippines","latitude":"14.91484000","longitude":"120.93182000","wikiDataId":"Q55557"},{"id":83106,"name":"Ligaya","stateId":1345,"stateCode":"03","stateName":"Central Luzon","countryId":174,"countryCode":"PH","countryName":"Philippines","latitude":"15.50910000","longitude":"121.28720000","wikiDataId":"Q31811875"},{"id":83118,"name":"Limay","stateId":1345,"stateCode":"03","stateName":"Central Luzon","countryId":174,"countryCode":"PH","countryName":"Philippines","latitude":"14.56194000","longitude":"120.59833000","wikiDataId":"Q54459"},{"id":83145,"name":"Liozon","stateId":1345,"stateCode":"03","stateName":"Central Luzon","countryId":174,"countryCode":"PH","countryName":"Philippines","latitude":"15.39930000","longitude":"119.93300000","wikiDataId":"Q31811918"},{"id":83148,"name":"Lipay","stateId":1345,"stateCode":"03","stateName":"Central Luzon","countryId":174,"countryCode":"PH","countryName":"Philippines","latitude":"15.45610000","longitude":"119.92080000","wikiDataId":"Q31811919"},{"id":83153,"name":"Llanera","stateId":1345,"stateCode":"03","stateName":"Central Luzon","countryId":174,"countryCode":"PH","countryName":"Philippines","latitude":"15.66350000","longitude":"121.01820000","wikiDataId":"Q55558"},{"id":83163,"name":"Loma de Gato","stateId":1345,"stateCode":"03","stateName":"Central Luzon","countryId":174,"countryCode":"PH","countryName":"Philippines","latitude":"14.78869000","longitude":"120.99889000","wikiDataId":"Q31811933"},{"id":83166,"name":"Lomboy","stateId":1345,"stateCode":"03","stateName":"Central Luzon","countryId":174,"countryCode":"PH","countryName":"Philippines","latitude":"15.49255000","longitude":"120.71723000","wikiDataId":"Q31811938"},{"id":83187,"name":"Lourdes","stateId":1345,"stateCode":"03","stateName":"Central Luzon","countryId":174,"countryCode":"PH","countryName":"Philippines","latitude":"14.96667000","longitude":"120.68333000","wikiDataId":"Q31811960"},{"id":83193,"name":"Lubao","stateId":1345,"stateCode":"03","stateName":"Central Luzon","countryId":174,"countryCode":"PH","countryName":"Philippines","latitude":"14.94050000","longitude":"120.60110000","wikiDataId":"Q55705"},{"id":83197,"name":"Lucapon","stateId":1345,"stateCode":"03","stateName":"Central Luzon","countryId":174,"countryCode":"PH","countryName":"Philippines","latitude":"15.69980000","longitude":"119.93200000","wikiDataId":"Q31811969"},{"id":83242,"name":"Lupao","stateId":1345,"stateCode":"03","stateName":"Central Luzon","countryId":174,"countryCode":"PH","countryName":"Philippines","latitude":"15.87930000","longitude":"120.89830000","wikiDataId":"Q55559"},{"id":83258,"name":"Maasim","stateId":1345,"stateCode":"03","stateName":"Central Luzon","countryId":174,"countryCode":"PH","countryName":"Philippines","latitude":"14.99551000","longitude":"121.03082000","wikiDataId":"Q31812028"},{"id":83264,"name":"Mababanaba","stateId":1345,"stateCode":"03","stateName":"Central Luzon","countryId":174,"countryCode":"PH","countryName":"Philippines","latitude":"15.49715000","longitude":"120.46053000","wikiDataId":"Q31812032"},{"id":83266,"name":"Mabalacat City","stateId":1345,"stateCode":"03","stateName":"Central Luzon","countryId":174,"countryCode":"PH","countryName":"Philippines","latitude":"15.22303000","longitude":"120.57117000","wikiDataId":"Q55737"},{"id":83269,"name":"Mabayo","stateId":1345,"stateCode":"03","stateName":"Central Luzon","countryId":174,"countryCode":"PH","countryName":"Philippines","latitude":"14.73180000","longitude":"120.27810000","wikiDataId":"Q31812037"},{"id":83270,"name":"Mabilang","stateId":1345,"stateCode":"03","stateName":"Central Luzon","countryId":174,"countryCode":"PH","countryName":"Philippines","latitude":"15.67511000","longitude":"120.48835000","wikiDataId":"Q31812038"},{"id":83273,"name":"Mabilog","stateId":1345,"stateCode":"03","stateName":"Central Luzon","countryId":174,"countryCode":"PH","countryName":"Philippines","latitude":"15.39485000","longitude":"120.66573000","wikiDataId":"Q31812041"},{"id":83279,"name":"Mabini","stateId":1345,"stateCode":"03","stateName":"Central Luzon","countryId":174,"countryCode":"PH","countryName":"Philippines","latitude":"15.60000000","longitude":"120.98333000","wikiDataId":"Q31812047"},{"id":83294,"name":"Macabebe","stateId":1345,"stateCode":"03","stateName":"Central Luzon","countryId":174,"countryCode":"PH","countryName":"Philippines","latitude":"14.90890000","longitude":"120.71550000","wikiDataId":"Q55707"},{"id":83302,"name":"Macapsing","stateId":1345,"stateCode":"03","stateName":"Central Luzon","countryId":174,"countryCode":"PH","countryName":"Philippines","latitude":"15.67830000","longitude":"121.13190000","wikiDataId":"Q31812065"},{"id":83303,"name":"Macarse","stateId":1345,"stateCode":"03","stateName":"Central Luzon","countryId":174,"countryCode":"PH","countryName":"Philippines","latitude":"15.42495000","longitude":"120.77476000","wikiDataId":"Q31812066"},{"id":83304,"name":"Macatbong","stateId":1345,"stateCode":"03","stateName":"Central Luzon","countryId":174,"countryCode":"PH","countryName":"Philippines","latitude":"15.50480000","longitude":"121.07910000","wikiDataId":"Q31812067"},{"id":83318,"name":"Magalang","stateId":1345,"stateCode":"03","stateName":"Central Luzon","countryId":174,"countryCode":"PH","countryName":"Philippines","latitude":"15.21510000","longitude":"120.65960000","wikiDataId":"Q55709"},{"id":83337,"name":"Magliman","stateId":1345,"stateCode":"03","stateName":"Central Luzon","countryId":174,"countryCode":"PH","countryName":"Philippines","latitude":"15.03545000","longitude":"120.66421000","wikiDataId":"Q31812089"},{"id":83348,"name":"Magtangol","stateId":1345,"stateCode":"03","stateName":"Central Luzon","countryId":174,"countryCode":"PH","countryName":"Philippines","latitude":"15.75800000","longitude":"120.91560000","wikiDataId":"Q31812099"},{"id":83351,"name":"Maguinao","stateId":1345,"stateCode":"03","stateName":"Central Luzon","countryId":174,"countryCode":"PH","countryName":"Philippines","latitude":"15.02231000","longitude":"120.93409000","wikiDataId":"Q31812101"},{"id":83386,"name":"Malabon","stateId":1345,"stateCode":"03","stateName":"Central Luzon","countryId":174,"countryCode":"PH","countryName":"Philippines","latitude":"15.63610000","longitude":"119.93790000","wikiDataId":"Q31812127"},{"id":83391,"name":"Malacampa","stateId":1345,"stateCode":"03","stateName":"Central Luzon","countryId":174,"countryCode":"PH","countryName":"Philippines","latitude":"15.64335000","longitude":"120.41109000","wikiDataId":"Q31812132"},{"id":83428,"name":"Maligaya","stateId":1345,"stateCode":"03","stateName":"Central Luzon","countryId":174,"countryCode":"PH","countryName":"Philippines","latitude":"15.67470000","longitude":"120.88870000","wikiDataId":"Q31812171"},{"id":83442,"name":"Malino","stateId":1345,"stateCode":"03","stateName":"Central Luzon","countryId":174,"countryCode":"PH","countryName":"Philippines","latitude":"15.12695000","longitude":"120.67431000","wikiDataId":"Q31812181"},{"id":83454,"name":"Malolos","stateId":1345,"stateCode":"03","stateName":"Central Luzon","countryId":174,"countryCode":"PH","countryName":"Philippines","latitude":"14.84430000","longitude":"120.81039000","wikiDataId":"Q2180"},{"id":83455,"name":"Maloma","stateId":1345,"stateCode":"03","stateName":"Central Luzon","countryId":174,"countryCode":"PH","countryName":"Philippines","latitude":"15.11350000","longitude":"120.06390000","wikiDataId":"Q31812191"},{"id":83458,"name":"Maluid","stateId":1345,"stateCode":"03","stateName":"Central Luzon","countryId":174,"countryCode":"PH","countryName":"Philippines","latitude":"15.54930000","longitude":"120.65280000","wikiDataId":"Q31812194"},{"id":83461,"name":"Malusac","stateId":1345,"stateCode":"03","stateName":"Central Luzon","countryId":174,"countryCode":"PH","countryName":"Philippines","latitude":"14.85842000","longitude":"120.62120000","wikiDataId":"Q31812197"},{"id":83475,"name":"Mambog","stateId":1345,"stateCode":"03","stateName":"Central Luzon","countryId":174,"countryCode":"PH","countryName":"Philippines","latitude":"15.31370000","longitude":"120.03040000","wikiDataId":"Q31812210"},{"id":83479,"name":"Mamonit","stateId":1345,"stateCode":"03","stateName":"Central Luzon","countryId":174,"countryCode":"PH","countryName":"Philippines","latitude":"15.58719000","longitude":"120.39644000","wikiDataId":"Q31812213"},{"id":83483,"name":"Manacsac","stateId":1345,"stateCode":"03","stateName":"Central Luzon","countryId":174,"countryCode":"PH","countryName":"Philippines","latitude":"15.59520000","longitude":"120.79110000","wikiDataId":"Q31812217"},{"id":83496,"name":"Manatal","stateId":1345,"stateCode":"03","stateName":"Central Luzon","countryId":174,"countryCode":"PH","countryName":"Philippines","latitude":"14.87688000","longitude":"120.91639000","wikiDataId":"Q31812230"},{"id":83506,"name":"Mandili","stateId":1345,"stateCode":"03","stateName":"Central Luzon","countryId":174,"countryCode":"PH","countryName":"Philippines","latitude":"15.17912000","longitude":"120.87726000","wikiDataId":"Q31812241"},{"id":83515,"name":"Mangga","stateId":1345,"stateCode":"03","stateName":"Central Luzon","countryId":174,"countryCode":"PH","countryName":"Philippines","latitude":"15.25041000","longitude":"120.90876000","wikiDataId":"Q31812248"},{"id":83520,"name":"Manibaug Pasig","stateId":1345,"stateCode":"03","stateName":"Central Luzon","countryId":174,"countryCode":"PH","countryName":"Philippines","latitude":"15.09621000","longitude":"120.56445000","wikiDataId":"Q31812254"},{"id":83531,"name":"Manogpi","stateId":1345,"stateCode":"03","stateName":"Central Luzon","countryId":174,"countryCode":"PH","countryName":"Philippines","latitude":"13.31080000","longitude":"121.20400000","wikiDataId":"Q31812262"},{"id":83548,"name":"Mapalacsiao","stateId":1345,"stateCode":"03","stateName":"Central Luzon","countryId":174,"countryCode":"PH","countryName":"Philippines","latitude":"15.42831000","longitude":"120.65252000","wikiDataId":"Q31812279"},{"id":83549,"name":"Mapalad","stateId":1345,"stateCode":"03","stateName":"Central Luzon","countryId":174,"countryCode":"PH","countryName":"Philippines","latitude":"15.45133000","longitude":"121.08384000","wikiDataId":"Q31812281"},{"id":83552,"name":"Mapaniqui","stateId":1345,"stateCode":"03","stateName":"Central Luzon","countryId":174,"countryCode":"PH","countryName":"Philippines","latitude":"15.10696000","longitude":"120.92287000","wikiDataId":"Q31812282"},{"id":83558,"name":"Maquiapo","stateId":1345,"stateCode":"03","stateName":"Central Luzon","countryId":174,"countryCode":"PH","countryName":"Philippines","latitude":"14.98561000","longitude":"120.55855000","wikiDataId":"Q31812288"},{"id":83566,"name":"Marawa","stateId":1345,"stateCode":"03","stateName":"Central Luzon","countryId":174,"countryCode":"PH","countryName":"Philippines","latitude":"15.41727000","longitude":"120.83819000","wikiDataId":"Q31812295"},{"id":83574,"name":"Maria Aurora","stateId":1345,"stateCode":"03","stateName":"Central Luzon","countryId":174,"countryCode":"PH","countryName":"Philippines","latitude":"15.79670000","longitude":"121.47370000","wikiDataId":"Q53090"},{"id":83583,"name":"Marilao","stateId":1345,"stateCode":"03","stateName":"Central Luzon","countryId":174,"countryCode":"PH","countryName":"Philippines","latitude":"14.75778000","longitude":"120.94833000","wikiDataId":"Q54595"},{"id":83586,"name":"Mariveles","stateId":1345,"stateCode":"03","stateName":"Central Luzon","countryId":174,"countryCode":"PH","countryName":"Philippines","latitude":"14.43385000","longitude":"120.48569000","wikiDataId":"Q54460"},{"id":83593,"name":"Masalipit","stateId":1345,"stateCode":"03","stateName":"Central Luzon","countryId":174,"countryCode":"PH","countryName":"Philippines","latitude":"15.14810000","longitude":"121.03730000","wikiDataId":"Q31812315"},{"id":83595,"name":"Masantol","stateId":1345,"stateCode":"03","stateName":"Central Luzon","countryId":174,"countryCode":"PH","countryName":"Philippines","latitude":"14.89600000","longitude":"120.70920000","wikiDataId":"Q55710"},{"id":83603,"name":"Masinloc","stateId":1345,"stateCode":"03","stateName":"Central Luzon","countryId":174,"countryCode":"PH","countryName":"Philippines","latitude":"15.53630000","longitude":"119.95020000","wikiDataId":"Q56572"},{"id":83622,"name":"Matayumtayum","stateId":1345,"stateCode":"03","stateName":"Central Luzon","countryId":174,"countryCode":"PH","countryName":"Philippines","latitude":"15.51660000","longitude":"120.70980000","wikiDataId":"Q31812341"},{"id":83634,"name":"Maturanoc","stateId":1345,"stateCode":"03","stateName":"Central Luzon","countryId":174,"countryCode":"PH","countryName":"Philippines","latitude":"15.65710000","longitude":"120.79210000","wikiDataId":"Q31812358"},{"id":83646,"name":"Mayantoc","stateId":1345,"stateCode":"03","stateName":"Central Luzon","countryId":174,"countryCode":"PH","countryName":"Philippines","latitude":"15.61990000","longitude":"120.37700000","wikiDataId":"Q56444"},{"id":83663,"name":"Mexico","stateId":1345,"stateCode":"03","stateName":"Central Luzon","countryId":174,"countryCode":"PH","countryName":"Philippines","latitude":"15.06460000","longitude":"120.71980000","wikiDataId":"Q213261"},{"id":83664,"name":"Meycauayan","stateId":1345,"stateCode":"03","stateName":"Central Luzon","countryId":174,"countryCode":"PH","countryName":"Philippines","latitude":"14.73694000","longitude":"120.96083000","wikiDataId":"Q2187"},{"id":83677,"name":"Minalin","stateId":1345,"stateCode":"03","stateName":"Central Luzon","countryId":174,"countryCode":"PH","countryName":"Philippines","latitude":"14.96760000","longitude":"120.68280000","wikiDataId":"Q55717"},{"id":83699,"name":"Moncada","stateId":1345,"stateCode":"03","stateName":"Central Luzon","countryId":174,"countryCode":"PH","countryName":"Philippines","latitude":"15.73540000","longitude":"120.57400000","wikiDataId":"Q56453"},{"id":83711,"name":"Moriones","stateId":1345,"stateCode":"03","stateName":"Central Luzon","countryId":174,"countryCode":"PH","countryName":"Philippines","latitude":"15.46116000","longitude":"120.46579000","wikiDataId":"Q31812480"},{"id":83714,"name":"Morong","stateId":1345,"stateCode":"03","stateName":"Central Luzon","countryId":174,"countryCode":"PH","countryName":"Philippines","latitude":"14.67889000","longitude":"120.26611000","wikiDataId":"Q54461"},{"id":83716,"name":"Motrico","stateId":1345,"stateCode":"03","stateName":"Central Luzon","countryId":174,"countryCode":"PH","countryName":"Philippines","latitude":"15.41355000","longitude":"120.67653000","wikiDataId":"Q31812488"},{"id":83729,"name":"Muñoz","stateId":1345,"stateCode":"03","stateName":"Central Luzon","countryId":174,"countryCode":"PH","countryName":"Philippines","latitude":"15.71611000","longitude":"120.90306000","wikiDataId":"Q31812514"},{"id":83725,"name":"Murcia","stateId":1345,"stateCode":"03","stateName":"Central Luzon","countryId":174,"countryCode":"PH","countryName":"Philippines","latitude":"15.40425000","longitude":"120.60903000","wikiDataId":"Q31812510"},{"id":83748,"name":"Nagpandayan","stateId":1345,"stateCode":"03","stateName":"Central Luzon","countryId":174,"countryCode":"PH","countryName":"Philippines","latitude":"15.60138000","longitude":"120.76893000","wikiDataId":"Q31812529"},{"id":83765,"name":"Nambalan","stateId":1345,"stateCode":"03","stateName":"Central Luzon","countryId":174,"countryCode":"PH","countryName":"Philippines","latitude":"15.59911000","longitude":"120.46031000","wikiDataId":"Q31812547"},{"id":83767,"name":"Nampicuan","stateId":1345,"stateCode":"03","stateName":"Central Luzon","countryId":174,"countryCode":"PH","countryName":"Philippines","latitude":"15.73140000","longitude":"120.62500000","wikiDataId":"Q55560"},{"id":83770,"name":"Nancamarinan","stateId":1345,"stateCode":"03","stateName":"Central Luzon","countryId":174,"countryCode":"PH","countryName":"Philippines","latitude":"15.67520000","longitude":"120.53640000","wikiDataId":"Q31812557"},{"id":83815,"name":"Nieves","stateId":1345,"stateCode":"03","stateName":"Central Luzon","countryId":174,"countryCode":"PH","countryName":"Philippines","latitude":"15.32842000","longitude":"120.94892000","wikiDataId":"Q31812642"},{"id":83819,"name":"Niugan","stateId":1345,"stateCode":"03","stateName":"Central Luzon","countryId":174,"countryCode":"PH","countryName":"Philippines","latitude":"14.94607000","longitude":"120.96720000","wikiDataId":"Q31812651"},{"id":83822,"name":"Norzagaray","stateId":1345,"stateCode":"03","stateName":"Central Luzon","countryId":174,"countryCode":"PH","countryName":"Philippines","latitude":"14.91090000","longitude":"121.04930000","wikiDataId":"Q54598"},{"id":83835,"name":"Obando","stateId":1345,"stateCode":"03","stateName":"Central Luzon","countryId":174,"countryCode":"PH","countryName":"Philippines","latitude":"14.70980000","longitude":"120.93620000","wikiDataId":"Q54599"},{"id":83852,"name":"Olongapo","stateId":1345,"stateCode":"03","stateName":"Central Luzon","countryId":174,"countryCode":"PH","countryName":"Philippines","latitude":"14.82917000","longitude":"120.28278000","wikiDataId":"Q56759"},{"id":83857,"name":"Orani","stateId":1345,"stateCode":"03","stateName":"Central Luzon","countryId":174,"countryCode":"PH","countryName":"Philippines","latitude":"14.80060000","longitude":"120.53710000","wikiDataId":"Q54462"},{"id":83859,"name":"Orion","stateId":1345,"stateCode":"03","stateName":"Central Luzon","countryId":174,"countryCode":"PH","countryName":"Philippines","latitude":"14.62056000","longitude":"120.58167000","wikiDataId":"Q54463"},{"id":83874,"name":"Paco Roman","stateId":1345,"stateCode":"03","stateName":"Central Luzon","countryId":174,"countryCode":"PH","countryName":"Philippines","latitude":"15.65970000","longitude":"121.08770000","wikiDataId":"Q31812752"},{"id":83878,"name":"Padapada","stateId":1345,"stateCode":"03","stateName":"Central Luzon","countryId":174,"countryCode":"PH","countryName":"Philippines","latitude":"15.55170000","longitude":"120.51630000","wikiDataId":"Q31812755"},{"id":83903,"name":"Paitan Norte","stateId":1345,"stateCode":"03","stateName":"Central Luzon","countryId":174,"countryCode":"PH","countryName":"Philippines","latitude":"15.83333000","longitude":"120.74086000","wikiDataId":"Q31457976"},{"id":83917,"name":"Palauig","stateId":1345,"stateCode":"03","stateName":"Central Luzon","countryId":174,"countryCode":"PH","countryName":"Philippines","latitude":"15.43500000","longitude":"119.90450000","wikiDataId":"Q31458214"},{"id":83918,"name":"Palayan City","stateId":1345,"stateCode":"03","stateName":"Central Luzon","countryId":174,"countryCode":"PH","countryName":"Philippines","latitude":"15.54150000","longitude":"121.08480000","wikiDataId":"Q55598"},{"id":83932,"name":"Palusapis","stateId":1345,"stateCode":"03","stateName":"Central Luzon","countryId":174,"countryCode":"PH","countryName":"Philippines","latitude":"15.68324000","longitude":"120.86267000","wikiDataId":"Q31458567"},{"id":83934,"name":"Pamatawan","stateId":1345,"stateCode":"03","stateName":"Central Luzon","countryId":174,"countryCode":"PH","countryName":"Philippines","latitude":"14.92779000","longitude":"120.21363000","wikiDataId":"Q31460782"},{"id":83942,"name":"Panabingan","stateId":1345,"stateCode":"03","stateName":"Central Luzon","countryId":174,"countryCode":"PH","countryName":"Philippines","latitude":"15.37732000","longitude":"120.76492000","wikiDataId":"Q31460991"},{"id":83951,"name":"Panan","stateId":1345,"stateCode":"03","stateName":"Central Luzon","countryId":174,"countryCode":"PH","countryName":"Philippines","latitude":"15.21340000","longitude":"120.02720000","wikiDataId":"Q31461231"},{"id":83956,"name":"Pance","stateId":1345,"stateCode":"03","stateName":"Central Luzon","countryId":174,"countryCode":"PH","countryName":"Philippines","latitude":"15.68850000","longitude":"120.62010000","wikiDataId":"Q31461364"},{"id":83958,"name":"Pandacaqui","stateId":1345,"stateCode":"03","stateName":"Central Luzon","countryId":174,"countryCode":"PH","countryName":"Philippines","latitude":"15.17190000","longitude":"120.65457000","wikiDataId":"Q31461413"},{"id":83965,"name":"Pandi","stateId":1345,"stateCode":"03","stateName":"Central Luzon","countryId":174,"countryCode":"PH","countryName":"Philippines","latitude":"14.86500000","longitude":"120.95722000","wikiDataId":"Q54600"},{"id":83966,"name":"Pando","stateId":1345,"stateCode":"03","stateName":"Central Luzon","countryId":174,"countryCode":"PH","countryName":"Philippines","latitude":"15.39395000","longitude":"120.68473000","wikiDataId":"Q31461683"},{"id":83990,"name":"Paniqui","stateId":1345,"stateCode":"03","stateName":"Central Luzon","countryId":174,"countryCode":"PH","countryName":"Philippines","latitude":"15.66890000","longitude":"120.58060000","wikiDataId":"Q56457"},{"id":83994,"name":"Panlinlang","stateId":1345,"stateCode":"03","stateName":"Central Luzon","countryId":174,"countryCode":"PH","countryName":"Philippines","latitude":"15.18333000","longitude":"120.70000000","wikiDataId":"Q31462363"},{"id":83998,"name":"Pantabangan","stateId":1345,"stateCode":"03","stateName":"Central Luzon","countryId":174,"countryCode":"PH","countryName":"Philippines","latitude":"15.81130000","longitude":"121.14430000","wikiDataId":"Q55567"},{"id":84004,"name":"Pantubig","stateId":1345,"stateCode":"03","stateName":"Central Luzon","countryId":174,"countryCode":"PH","countryName":"Philippines","latitude":"14.96806000","longitude":"120.95472000","wikiDataId":"Q31462862"},{"id":84009,"name":"Paombong","stateId":1345,"stateCode":"03","stateName":"Central Luzon","countryId":174,"countryCode":"PH","countryName":"Philippines","latitude":"14.83111000","longitude":"120.78917000","wikiDataId":"Q54605"},{"id":84010,"name":"Papaya","stateId":1345,"stateCode":"03","stateName":"Central Luzon","countryId":174,"countryCode":"PH","countryName":"Philippines","latitude":"15.32016000","longitude":"120.83574000","wikiDataId":"Q55551"},{"id":84019,"name":"Parang","stateId":1345,"stateCode":"03","stateName":"Central Luzon","countryId":174,"countryCode":"PH","countryName":"Philippines","latitude":"14.63310000","longitude":"120.44930000","wikiDataId":"Q31463291"},{"id":84025,"name":"Parista","stateId":1345,"stateCode":"03","stateName":"Central Luzon","countryId":174,"countryCode":"PH","countryName":"Philippines","latitude":"15.85360000","longitude":"120.92820000","wikiDataId":"Q31463459"},{"id":84056,"name":"Pau","stateId":1345,"stateCode":"03","stateName":"Central Luzon","countryId":174,"countryCode":"PH","countryName":"Philippines","latitude":"15.02790000","longitude":"120.72430000","wikiDataId":"Q31465013"},{"id":84078,"name":"Peñaranda","stateId":1345,"stateCode":"03","stateName":"Central Luzon","countryId":174,"countryCode":"PH","countryName":"Philippines","latitude":"15.35116000","longitude":"121.00393000","wikiDataId":"Q55568"},{"id":84081,"name":"Pias","stateId":1345,"stateCode":"03","stateName":"Central Luzon","countryId":174,"countryCode":"PH","countryName":"Philippines","latitude":"15.34525000","longitude":"121.07473000","wikiDataId":"Q31467495"},{"id":84091,"name":"Pilar","stateId":1345,"stateCode":"03","stateName":"Central Luzon","countryId":174,"countryCode":"PH","countryName":"Philippines","latitude":"14.66000000","longitude":"120.56528000","wikiDataId":"Q54464"},{"id":84127,"name":"Piñahan","stateId":1345,"stateCode":"03","stateName":"Central Luzon","countryId":174,"countryCode":"PH","countryName":"Philippines","latitude":"15.62660000","longitude":"121.06210000","wikiDataId":"Q31471792"},{"id":84104,"name":"Pinambaran","stateId":1345,"stateCode":"03","stateName":"Central Luzon","countryId":174,"countryCode":"PH","countryName":"Philippines","latitude":"15.20233000","longitude":"120.97797000","wikiDataId":"Q31468999"},{"id":84118,"name":"Pio","stateId":1345,"stateCode":"03","stateName":"Central Luzon","countryId":174,"countryCode":"PH","countryName":"Philippines","latitude":"15.04741000","longitude":"120.51891000","wikiDataId":"Q31470807"},{"id":84131,"name":"Plaridel","stateId":1345,"stateCode":"03","stateName":"Central Luzon","countryId":174,"countryCode":"PH","countryName":"Philippines","latitude":"14.88722000","longitude":"120.85722000","wikiDataId":"Q54760"},{"id":84137,"name":"Poblacion San Felipe","stateId":1345,"stateCode":"03","stateName":"Central Luzon","countryId":174,"countryCode":"PH","countryName":"Philippines","latitude":"15.06222000","longitude":"120.07000000","wikiDataId":"Q31472259"},{"id":84163,"name":"Porac","stateId":1345,"stateCode":"03","stateName":"Central Luzon","countryId":174,"countryCode":"PH","countryName":"Philippines","latitude":"15.07110000","longitude":"120.54230000","wikiDataId":"Q55721"},{"id":84164,"name":"Porais","stateId":1345,"stateCode":"03","stateName":"Central Luzon","countryId":174,"countryCode":"PH","countryName":"Philippines","latitude":"15.75510000","longitude":"121.04270000","wikiDataId":"Q31475385"},{"id":84171,"name":"Prado Siongco","stateId":1345,"stateCode":"03","stateName":"Central Luzon","countryId":174,"countryCode":"PH","countryName":"Philippines","latitude":"14.87900000","longitude":"120.51292000","wikiDataId":"Q31477207"},{"id":84187,"name":"Province of Aurora","stateId":1345,"stateCode":"03","stateName":"Central Luzon","countryId":174,"countryCode":"PH","countryName":"Philippines","latitude":"15.98773000","longitude":"121.58020000","wikiDataId":"Q13730"},{"id":84189,"name":"Province of Bataan","stateId":1345,"stateCode":"03","stateName":"Central Luzon","countryId":174,"countryCode":"PH","countryName":"Philippines","latitude":"14.66667000","longitude":"120.41667000","wikiDataId":"Q13739"},{"id":84194,"name":"Province of Bulacan","stateId":1345,"stateCode":"03","stateName":"Central Luzon","countryId":174,"countryCode":"PH","countryName":"Philippines","latitude":"15.00000000","longitude":"121.08333000","wikiDataId":"Q13755"},{"id":84229,"name":"Province of Nueva Ecija","stateId":1345,"stateCode":"03","stateName":"Central Luzon","countryId":174,"countryCode":"PH","countryName":"Philippines","latitude":"15.58333000","longitude":"121.00000000","wikiDataId":"Q13865"},{"id":84232,"name":"Province of Pampanga","stateId":1345,"stateCode":"03","stateName":"Central Luzon","countryId":174,"countryCode":"PH","countryName":"Philippines","latitude":"15.06667000","longitude":"120.66667000","wikiDataId":"Q13870"},{"id":84248,"name":"Province of Tarlac","stateId":1345,"stateCode":"03","stateName":"Central Luzon","countryId":174,"countryCode":"PH","countryName":"Philippines","latitude":"15.50000000","longitude":"120.50000000","wikiDataId":"Q13892"},{"id":84250,"name":"Province of Zambales","stateId":1345,"stateCode":"03","stateName":"Central Luzon","countryId":174,"countryCode":"PH","countryName":"Philippines","latitude":"15.33333000","longitude":"120.16667000","wikiDataId":"Q13895"},{"id":84263,"name":"Pulilan","stateId":1345,"stateCode":"03","stateName":"Central Luzon","countryId":174,"countryCode":"PH","countryName":"Philippines","latitude":"14.90167000","longitude":"120.84917000","wikiDataId":"Q54761"},{"id":84265,"name":"Pulo","stateId":1345,"stateCode":"03","stateName":"Central Luzon","countryId":174,"countryCode":"PH","countryName":"Philippines","latitude":"14.96220000","longitude":"121.01470000","wikiDataId":"Q31479764"},{"id":84266,"name":"Pulong Gubat","stateId":1345,"stateCode":"03","stateName":"Central Luzon","countryId":174,"countryCode":"PH","countryName":"Philippines","latitude":"14.85938000","longitude":"120.90599000","wikiDataId":"Q31479850"},{"id":84267,"name":"Pulong Sampalok","stateId":1345,"stateCode":"03","stateName":"Central Luzon","countryId":174,"countryCode":"PH","countryName":"Philippines","latitude":"14.96110000","longitude":"121.06090000","wikiDataId":"Q31479873"},{"id":84270,"name":"Pulung Santol","stateId":1345,"stateCode":"03","stateName":"Central Luzon","countryId":174,"countryCode":"PH","countryName":"Philippines","latitude":"15.04574000","longitude":"120.56188000","wikiDataId":"Q31479957"},{"id":84271,"name":"Pulungmasle","stateId":1345,"stateCode":"03","stateName":"Central Luzon","countryId":174,"countryCode":"PH","countryName":"Philippines","latitude":"15.00040000","longitude":"120.55774000","wikiDataId":"Q31479980"},{"id":84276,"name":"Puncan","stateId":1345,"stateCode":"03","stateName":"Central Luzon","countryId":174,"countryCode":"PH","countryName":"Philippines","latitude":"15.90710000","longitude":"120.99070000","wikiDataId":"Q31480226"},{"id":84283,"name":"Pura","stateId":1345,"stateCode":"03","stateName":"Central Luzon","countryId":174,"countryCode":"PH","countryName":"Philippines","latitude":"15.62480000","longitude":"120.64800000","wikiDataId":"Q56461"},{"id":84284,"name":"Purac","stateId":1345,"stateCode":"03","stateName":"Central Luzon","countryId":174,"countryCode":"PH","countryName":"Philippines","latitude":"15.25200000","longitude":"120.01690000","wikiDataId":"Q31480571"},{"id":84292,"name":"Putlod","stateId":1345,"stateCode":"03","stateName":"Central Luzon","countryId":174,"countryCode":"PH","countryName":"Philippines","latitude":"15.37060000","longitude":"120.86750000","wikiDataId":"Q31481018"},{"id":84294,"name":"Quezon","stateId":1345,"stateCode":"03","stateName":"Central Luzon","countryId":174,"countryCode":"PH","countryName":"Philippines","latitude":"15.55120000","longitude":"120.81470000","wikiDataId":"Q55569"},{"id":84321,"name":"Rajal Norte","stateId":1345,"stateCode":"03","stateName":"Central Luzon","countryId":174,"countryCode":"PH","countryName":"Philippines","latitude":"15.44485000","longitude":"120.86256000","wikiDataId":"Q31483599"},{"id":84325,"name":"Ramos","stateId":1345,"stateCode":"03","stateName":"Central Luzon","countryId":174,"countryCode":"PH","countryName":"Philippines","latitude":"15.66530000","longitude":"120.64060000","wikiDataId":"Q56465"},{"id":84347,"name":"Rizal","stateId":1345,"stateCode":"03","stateName":"Central Luzon","countryId":174,"countryCode":"PH","countryName":"Philippines","latitude":"15.71180000","longitude":"121.10610000","wikiDataId":"Q55570"},{"id":84367,"name":"Sabang","stateId":1345,"stateCode":"03","stateName":"Central Luzon","countryId":174,"countryCode":"PH","countryName":"Philippines","latitude":"14.69510000","longitude":"120.25070000","wikiDataId":"Q31497243"},{"id":84381,"name":"Sagana","stateId":1345,"stateCode":"03","stateName":"Central Luzon","countryId":174,"countryCode":"PH","countryName":"Philippines","latitude":"15.56890000","longitude":"121.15220000","wikiDataId":"Q31498115"},{"id":84401,"name":"Salapungan","stateId":1345,"stateCode":"03","stateName":"Central Luzon","countryId":174,"countryCode":"PH","countryName":"Philippines","latitude":"15.13390000","longitude":"120.92794000","wikiDataId":"Q31499357"},{"id":84404,"name":"Salaza","stateId":1345,"stateCode":"03","stateName":"Central Luzon","countryId":174,"countryCode":"PH","countryName":"Philippines","latitude":"15.45410000","longitude":"119.95530000","wikiDataId":"Q31499481"},{"id":84407,"name":"Salcedo","stateId":1345,"stateCode":"03","stateName":"Central Luzon","countryId":174,"countryCode":"PH","countryName":"Philippines","latitude":"15.85722000","longitude":"120.60000000","wikiDataId":"Q31499541"},{"id":84422,"name":"Salvacion I","stateId":1345,"stateCode":"03","stateName":"Central Luzon","countryId":174,"countryCode":"PH","countryName":"Philippines","latitude":"15.83960000","longitude":"120.91590000","wikiDataId":"Q31500670"},{"id":84425,"name":"Samal","stateId":1345,"stateCode":"03","stateName":"Central Luzon","countryId":174,"countryCode":"PH","countryName":"Philippines","latitude":"14.76778000","longitude":"120.54306000","wikiDataId":"Q54465"},{"id":84432,"name":"Sampaloc","stateId":1345,"stateCode":"03","stateName":"Central Luzon","countryId":174,"countryCode":"PH","countryName":"Philippines","latitude":"15.81667000","longitude":"120.86667000","wikiDataId":"Q31501194"},{"id":84439,"name":"San Agustin","stateId":1345,"stateCode":"03","stateName":"Central Luzon","countryId":174,"countryCode":"PH","countryName":"Philippines","latitude":"14.93333000","longitude":"120.15000000","wikiDataId":"Q31501522"},{"id":84440,"name":"San Alejandro","stateId":1345,"stateCode":"03","stateName":"Central Luzon","countryId":174,"countryCode":"PH","countryName":"Philippines","latitude":"15.56098000","longitude":"120.84896000","wikiDataId":"Q31501607"},{"id":84444,"name":"San Andres","stateId":1345,"stateCode":"03","stateName":"Central Luzon","countryId":174,"countryCode":"PH","countryName":"Philippines","latitude":"15.71928000","longitude":"120.77752000","wikiDataId":"Q31501730"},{"id":84445,"name":"San Anton","stateId":1345,"stateCode":"03","stateName":"Central Luzon","countryId":174,"countryCode":"PH","countryName":"Philippines","latitude":"15.34780000","longitude":"120.91991000","wikiDataId":"Q31501897"},{"id":84448,"name":"San Antonio","stateId":1345,"stateCode":"03","stateName":"Central Luzon","countryId":174,"countryCode":"PH","countryName":"Philippines","latitude":"14.94659000","longitude":"120.08673000","wikiDataId":"Q56581"},{"id":84454,"name":"San Basilio","stateId":1345,"stateCode":"03","stateName":"Central Luzon","countryId":174,"countryCode":"PH","countryName":"Philippines","latitude":"15.03341000","longitude":"120.58427000","wikiDataId":"Q31502417"},{"id":84456,"name":"San Benito","stateId":1345,"stateCode":"03","stateName":"Central Luzon","countryId":174,"countryCode":"PH","countryName":"Philippines","latitude":"14.85155000","longitude":"120.42693000","wikiDataId":"Q31502439"},{"id":84458,"name":"San Carlos","stateId":1345,"stateCode":"03","stateName":"Central Luzon","countryId":174,"countryCode":"PH","countryName":"Philippines","latitude":"15.03966000","longitude":"120.76285000","wikiDataId":"Q31502622"},{"id":84461,"name":"San Casimiro","stateId":1345,"stateCode":"03","stateName":"Central Luzon","countryId":174,"countryCode":"PH","countryName":"Philippines","latitude":"15.55306000","longitude":"120.78083000","wikiDataId":"Q31502676"},{"id":84463,"name":"San Clemente","stateId":1345,"stateCode":"03","stateName":"Central Luzon","countryId":174,"countryCode":"PH","countryName":"Philippines","latitude":"15.71240000","longitude":"120.35900000","wikiDataId":"Q56471"},{"id":84464,"name":"San Cristobal","stateId":1345,"stateCode":"03","stateName":"Central Luzon","countryId":174,"countryCode":"PH","countryName":"Philippines","latitude":"15.55382000","longitude":"120.76703000","wikiDataId":"Q31502784"},{"id":84472,"name":"San Fabian","stateId":1345,"stateCode":"03","stateName":"Central Luzon","countryId":174,"countryCode":"PH","countryName":"Philippines","latitude":"15.59629000","longitude":"120.90663000","wikiDataId":"Q31503132"},{"id":84475,"name":"San Felipe","stateId":1345,"stateCode":"03","stateName":"Central Luzon","countryId":174,"countryCode":"PH","countryName":"Philippines","latitude":"15.82608000","longitude":"120.59755000","wikiDataId":"Q31503190"},{"id":84476,"name":"San Felipe Old","stateId":1345,"stateCode":"03","stateName":"Central Luzon","countryId":174,"countryCode":"PH","countryName":"Philippines","latitude":"15.50140000","longitude":"120.90780000","wikiDataId":"Q31503209"},{"id":84481,"name":"San Fernando","stateId":1345,"stateCode":"03","stateName":"Central Luzon","countryId":174,"countryCode":"PH","countryName":"Philippines","latitude":"15.03425000","longitude":"120.68445000","wikiDataId":"Q55740"},{"id":84490,"name":"San Francisco","stateId":1345,"stateCode":"03","stateName":"Central Luzon","countryId":174,"countryCode":"PH","countryName":"Philippines","latitude":"15.35566000","longitude":"120.84001000","wikiDataId":"Q31503705"},{"id":84497,"name":"San Ildefonso","stateId":1345,"stateCode":"03","stateName":"Central Luzon","countryId":174,"countryCode":"PH","countryName":"Philippines","latitude":"15.08090000","longitude":"120.94100000","wikiDataId":"Q31503998"},{"id":84504,"name":"San Isidro","stateId":1345,"stateCode":"03","stateName":"Central Luzon","countryId":174,"countryCode":"PH","countryName":"Philippines","latitude":"15.02116000","longitude":"120.82019000","wikiDataId":"Q31504314"},{"id":84506,"name":"San Jacinto","stateId":1345,"stateCode":"03","stateName":"Central Luzon","countryId":174,"countryCode":"PH","countryName":"Philippines","latitude":"15.54496000","longitude":"120.66959000","wikiDataId":"Q31504622"},{"id":84518,"name":"San Jose","stateId":1345,"stateCode":"03","stateName":"Central Luzon","countryId":174,"countryCode":"PH","countryName":"Philippines","latitude":"15.03330000","longitude":"120.78330000","wikiDataId":"Q31505035"},{"id":84523,"name":"San Jose del Monte","stateId":1345,"stateCode":"03","stateName":"Central Luzon","countryId":174,"countryCode":"PH","countryName":"Philippines","latitude":"14.81389000","longitude":"121.04528000","wikiDataId":"Q2193"},{"id":84526,"name":"San Juan","stateId":1345,"stateCode":"03","stateName":"Central Luzon","countryId":174,"countryCode":"PH","countryName":"Philippines","latitude":"15.28970000","longitude":"120.06480000","wikiDataId":"Q31505445"},{"id":84532,"name":"San Juan de Mata","stateId":1345,"stateCode":"03","stateName":"Central Luzon","countryId":174,"countryCode":"PH","countryName":"Philippines","latitude":"15.53520000","longitude":"120.53020000","wikiDataId":"Q31505659"},{"id":84534,"name":"San Leonardo","stateId":1345,"stateCode":"03","stateName":"Central Luzon","countryId":174,"countryCode":"PH","countryName":"Philippines","latitude":"15.36300000","longitude":"120.96390000","wikiDataId":"Q55573"},{"id":84536,"name":"San Lorenzo","stateId":1345,"stateCode":"03","stateName":"Central Luzon","countryId":174,"countryCode":"PH","countryName":"Philippines","latitude":"15.48620000","longitude":"119.96220000","wikiDataId":"Q31505849"},{"id":84541,"name":"San Luis","stateId":1345,"stateCode":"03","stateName":"Central Luzon","countryId":174,"countryCode":"PH","countryName":"Philippines","latitude":"15.04010000","longitude":"120.78830000","wikiDataId":"Q55724"},{"id":84546,"name":"San Manuel","stateId":1345,"stateCode":"03","stateName":"Central Luzon","countryId":174,"countryCode":"PH","countryName":"Philippines","latitude":"15.49053000","longitude":"120.66543000","wikiDataId":"Q31506092"},{"id":84547,"name":"San Marcelino","stateId":1345,"stateCode":"03","stateName":"Central Luzon","countryId":174,"countryCode":"PH","countryName":"Philippines","latitude":"14.97418000","longitude":"120.15733000","wikiDataId":"Q56623"},{"id":84548,"name":"San Mariano","stateId":1345,"stateCode":"03","stateName":"Central Luzon","countryId":174,"countryCode":"PH","countryName":"Philippines","latitude":"15.32083000","longitude":"120.87609000","wikiDataId":"Q31506235"},{"id":84553,"name":"San Mateo","stateId":1345,"stateCode":"03","stateName":"Central Luzon","countryId":174,"countryCode":"PH","countryName":"Philippines","latitude":"15.20008000","longitude":"120.79460000","wikiDataId":"Q31506374"},{"id":84559,"name":"San Miguel","stateId":1345,"stateCode":"03","stateName":"Central Luzon","countryId":174,"countryCode":"PH","countryName":"Philippines","latitude":"15.14230000","longitude":"120.97568000","wikiDataId":"Q54763"},{"id":84568,"name":"San Narciso","stateId":1345,"stateCode":"03","stateName":"Central Luzon","countryId":174,"countryCode":"PH","countryName":"Philippines","latitude":"15.01430000","longitude":"120.08030000","wikiDataId":"Q56647"},{"id":84573,"name":"San Nicolas","stateId":1345,"stateCode":"03","stateName":"Central Luzon","countryId":174,"countryCode":"PH","countryName":"Philippines","latitude":"15.58410000","longitude":"120.67650000","wikiDataId":"Q31507058"},{"id":84580,"name":"San Pascual","stateId":1345,"stateCode":"03","stateName":"Central Luzon","countryId":174,"countryCode":"PH","countryName":"Philippines","latitude":"15.50152000","longitude":"120.66718000","wikiDataId":"Q31507290"},{"id":84581,"name":"San Patricio","stateId":1345,"stateCode":"03","stateName":"Central Luzon","countryId":174,"countryCode":"PH","countryName":"Philippines","latitude":"15.09775000","longitude":"120.72876000","wikiDataId":"Q31507345"},{"id":84597,"name":"San Rafael","stateId":1345,"stateCode":"03","stateName":"Central Luzon","countryId":174,"countryCode":"PH","countryName":"Philippines","latitude":"14.89906000","longitude":"120.69352000","wikiDataId":"Q31507741"},{"id":84604,"name":"San Ricardo","stateId":1345,"stateCode":"03","stateName":"Central Luzon","countryId":174,"countryCode":"PH","countryName":"Philippines","latitude":"15.59590000","longitude":"120.97270000","wikiDataId":"Q31507974"},{"id":84608,"name":"San Roque","stateId":1345,"stateCode":"03","stateName":"Central Luzon","countryId":174,"countryCode":"PH","countryName":"Philippines","latitude":"15.00946000","longitude":"120.93831000","wikiDataId":"Q31508116"},{"id":84610,"name":"San Roque Dau First","stateId":1345,"stateCode":"03","stateName":"Central Luzon","countryId":174,"countryCode":"PH","countryName":"Philippines","latitude":"14.97711000","longitude":"120.57688000","wikiDataId":"Q31508188"},{"id":84615,"name":"San Simon","stateId":1345,"stateCode":"03","stateName":"Central Luzon","countryId":174,"countryCode":"PH","countryName":"Philippines","latitude":"14.99960000","longitude":"120.78080000","wikiDataId":"Q55725"},{"id":84622,"name":"San Vicente","stateId":1345,"stateCode":"03","stateName":"Central Luzon","countryId":174,"countryCode":"PH","countryName":"Philippines","latitude":"15.29210000","longitude":"120.65498000","wikiDataId":"Q31508678"},{"id":84626,"name":"San Vincente","stateId":1345,"stateCode":"03","stateName":"Central Luzon","countryId":174,"countryCode":"PH","countryName":"Philippines","latitude":"13.40680000","longitude":"121.17500000","wikiDataId":"Q31508815"},{"id":84638,"name":"Santa Ana","stateId":1345,"stateCode":"03","stateName":"Central Luzon","countryId":174,"countryCode":"PH","countryName":"Philippines","latitude":"15.09550000","longitude":"120.76700000","wikiDataId":"Q55727"},{"id":84644,"name":"Santa Barbara","stateId":1345,"stateCode":"03","stateName":"Central Luzon","countryId":174,"countryCode":"PH","countryName":"Philippines","latitude":"15.38494000","longitude":"120.79611000","wikiDataId":"Q31510217"},{"id":84660,"name":"Santa Cruz","stateId":1345,"stateCode":"03","stateName":"Central Luzon","countryId":174,"countryCode":"PH","countryName":"Philippines","latitude":"15.76540000","longitude":"119.90920000","wikiDataId":"Q56656"},{"id":84668,"name":"Santa Fe","stateId":1345,"stateCode":"03","stateName":"Central Luzon","countryId":174,"countryCode":"PH","countryName":"Philippines","latitude":"15.01030000","longitude":"120.21020000","wikiDataId":"Q31510946"},{"id":84672,"name":"Santa Ignacia","stateId":1345,"stateCode":"03","stateName":"Central Luzon","countryId":174,"countryCode":"PH","countryName":"Philippines","latitude":"15.61690000","longitude":"120.43580000","wikiDataId":"Q31511083"},{"id":84673,"name":"Santa Ines West","stateId":1345,"stateCode":"03","stateName":"Central Luzon","countryId":174,"countryCode":"PH","countryName":"Philippines","latitude":"15.55694000","longitude":"120.46448000","wikiDataId":"Q31511136"},{"id":84675,"name":"Santa Juliana","stateId":1345,"stateCode":"03","stateName":"Central Luzon","countryId":174,"countryCode":"PH","countryName":"Philippines","latitude":"15.32826000","longitude":"120.42863000","wikiDataId":"Q31511186"},{"id":84679,"name":"Santa Lucia","stateId":1345,"stateCode":"03","stateName":"Central Luzon","countryId":174,"countryCode":"PH","countryName":"Philippines","latitude":"15.36806000","longitude":"120.48643000","wikiDataId":"Q31511287"},{"id":84686,"name":"Santa Maria","stateId":1345,"stateCode":"03","stateName":"Central Luzon","countryId":174,"countryCode":"PH","countryName":"Philippines","latitude":"15.52320000","longitude":"120.79250000","wikiDataId":"Q31511547"},{"id":84692,"name":"Santa Monica","stateId":1345,"stateCode":"03","stateName":"Central Luzon","countryId":174,"countryCode":"PH","countryName":"Philippines","latitude":"15.35771000","longitude":"120.72006000","wikiDataId":"Q31511728"},{"id":84697,"name":"Santa Rita","stateId":1345,"stateCode":"03","stateName":"Central Luzon","countryId":174,"countryCode":"PH","countryName":"Philippines","latitude":"14.99930000","longitude":"120.61170000","wikiDataId":"Q55730"},{"id":84700,"name":"Santa Rosa","stateId":1345,"stateCode":"03","stateName":"Central Luzon","countryId":174,"countryCode":"PH","countryName":"Philippines","latitude":"15.42380000","longitude":"120.93780000","wikiDataId":"Q55590"},{"id":84704,"name":"Santa Teresa First","stateId":1345,"stateCode":"03","stateName":"Central Luzon","countryId":174,"countryCode":"PH","countryName":"Philippines","latitude":"14.92650000","longitude":"120.55791000","wikiDataId":"Q31512135"},{"id":84714,"name":"Santiago","stateId":1345,"stateCode":"03","stateName":"Central Luzon","countryId":174,"countryCode":"PH","countryName":"Philippines","latitude":"14.90371000","longitude":"120.51134000","wikiDataId":"Q31512351"},{"id":84717,"name":"Santo Cristo","stateId":1345,"stateCode":"03","stateName":"Central Luzon","countryId":174,"countryCode":"PH","countryName":"Philippines","latitude":"15.29683000","longitude":"120.89025000","wikiDataId":"Q31512445"},{"id":84719,"name":"Santo Domingo","stateId":1345,"stateCode":"03","stateName":"Central Luzon","countryId":174,"countryCode":"PH","countryName":"Philippines","latitude":"14.99120000","longitude":"120.74341000","wikiDataId":"Q31512566"},{"id":84725,"name":"Santo Niño","stateId":1345,"stateCode":"03","stateName":"Central Luzon","countryId":174,"countryCode":"PH","countryName":"Philippines","latitude":"15.33433000","longitude":"120.62619000","wikiDataId":"Q31512803"},{"id":84729,"name":"Santo Rosario","stateId":1345,"stateCode":"03","stateName":"Central Luzon","countryId":174,"countryCode":"PH","countryName":"Philippines","latitude":"15.64470000","longitude":"120.86120000","wikiDataId":"Q31512879"},{"id":84734,"name":"Santo Tomas","stateId":1345,"stateCode":"03","stateName":"Central Luzon","countryId":174,"countryCode":"PH","countryName":"Philippines","latitude":"15.74977000","longitude":"120.96241000","wikiDataId":"Q31512980"},{"id":84737,"name":"Santol","stateId":1345,"stateCode":"03","stateName":"Central Luzon","countryId":174,"countryCode":"PH","countryName":"Philippines","latitude":"15.16222000","longitude":"120.56750000","wikiDataId":"Q31513133"},{"id":84742,"name":"Sapang","stateId":1345,"stateCode":"03","stateName":"Central Luzon","countryId":174,"countryCode":"PH","countryName":"Philippines","latitude":"15.70320000","longitude":"120.52450000","wikiDataId":"Q31513336"},{"id":84743,"name":"Sapang Buho","stateId":1345,"stateCode":"03","stateName":"Central Luzon","countryId":174,"countryCode":"PH","countryName":"Philippines","latitude":"15.59038000","longitude":"121.12454000","wikiDataId":"Q31513352"},{"id":84746,"name":"Sapol","stateId":1345,"stateCode":"03","stateName":"Central Luzon","countryId":174,"countryCode":"PH","countryName":"Philippines","latitude":"13.36500000","longitude":"121.18930000","wikiDataId":"Q31513453"},{"id":84755,"name":"Saysain","stateId":1345,"stateCode":"03","stateName":"Central Luzon","countryId":174,"countryCode":"PH","countryName":"Philippines","latitude":"14.56111000","longitude":"120.39250000","wikiDataId":"Q31514323"},{"id":84762,"name":"Sexmoan","stateId":1345,"stateCode":"03","stateName":"Central Luzon","countryId":174,"countryCode":"PH","countryName":"Philippines","latitude":"14.94380000","longitude":"120.62290000","wikiDataId":"Q55734"},{"id":84774,"name":"Sibul","stateId":1345,"stateCode":"03","stateName":"Central Luzon","countryId":174,"countryCode":"PH","countryName":"Philippines","latitude":"15.16900000","longitude":"121.06160000","wikiDataId":"Q31518590"},{"id":84780,"name":"Siclong","stateId":1345,"stateCode":"03","stateName":"Central Luzon","countryId":174,"countryCode":"PH","countryName":"Philippines","latitude":"15.58080000","longitude":"121.22390000","wikiDataId":"Q31518810"},{"id":84808,"name":"Sinait","stateId":1345,"stateCode":"03","stateName":"Central Luzon","countryId":174,"countryCode":"PH","countryName":"Philippines","latitude":"15.53670000","longitude":"120.58510000","wikiDataId":"Q31520763"},{"id":84815,"name":"Sinilian First","stateId":1345,"stateCode":"03","stateName":"Central Luzon","countryId":174,"countryCode":"PH","countryName":"Philippines","latitude":"15.69327000","longitude":"120.45936000","wikiDataId":"Q31520980"},{"id":84843,"name":"Soledad","stateId":1345,"stateCode":"03","stateName":"Central Luzon","countryId":174,"countryCode":"PH","countryName":"Philippines","latitude":"15.42838000","longitude":"120.98355000","wikiDataId":"Q31526812"},{"id":84854,"name":"Subic","stateId":1345,"stateCode":"03","stateName":"Central Luzon","countryId":174,"countryCode":"PH","countryName":"Philippines","latitude":"14.87870000","longitude":"120.23194000","wikiDataId":"Q31535887"},{"id":84863,"name":"Suklayin","stateId":1345,"stateCode":"03","stateName":"Central Luzon","countryId":174,"countryCode":"PH","countryName":"Philippines","latitude":"15.75740000","longitude":"121.55030000","wikiDataId":"Q31536835"},{"id":84864,"name":"Sula","stateId":1345,"stateCode":"03","stateName":"Central Luzon","countryId":174,"countryCode":"PH","countryName":"Philippines","latitude":"15.45725000","longitude":"120.39553000","wikiDataId":"Q31536869"},{"id":84872,"name":"Sulucan","stateId":1345,"stateCode":"03","stateName":"Central Luzon","countryId":174,"countryCode":"PH","countryName":"Philippines","latitude":"14.79448000","longitude":"120.92594000","wikiDataId":"Q31537386"},{"id":84890,"name":"Tabacao","stateId":1345,"stateCode":"03","stateName":"Central Luzon","countryId":174,"countryCode":"PH","countryName":"Philippines","latitude":"15.64973000","longitude":"120.94066000","wikiDataId":"Q31540733"},{"id":84906,"name":"Tabon","stateId":1345,"stateCode":"03","stateName":"Central Luzon","countryId":174,"countryCode":"PH","countryName":"Philippines","latitude":"15.27098000","longitude":"120.91273000","wikiDataId":"Q31541264"},{"id":84912,"name":"Tabuating","stateId":1345,"stateCode":"03","stateName":"Central Luzon","countryId":174,"countryCode":"PH","countryName":"Philippines","latitude":"15.39210000","longitude":"120.94084000","wikiDataId":"Q31541367"},{"id":84957,"name":"Tal I Mun Doc","stateId":1345,"stateCode":"03","stateName":"Central Luzon","countryId":174,"countryCode":"PH","countryName":"Philippines","latitude":"15.21210000","longitude":"120.68490000","wikiDataId":"Q31543084"},{"id":84962,"name":"Talaga","stateId":1345,"stateCode":"03","stateName":"Central Luzon","countryId":174,"countryCode":"PH","countryName":"Philippines","latitude":"15.38403000","longitude":"120.58933000","wikiDataId":"Q31543215"},{"id":84970,"name":"Talang","stateId":1345,"stateCode":"03","stateName":"Central Luzon","countryId":174,"countryCode":"PH","countryName":"Philippines","latitude":"15.02488000","longitude":"120.83782000","wikiDataId":"Q31543442"},{"id":84972,"name":"Talavera","stateId":1345,"stateCode":"03","stateName":"Central Luzon","countryId":174,"countryCode":"PH","countryName":"Philippines","latitude":"15.58830000","longitude":"120.91920000","wikiDataId":"Q55592"},{"id":84996,"name":"Taltal","stateId":1345,"stateCode":"03","stateName":"Central Luzon","countryId":174,"countryCode":"PH","countryName":"Philippines","latitude":"15.58780000","longitude":"119.94550000","wikiDataId":"Q31544528"},{"id":84998,"name":"Talugtug","stateId":1345,"stateCode":"03","stateName":"Central Luzon","countryId":174,"countryCode":"PH","countryName":"Philippines","latitude":"15.77780000","longitude":"120.81110000","wikiDataId":"Q55593"},{"id":85056,"name":"Tariji","stateId":1345,"stateCode":"03","stateName":"Central Luzon","countryId":174,"countryCode":"PH","countryName":"Philippines","latitude":"15.52112000","longitude":"120.61442000","wikiDataId":"Q31546744"},{"id":85058,"name":"Tarlac City","stateId":1345,"stateCode":"03","stateName":"Central Luzon","countryId":174,"countryCode":"PH","countryName":"Philippines","latitude":"15.48017000","longitude":"120.59794000","wikiDataId":"Q5285"},{"id":85061,"name":"Tartaro","stateId":1345,"stateCode":"03","stateName":"Central Luzon","countryId":174,"countryCode":"PH","countryName":"Philippines","latitude":"15.16667000","longitude":"121.01667000","wikiDataId":"Q314745"},{"id":85070,"name":"Tayabo","stateId":1345,"stateCode":"03","stateName":"Central Luzon","countryId":174,"countryCode":"PH","countryName":"Philippines","latitude":"15.83450000","longitude":"121.03090000","wikiDataId":"Q31547807"},{"id":85086,"name":"Telabastagan","stateId":1345,"stateCode":"03","stateName":"Central Luzon","countryId":174,"countryCode":"PH","countryName":"Philippines","latitude":"15.11854000","longitude":"120.60773000","wikiDataId":"Q31549292"},{"id":85119,"name":"Tikiw","stateId":1345,"stateCode":"03","stateName":"Central Luzon","countryId":174,"countryCode":"PH","countryName":"Philippines","latitude":"15.31193000","longitude":"120.86116000","wikiDataId":"Q31556107"},{"id":85131,"name":"Tinang","stateId":1345,"stateCode":"03","stateName":"Central Luzon","countryId":174,"countryCode":"PH","countryName":"Philippines","latitude":"15.37626000","longitude":"120.65343000","wikiDataId":"Q31556797"},{"id":85166,"name":"Tondod","stateId":1345,"stateCode":"03","stateName":"Central Luzon","countryId":174,"countryCode":"PH","countryName":"Philippines","latitude":"15.71820000","longitude":"120.96800000","wikiDataId":"Q31558899"},{"id":85239,"name":"Uacon","stateId":1345,"stateCode":"03","stateName":"Central Luzon","countryId":174,"countryCode":"PH","countryName":"Philippines","latitude":"15.67870000","longitude":"119.94030000","wikiDataId":"Q31567197"},{"id":85251,"name":"Umiray","stateId":1345,"stateCode":"03","stateName":"Central Luzon","countryId":174,"countryCode":"PH","countryName":"Philippines","latitude":"15.22060000","longitude":"121.41110000","wikiDataId":"Q31567719"},{"id":85264,"name":"Upig","stateId":1345,"stateCode":"03","stateName":"Central Luzon","countryId":174,"countryCode":"PH","countryName":"Philippines","latitude":"15.02551000","longitude":"120.99193000","wikiDataId":"Q31568731"},{"id":85281,"name":"Vargas","stateId":1345,"stateCode":"03","stateName":"Central Luzon","countryId":174,"countryCode":"PH","countryName":"Philippines","latitude":"15.59332000","longitude":"120.48709000","wikiDataId":"Q31571431"},{"id":85292,"name":"Villa Aglipay","stateId":1345,"stateCode":"03","stateName":"Central Luzon","countryId":174,"countryCode":"PH","countryName":"Philippines","latitude":"15.46605000","longitude":"120.45273000","wikiDataId":"Q31572888"},{"id":85293,"name":"Villa Isla","stateId":1345,"stateCode":"03","stateName":"Central Luzon","countryId":174,"countryCode":"PH","countryName":"Philippines","latitude":"15.77030000","longitude":"120.86660000","wikiDataId":"Q31572920"},{"id":85310,"name":"Vizal San Pablo","stateId":1345,"stateCode":"03","stateName":"Central Luzon","countryId":174,"countryCode":"PH","countryName":"Philippines","latitude":"15.06247000","longitude":"120.90021000","wikiDataId":"Q31574041"},{"id":85311,"name":"Vizal Santo Niño","stateId":1345,"stateCode":"03","stateName":"Central Luzon","countryId":174,"countryCode":"PH","countryName":"Philippines","latitude":"15.02924000","longitude":"120.90505000","wikiDataId":"Q31574057"}]