[{"id":109079,"name":"Ilemela District","stateId":1479,"stateCode":"18","stateName":"Mwanza","countryId":218,"countryCode":"TZ","countryName":"Tanzania","latitude":"-2.44783000","longitude":"33.03177000","wikiDataId":"Q5997545"},{"id":109110,"name":"Kihangara","stateId":1479,"stateCode":"18","stateName":"Mwanza","countryId":218,"countryCode":"TZ","countryName":"Tanzania","latitude":"-2.58333000","longitude":"33.35000000","wikiDataId":"Q244509"},{"id":109171,"name":"Malya","stateId":1479,"stateCode":"18","stateName":"Mwanza","countryId":218,"countryCode":"TZ","countryName":"Tanzania","latitude":"-2.98333000","longitude":"33.51667000","wikiDataId":"Q6272925"},{"id":109199,"name":"Misasi","stateId":1479,"stateCode":"18","stateName":"Mwanza","countryId":218,"countryCode":"TZ","countryName":"Tanzania","latitude":"-3.00000000","longitude":"33.08333000","wikiDataId":"Q6850269"},{"id":109200,"name":"Misungwi","stateId":1479,"stateCode":"18","stateName":"Mwanza","countryId":218,"countryCode":"TZ","countryName":"Tanzania","latitude":"-2.85000000","longitude":"33.08333000","wikiDataId":"Q6850269"},{"id":109232,"name":"Mwanza","stateId":1479,"stateCode":"18","stateName":"Mwanza","countryId":218,"countryCode":"TZ","countryName":"Tanzania","latitude":"-2.51667000","longitude":"32.90000000","wikiDataId":"Q110218"},{"id":109254,"name":"Ngudu","stateId":1479,"stateCode":"18","stateName":"Mwanza","countryId":218,"countryCode":"TZ","countryName":"Tanzania","latitude":"-2.96667000","longitude":"33.33333000","wikiDataId":"Q7192944"},{"id":109267,"name":"Nyanguge","stateId":1479,"stateCode":"18","stateName":"Mwanza","countryId":218,"countryCode":"TZ","countryName":"Tanzania","latitude":"-2.55000000","longitude":"33.20000000","wikiDataId":"Q13124592"},{"id":109294,"name":"Usagara","stateId":1479,"stateCode":"18","stateName":"Mwanza","countryId":218,"countryCode":"TZ","countryName":"Tanzania","latitude":"-2.68333000","longitude":"33.00000000","wikiDataId":"Q49369134"}]