[{"id":31771,"name":"Al Khānkah","stateId":3232,"stateCode":"KB","stateName":"Qalyubia","countryId":65,"countryCode":"EG","countryName":"Egypt","latitude":"30.21035000","longitude":"31.36812000","wikiDataId":"Q23955433"},{"id":31779,"name":"Al Qanāţir al Khayrīyah","stateId":3232,"stateCode":"KB","stateName":"Qalyubia","countryId":65,"countryCode":"EG","countryName":"Egypt","latitude":"30.19327000","longitude":"31.13703000","wikiDataId":"Q23955489"},{"id":31796,"name":"Banhā","stateId":3232,"stateCode":"KB","stateName":"Qalyubia","countryId":65,"countryCode":"EG","countryName":"Egypt","latitude":"30.45977000","longitude":"31.18420000","wikiDataId":"Q336966"},{"id":31851,"name":"Qalyūb","stateId":3232,"stateCode":"KB","stateName":"Qalyubia","countryId":65,"countryCode":"EG","countryName":"Egypt","latitude":"30.17922000","longitude":"31.20560000","wikiDataId":"Q336724"},{"id":31864,"name":"Shibīn al Qanāṭir","stateId":3232,"stateCode":"KB","stateName":"Qalyubia","countryId":65,"countryCode":"EG","countryName":"Egypt","latitude":"30.31269000","longitude":"31.32018000","wikiDataId":"Q31350"},{"id":31873,"name":"Toukh","stateId":3232,"stateCode":"KB","stateName":"Qalyubia","countryId":65,"countryCode":"EG","countryName":"Egypt","latitude":"30.35487000","longitude":"31.20105000","wikiDataId":"Q23934694"}]