[{"id":65965,"name":"Anse La Raye","stateId":3757,"stateCode":"01","stateName":"Anse la Raye Quarter","countryId":186,"countryCode":"LC","countryName":"Saint Lucia","latitude":"13.94619000","longitude":"-61.03879000","wikiDataId":"Q569439"},{"id":65969,"name":"Au Tabor","stateId":3757,"stateCode":"01","stateName":"Anse la Raye Quarter","countryId":186,"countryCode":"LC","countryName":"Saint Lucia","latitude":"13.94540000","longitude":"-61.04112000","wikiDataId":"Q569439"},{"id":65970,"name":"Au Tabor Hill","stateId":3757,"stateCode":"01","stateName":"Anse la Raye Quarter","countryId":186,"countryCode":"LC","countryName":"Saint Lucia","latitude":"13.94457000","longitude":"-61.03559000","wikiDataId":"Q569439"},{"id":66019,"name":"Bois D'Inde","stateId":3757,"stateCode":"01","stateName":"Anse la Raye Quarter","countryId":186,"countryCode":"LC","countryName":"Saint Lucia","latitude":"13.94148000","longitude":"-61.00966000","wikiDataId":"Q569439"},{"id":66037,"name":"Caico/Millet","stateId":3757,"stateCode":"01","stateName":"Anse la Raye Quarter","countryId":186,"countryCode":"LC","countryName":"Saint Lucia","latitude":"13.91948000","longitude":"-60.99264000","wikiDataId":"Q569439"},{"id":66040,"name":"Canaries","stateId":3757,"stateCode":"01","stateName":"Anse la Raye Quarter","countryId":186,"countryCode":"LC","countryName":"Saint Lucia","latitude":"13.90224000","longitude":"-61.06459000","wikiDataId":"Q1032796"},{"id":66064,"name":"Champen Estate","stateId":3757,"stateCode":"01","stateName":"Anse la Raye Quarter","countryId":186,"countryCode":"LC","countryName":"Saint Lucia","latitude":"13.93575000","longitude":"-61.02991000","wikiDataId":"Q41699"},{"id":66112,"name":"Derriere Lagoon","stateId":3757,"stateCode":"01","stateName":"Anse la Raye Quarter","countryId":186,"countryCode":"LC","countryName":"Saint Lucia","latitude":"13.94168000","longitude":"-61.01891000","wikiDataId":"Q3556840"},{"id":66128,"name":"Durandeau","stateId":3757,"stateCode":"01","stateName":"Anse la Raye Quarter","countryId":186,"countryCode":"LC","countryName":"Saint Lucia","latitude":"13.92277000","longitude":"-60.99512000","wikiDataId":"Q3556840"},{"id":66132,"name":"Enbar Pwin","stateId":3757,"stateCode":"01","stateName":"Anse la Raye Quarter","countryId":186,"countryCode":"LC","countryName":"Saint Lucia","latitude":"13.91175000","longitude":"-60.99266000","wikiDataId":"Q3556840"},{"id":66198,"name":"Jacmel","stateId":3757,"stateCode":"01","stateName":"Anse la Raye Quarter","countryId":186,"countryCode":"LC","countryName":"Saint Lucia","latitude":"13.94796000","longitude":"-61.01297000","wikiDataId":"Q3116994"},{"id":66200,"name":"Jean Baptiste","stateId":3757,"stateCode":"01","stateName":"Anse la Raye Quarter","countryId":186,"countryCode":"LC","countryName":"Saint Lucia","latitude":"13.94704000","longitude":"-61.01578000","wikiDataId":"Q3116994"},{"id":66231,"name":"La Trielle","stateId":3757,"stateCode":"01","stateName":"Anse la Raye Quarter","countryId":186,"countryCode":"LC","countryName":"Saint Lucia","latitude":"13.94014000","longitude":"-60.99729000","wikiDataId":"Q3116994"},{"id":66260,"name":"Massacre","stateId":3757,"stateCode":"01","stateName":"Anse la Raye Quarter","countryId":186,"countryCode":"LC","countryName":"Saint Lucia","latitude":"13.94872000","longitude":"-61.03544000","wikiDataId":"Q13220042"},{"id":66266,"name":"Millet","stateId":3757,"stateCode":"01","stateName":"Anse la Raye Quarter","countryId":186,"countryCode":"LC","countryName":"Saint Lucia","latitude":"13.90985000","longitude":"-60.98884000","wikiDataId":"Q11779522"},{"id":66294,"name":"Morne Ciseaux","stateId":3757,"stateCode":"01","stateName":"Anse la Raye Quarter","countryId":186,"countryCode":"LC","countryName":"Saint Lucia","latitude":"13.93597000","longitude":"-61.00330000","wikiDataId":"Q11779522"},{"id":66296,"name":"Morne D'Or","stateId":3757,"stateCode":"01","stateName":"Anse la Raye Quarter","countryId":186,"countryCode":"LC","countryName":"Saint Lucia","latitude":"13.94931000","longitude":"-61.00601000","wikiDataId":"Q11779522"},{"id":66365,"name":"Roseau Valley","stateId":3757,"stateCode":"01","stateName":"Anse la Raye Quarter","countryId":186,"countryCode":"LC","countryName":"Saint Lucia","latitude":"13.95317000","longitude":"-61.02676000","wikiDataId":"Q11779522"},{"id":66381,"name":"St Lawrence","stateId":3757,"stateCode":"01","stateName":"Anse la Raye Quarter","countryId":186,"countryCode":"LC","countryName":"Saint Lucia","latitude":"13.93852000","longitude":"-61.02503000","wikiDataId":"Q493030"},{"id":66382,"name":"St Lawrence Estate","stateId":3757,"stateCode":"01","stateName":"Anse la Raye Quarter","countryId":186,"countryCode":"LC","countryName":"Saint Lucia","latitude":"13.94236000","longitude":"-61.04248000","wikiDataId":"Q493030"},{"id":66392,"name":"Tete Chemin","stateId":3757,"stateCode":"01","stateName":"Anse la Raye Quarter","countryId":186,"countryCode":"LC","countryName":"Saint Lucia","latitude":"13.89092000","longitude":"-60.99785000","wikiDataId":"Q493030"},{"id":66416,"name":"Vanard","stateId":3757,"stateCode":"01","stateName":"Anse la Raye Quarter","countryId":186,"countryCode":"LC","countryName":"Saint Lucia","latitude":"13.93558000","longitude":"-60.99363000","wikiDataId":"Q493030"},{"id":66417,"name":"Venus","stateId":3757,"stateCode":"01","stateName":"Anse la Raye Quarter","countryId":186,"countryCode":"LC","countryName":"Saint Lucia","latitude":"13.91558000","longitude":"-61.01676000","wikiDataId":"Q493030"},{"id":66427,"name":"Village","stateId":3757,"stateCode":"01","stateName":"Anse la Raye Quarter","countryId":186,"countryCode":"LC","countryName":"Saint Lucia","latitude":"13.93939000","longitude":"-61.04150000","wikiDataId":"Q3494579"},{"id":66429,"name":"Village/Petite Bourgh","stateId":3757,"stateCode":"01","stateName":"Anse la Raye Quarter","countryId":186,"countryCode":"LC","countryName":"Saint Lucia","latitude":"13.93801000","longitude":"-61.04184000","wikiDataId":"Q3494579"},{"id":65962,"name":"Anse Cochon","stateId":3761,"stateCode":"12","stateName":"Canaries","countryId":186,"countryCode":"LC","countryName":"Saint Lucia","latitude":"13.92261000","longitude":"-61.05250000","wikiDataId":"Q26569"},{"id":65963,"name":"Anse Galet","stateId":3761,"stateCode":"12","stateName":"Canaries","countryId":186,"countryCode":"LC","countryName":"Saint Lucia","latitude":"13.93221000","longitude":"-61.04290000","wikiDataId":"Q26569"},{"id":65966,"name":"Anse La Verdue","stateId":3761,"stateCode":"12","stateName":"Canaries","countryId":186,"countryCode":"LC","countryName":"Saint Lucia","latitude":"13.90964000","longitude":"-61.04755000","wikiDataId":"Q569439"},{"id":66006,"name":"Belvedere","stateId":3761,"stateCode":"12","stateName":"Canaries","countryId":186,"countryCode":"LC","countryName":"Saint Lucia","latitude":"13.89122000","longitude":"-61.05550000","wikiDataId":"Q569439"},{"id":66063,"name":"Chalon","stateId":3761,"stateCode":"12","stateName":"Canaries","countryId":186,"countryCode":"LC","countryName":"Saint Lucia","latitude":"13.92018000","longitude":"-61.04412000","wikiDataId":"Q41699"},{"id":66359,"name":"Riverside Road","stateId":3761,"stateCode":"12","stateName":"Canaries","countryId":186,"countryCode":"LC","countryName":"Saint Lucia","latitude":"13.89408000","longitude":"-61.04989000","wikiDataId":"Q11779522"},{"id":66397,"name":"Theodrine","stateId":3761,"stateCode":"12","stateName":"Canaries","countryId":186,"countryCode":"LC","countryName":"Saint Lucia","latitude":"13.92878000","longitude":"-61.04972000","wikiDataId":"Q493030"},{"id":66428,"name":"Village","stateId":3761,"stateCode":"12","stateName":"Canaries","countryId":186,"countryCode":"LC","countryName":"Saint Lucia","latitude":"13.90526000","longitude":"-61.06108000","wikiDataId":"Q3494579"},{"id":65956,"name":"Active Hill","stateId":3758,"stateCode":"02","stateName":"Castries Quarter","countryId":186,"countryCode":"LC","countryName":"Saint Lucia","latitude":"14.01940000","longitude":"-60.97767000","wikiDataId":"Q26569"},{"id":65957,"name":"Agard Lands/Morne Dudon","stateId":3758,"stateCode":"02","stateName":"Castries Quarter","countryId":186,"countryCode":"LC","countryName":"Saint Lucia","latitude":"14.00768000","longitude":"-60.96462000","wikiDataId":"Q26569"},{"id":65958,"name":"Almondale","stateId":3758,"stateCode":"02","stateName":"Castries Quarter","countryId":186,"countryCode":"LC","countryName":"Saint Lucia","latitude":"14.01848000","longitude":"-60.96162000","wikiDataId":"Q26569"},{"id":65972,"name":"Aurendel Hill","stateId":3758,"stateCode":"02","stateName":"Castries Quarter","countryId":186,"countryCode":"LC","countryName":"Saint Lucia","latitude":"14.00069000","longitude":"-60.98670000","wikiDataId":"Q569439"},{"id":65973,"name":"Babonneau Proper","stateId":3758,"stateCode":"02","stateName":"Castries Quarter","countryId":186,"countryCode":"LC","countryName":"Saint Lucia","latitude":"14.00535000","longitude":"-60.94640000","wikiDataId":"Q569439"},{"id":65974,"name":"Bagatelle","stateId":3758,"stateCode":"02","stateName":"Castries Quarter","countryId":186,"countryCode":"LC","countryName":"Saint Lucia","latitude":"13.99797000","longitude":"-60.98156000","wikiDataId":"Q569439"},{"id":65975,"name":"Balata","stateId":3758,"stateCode":"02","stateName":"Castries Quarter","countryId":186,"countryCode":"LC","countryName":"Saint Lucia","latitude":"14.01471000","longitude":"-60.95167000","wikiDataId":"Q569439"},{"id":65979,"name":"Banannes Bay","stateId":3758,"stateCode":"02","stateName":"Castries Quarter","countryId":186,"countryCode":"LC","countryName":"Saint Lucia","latitude":"14.01087000","longitude":"-61.00135000","wikiDataId":"Q569439"},{"id":65983,"name":"Barnard Hill","stateId":3758,"stateCode":"02","stateName":"Castries Quarter","countryId":186,"countryCode":"LC","countryName":"Saint Lucia","latitude":"14.01423000","longitude":"-60.98924000","wikiDataId":"Q569439"},{"id":65985,"name":"Barre Denis","stateId":3758,"stateCode":"02","stateName":"Castries Quarter","countryId":186,"countryCode":"LC","countryName":"Saint Lucia","latitude":"13.96809000","longitude":"-60.99073000","wikiDataId":"Q569439"},{"id":65986,"name":"Barre Duchaussee","stateId":3758,"stateCode":"02","stateName":"Castries Quarter","countryId":186,"countryCode":"LC","countryName":"Saint Lucia","latitude":"13.96190000","longitude":"-60.99678000","wikiDataId":"Q569439"},{"id":65987,"name":"Barre St.Joseph","stateId":3758,"stateCode":"02","stateName":"Castries Quarter","countryId":186,"countryCode":"LC","countryName":"Saint Lucia","latitude":"13.97247000","longitude":"-61.01829000","wikiDataId":"Q569439"},{"id":65996,"name":"Belair","stateId":3758,"stateCode":"02","stateName":"Castries Quarter","countryId":186,"countryCode":"LC","countryName":"Saint Lucia","latitude":"13.95283000","longitude":"-60.99747000","wikiDataId":"Q569439"},{"id":65998,"name":"Bella Rosa","stateId":3758,"stateCode":"02","stateName":"Castries Quarter","countryId":186,"countryCode":"LC","countryName":"Saint Lucia","latitude":"14.00777000","longitude":"-60.99628000","wikiDataId":"Q569439"},{"id":66008,"name":"Bexon","stateId":3758,"stateCode":"02","stateName":"Castries Quarter","countryId":186,"countryCode":"LC","countryName":"Saint Lucia","latitude":"13.96077000","longitude":"-60.97497000","wikiDataId":"Q569439"},{"id":66009,"name":"Bisee","stateId":3758,"stateCode":"02","stateName":"Castries Quarter","countryId":186,"countryCode":"LC","countryName":"Saint Lucia","latitude":"14.02429000","longitude":"-60.97445000","wikiDataId":"Q569439"},{"id":66010,"name":"Bishop'S Gap","stateId":3758,"stateCode":"02","stateName":"Castries Quarter","countryId":186,"countryCode":"LC","countryName":"Saint Lucia","latitude":"14.00019000","longitude":"-60.98498000","wikiDataId":"Q569439"},{"id":66011,"name":"Bissee","stateId":3758,"stateCode":"02","stateName":"Castries Quarter","countryId":186,"countryCode":"LC","countryName":"Saint Lucia","latitude":"14.02255000","longitude":"-60.97489000","wikiDataId":"Q569439"},{"id":66013,"name":"Black Mallet","stateId":3758,"stateCode":"02","stateName":"Castries Quarter","countryId":186,"countryCode":"LC","countryName":"Saint Lucia","latitude":"14.00457000","longitude":"-60.98811000","wikiDataId":"Q569439"},{"id":66015,"name":"Bocage","stateId":3758,"stateCode":"02","stateName":"Castries Quarter","countryId":186,"countryCode":"LC","countryName":"Saint Lucia","latitude":"14.00199000","longitude":"-60.96954000","wikiDataId":"Q569439"},{"id":66018,"name":"Bois Catchet","stateId":3758,"stateCode":"02","stateName":"Castries Quarter","countryId":186,"countryCode":"LC","countryName":"Saint Lucia","latitude":"14.00399000","longitude":"-60.99437000","wikiDataId":"Q569439"},{"id":66025,"name":"Bois Patat","stateId":3758,"stateCode":"02","stateName":"Castries Quarter","countryId":186,"countryCode":"LC","countryName":"Saint Lucia","latitude":"14.00892000","longitude":"-60.98214000","wikiDataId":"Q569439"},{"id":66033,"name":"Cabiche/Babonneau","stateId":3758,"stateCode":"02","stateName":"Castries Quarter","countryId":186,"countryCode":"LC","countryName":"Saint Lucia","latitude":"14.00583000","longitude":"-60.95432000","wikiDataId":"Q569439"},{"id":66035,"name":"Cacoa/Babonneau","stateId":3758,"stateCode":"02","stateName":"Castries Quarter","countryId":186,"countryCode":"LC","countryName":"Saint Lucia","latitude":"13.98875000","longitude":"-60.95113000","wikiDataId":"Q569439"},{"id":66038,"name":"Calvary","stateId":3758,"stateCode":"02","stateName":"Castries Quarter","countryId":186,"countryCode":"LC","countryName":"Saint Lucia","latitude":"14.01391000","longitude":"-60.98664000","wikiDataId":"Q569439"},{"id":66052,"name":"Capital Hill","stateId":3758,"stateCode":"02","stateName":"Castries Quarter","countryId":186,"countryCode":"LC","countryName":"Saint Lucia","latitude":"13.99307000","longitude":"-60.99097000","wikiDataId":"Q1032796"},{"id":66053,"name":"Carellie","stateId":3758,"stateCode":"02","stateName":"Castries Quarter","countryId":186,"countryCode":"LC","countryName":"Saint Lucia","latitude":"14.01889000","longitude":"-60.96851000","wikiDataId":"Q1032796"},{"id":66056,"name":"Castries","stateId":3758,"stateCode":"02","stateName":"Castries Quarter","countryId":186,"countryCode":"LC","countryName":"Saint Lucia","latitude":"13.99570000","longitude":"-61.00614000","wikiDataId":"Q41699"},{"id":66060,"name":"Cedars","stateId":3758,"stateCode":"02","stateName":"Castries Quarter","countryId":186,"countryCode":"LC","countryName":"Saint Lucia","latitude":"14.00601000","longitude":"-60.98232000","wikiDataId":"Q41699"},{"id":66065,"name":"Chase Gardens","stateId":3758,"stateCode":"02","stateName":"Castries Quarter","countryId":186,"countryCode":"LC","countryName":"Saint Lucia","latitude":"14.01481000","longitude":"-60.97395000","wikiDataId":"Q41699"},{"id":66066,"name":"Chassin/Babonneau","stateId":3758,"stateCode":"02","stateName":"Castries Quarter","countryId":186,"countryCode":"LC","countryName":"Saint Lucia","latitude":"13.99100000","longitude":"-60.92187000","wikiDataId":"Q41699"},{"id":66070,"name":"Choppin Ridge/Sarot","stateId":3758,"stateCode":"02","stateName":"Castries Quarter","countryId":186,"countryCode":"LC","countryName":"Saint Lucia","latitude":"13.95597000","longitude":"-60.98624000","wikiDataId":"Q3556840"},{"id":66072,"name":"Ciceron","stateId":3758,"stateCode":"02","stateName":"Castries Quarter","countryId":186,"countryCode":"LC","countryName":"Saint Lucia","latitude":"13.99296000","longitude":"-61.00878000","wikiDataId":"Q3556840"},{"id":66073,"name":"City","stateId":3758,"stateCode":"02","stateName":"Castries Quarter","countryId":186,"countryCode":"LC","countryName":"Saint Lucia","latitude":"14.00946000","longitude":"-60.99027000","wikiDataId":"Q3556840"},{"id":66074,"name":"City Gate/La Clery","stateId":3758,"stateCode":"02","stateName":"Castries Quarter","countryId":186,"countryCode":"LC","countryName":"Saint Lucia","latitude":"14.02124000","longitude":"-60.98149000","wikiDataId":"Q3556840"},{"id":66078,"name":"Conway/Waterfront","stateId":3758,"stateCode":"02","stateName":"Castries Quarter","countryId":186,"countryCode":"LC","countryName":"Saint Lucia","latitude":"14.01389000","longitude":"-60.99055000","wikiDataId":"Q3556840"},{"id":66080,"name":"Coolie Town","stateId":3758,"stateCode":"02","stateName":"Castries Quarter","countryId":186,"countryCode":"LC","countryName":"Saint Lucia","latitude":"13.95684000","longitude":"-61.01437000","wikiDataId":"Q3556840"},{"id":66085,"name":"Coubaril","stateId":3758,"stateCode":"02","stateName":"Castries Quarter","countryId":186,"countryCode":"LC","countryName":"Saint Lucia","latitude":"14.00223000","longitude":"-61.00919000","wikiDataId":"Q3556840"},{"id":66087,"name":"Crownlands/Marc","stateId":3758,"stateCode":"02","stateName":"Castries Quarter","countryId":186,"countryCode":"LC","countryName":"Saint Lucia","latitude":"13.95174000","longitude":"-60.97150000","wikiDataId":"Q3556840"},{"id":66088,"name":"Cul De Sac","stateId":3758,"stateCode":"02","stateName":"Castries Quarter","countryId":186,"countryCode":"LC","countryName":"Saint Lucia","latitude":"13.98084000","longitude":"-61.00645000","wikiDataId":"Q3556840"},{"id":66091,"name":"Darling Road","stateId":3758,"stateCode":"02","stateName":"Castries Quarter","countryId":186,"countryCode":"LC","countryName":"Saint Lucia","latitude":"14.01355000","longitude":"-60.98779000","wikiDataId":"Q3556840"},{"id":66095,"name":"Deglos","stateId":3758,"stateCode":"02","stateName":"Castries Quarter","countryId":186,"countryCode":"LC","countryName":"Saint Lucia","latitude":"13.97727000","longitude":"-60.97329000","wikiDataId":"Q3556840"},{"id":66106,"name":"Derierre Fort/Old Victoria Road","stateId":3758,"stateCode":"02","stateName":"Castries Quarter","countryId":186,"countryCode":"LC","countryName":"Saint Lucia","latitude":"13.99474000","longitude":"-60.98513000","wikiDataId":"Q3556840"},{"id":66124,"name":"Dubrassay","stateId":3758,"stateCode":"02","stateName":"Castries Quarter","countryId":186,"countryCode":"LC","countryName":"Saint Lucia","latitude":"13.98382000","longitude":"-60.97154000","wikiDataId":"Q3556840"},{"id":66131,"name":"En Pois Doux/Babonneau","stateId":3758,"stateCode":"02","stateName":"Castries Quarter","countryId":186,"countryCode":"LC","countryName":"Saint Lucia","latitude":"13.98853000","longitude":"-60.94099000","wikiDataId":"Q3556840"},{"id":66133,"name":"Entrepot","stateId":3758,"stateCode":"02","stateName":"Castries Quarter","countryId":186,"countryCode":"LC","countryName":"Saint Lucia","latitude":"13.99978000","longitude":"-60.97953000","wikiDataId":"Q3556840"},{"id":66139,"name":"Faux A Chaud","stateId":3758,"stateCode":"02","stateName":"Castries Quarter","countryId":186,"countryCode":"LC","countryName":"Saint Lucia","latitude":"14.00878000","longitude":"-60.99558000","wikiDataId":"Q3556840"},{"id":66140,"name":"Ferrand","stateId":3758,"stateCode":"02","stateName":"Castries Quarter","countryId":186,"countryCode":"LC","countryName":"Saint Lucia","latitude":"13.98684000","longitude":"-60.98494000","wikiDataId":"Q3556840"},{"id":66141,"name":"Floissac/Marc","stateId":3758,"stateCode":"02","stateName":"Castries Quarter","countryId":186,"countryCode":"LC","countryName":"Saint Lucia","latitude":"13.96283000","longitude":"-60.95880000","wikiDataId":"Q3556840"},{"id":66142,"name":"Fond Assau/Babonneau","stateId":3758,"stateCode":"02","stateName":"Castries Quarter","countryId":186,"countryCode":"LC","countryName":"Saint Lucia","latitude":"13.99491000","longitude":"-60.93626000","wikiDataId":"Q3556840"},{"id":66146,"name":"Fond Canie","stateId":3758,"stateCode":"02","stateName":"Castries Quarter","countryId":186,"countryCode":"LC","countryName":"Saint Lucia","latitude":"13.99195000","longitude":"-60.95954000","wikiDataId":"Q3556840"},{"id":66154,"name":"Forestiere","stateId":3758,"stateCode":"02","stateName":"Castries Quarter","countryId":186,"countryCode":"LC","countryName":"Saint Lucia","latitude":"13.97775000","longitude":"-60.95766000","wikiDataId":"Q3556840"},{"id":66160,"name":"George Charles Boulevard","stateId":3758,"stateCode":"02","stateName":"Castries Quarter","countryId":186,"countryCode":"LC","countryName":"Saint Lucia","latitude":"14.00499000","longitude":"-60.98673000","wikiDataId":"Q3556840"},{"id":66162,"name":"Girard","stateId":3758,"stateCode":"02","stateName":"Castries Quarter","countryId":186,"countryCode":"LC","countryName":"Saint Lucia","latitude":"14.00004000","longitude":"-60.95960000","wikiDataId":"Q3556840"},{"id":66164,"name":"Goergeville","stateId":3758,"stateCode":"02","stateName":"Castries Quarter","countryId":186,"countryCode":"LC","countryName":"Saint Lucia","latitude":"14.01311000","longitude":"-60.98446000","wikiDataId":"Q3556840"},{"id":66166,"name":"Goodlands","stateId":3758,"stateCode":"02","stateName":"Castries Quarter","countryId":186,"countryCode":"LC","countryName":"Saint Lucia","latitude":"13.99121000","longitude":"-60.99840000","wikiDataId":"Q3556840"},{"id":66182,"name":"Grass Street","stateId":3758,"stateCode":"02","stateName":"Castries Quarter","countryId":186,"countryCode":"LC","countryName":"Saint Lucia","latitude":"14.00706000","longitude":"-60.98763000","wikiDataId":"Q3556840"},{"id":66183,"name":"Green Gold","stateId":3758,"stateCode":"02","stateName":"Castries Quarter","countryId":186,"countryCode":"LC","countryName":"Saint Lucia","latitude":"13.99603000","longitude":"-60.95284000","wikiDataId":"Q3556840"},{"id":66187,"name":"Guesneau","stateId":3758,"stateCode":"02","stateName":"Castries Quarter","countryId":186,"countryCode":"LC","countryName":"Saint Lucia","latitude":"13.99084000","longitude":"-60.96486000","wikiDataId":"Q3116994"},{"id":66190,"name":"Hill 20/Babonneau","stateId":3758,"stateCode":"02","stateName":"Castries Quarter","countryId":186,"countryCode":"LC","countryName":"Saint Lucia","latitude":"13.99941000","longitude":"-60.94988000","wikiDataId":"Q3116994"},{"id":66191,"name":"Hillcrest Gardens","stateId":3758,"stateCode":"02","stateName":"Castries Quarter","countryId":186,"countryCode":"LC","countryName":"Saint Lucia","latitude":"14.01115000","longitude":"-60.97083000","wikiDataId":"Q3116994"},{"id":66194,"name":"Hospital Road","stateId":3758,"stateCode":"02","stateName":"Castries Quarter","countryId":186,"countryCode":"LC","countryName":"Saint Lucia","latitude":"14.00914000","longitude":"-60.99906000","wikiDataId":"Q3116994"},{"id":66195,"name":"Independence City","stateId":3758,"stateCode":"02","stateName":"Castries Quarter","countryId":186,"countryCode":"LC","countryName":"Saint Lucia","latitude":"14.00199000","longitude":"-60.97879000","wikiDataId":"Q3116994"},{"id":66201,"name":"John Compton Highway","stateId":3758,"stateCode":"02","stateName":"Castries Quarter","countryId":186,"countryCode":"LC","countryName":"Saint Lucia","latitude":"14.01909000","longitude":"-60.99110000","wikiDataId":"Q3116994"},{"id":66204,"name":"L'Anse Road","stateId":3758,"stateCode":"02","stateName":"Castries Quarter","countryId":186,"countryCode":"LC","countryName":"Saint Lucia","latitude":"14.01875000","longitude":"-60.98799000","wikiDataId":"Q3116994"},{"id":66207,"name":"La Carierre","stateId":3758,"stateCode":"02","stateName":"Castries Quarter","countryId":186,"countryCode":"LC","countryName":"Saint Lucia","latitude":"14.01806000","longitude":"-60.98723000","wikiDataId":"Q3116994"},{"id":66209,"name":"La Clery","stateId":3758,"stateCode":"02","stateName":"Castries Quarter","countryId":186,"countryCode":"LC","countryName":"Saint Lucia","latitude":"14.01846000","longitude":"-60.98422000","wikiDataId":"Q3116994"},{"id":66212,"name":"La Croix Maingot","stateId":3758,"stateCode":"02","stateName":"Castries Quarter","countryId":186,"countryCode":"LC","countryName":"Saint Lucia","latitude":"13.96569000","longitude":"-61.00582000","wikiDataId":"Q3116994"},{"id":66218,"name":"La Pansee","stateId":3758,"stateCode":"02","stateName":"Castries Quarter","countryId":186,"countryCode":"LC","countryName":"Saint Lucia","latitude":"14.01368000","longitude":"-60.98187000","wikiDataId":"Q3116994"},{"id":66229,"name":"La Toc","stateId":3758,"stateCode":"02","stateName":"Castries Quarter","countryId":186,"countryCode":"LC","countryName":"Saint Lucia","latitude":"14.00824000","longitude":"-61.00404000","wikiDataId":"Q3116994"},{"id":66232,"name":"Labayee","stateId":3758,"stateCode":"02","stateName":"Castries Quarter","countryId":186,"countryCode":"LC","countryName":"Saint Lucia","latitude":"13.94044000","longitude":"-60.97316000","wikiDataId":"Q3116994"},{"id":66235,"name":"Lastic Hill","stateId":3758,"stateCode":"02","stateName":"Castries Quarter","countryId":186,"countryCode":"LC","countryName":"Saint Lucia","latitude":"14.00755000","longitude":"-60.98321000","wikiDataId":"Q13220042"},{"id":66238,"name":"Leslie Land","stateId":3758,"stateCode":"02","stateName":"Castries Quarter","countryId":186,"countryCode":"LC","countryName":"Saint Lucia","latitude":"14.00752000","longitude":"-60.98674000","wikiDataId":"Q13220042"},{"id":66250,"name":"Marc","stateId":3758,"stateCode":"02","stateName":"Castries Quarter","countryId":186,"countryCode":"LC","countryName":"Saint Lucia","latitude":"13.95688000","longitude":"-60.95724000","wikiDataId":"Q13220042"},{"id":66251,"name":"Marchand","stateId":3758,"stateCode":"02","stateName":"Castries Quarter","countryId":186,"countryCode":"LC","countryName":"Saint Lucia","latitude":"14.00415000","longitude":"-60.98532000","wikiDataId":"Q13220042"},{"id":66252,"name":"Marigot","stateId":3758,"stateCode":"02","stateName":"Castries Quarter","countryId":186,"countryCode":"LC","countryName":"Saint Lucia","latitude":"13.96212000","longitude":"-61.02205000","wikiDataId":"Q13220042"},{"id":66262,"name":"Maynard Hill","stateId":3758,"stateCode":"02","stateName":"Castries Quarter","countryId":186,"countryCode":"LC","countryName":"Saint Lucia","latitude":"14.00314000","longitude":"-60.98966000","wikiDataId":"Q13220042"},{"id":66263,"name":"Miami/Bexon","stateId":3758,"stateCode":"02","stateName":"Castries Quarter","countryId":186,"countryCode":"LC","countryName":"Saint Lucia","latitude":"13.92295000","longitude":"-60.96945000","wikiDataId":"Q13220042"},{"id":66288,"name":"Monkey Town Ciceron","stateId":3758,"stateCode":"02","stateName":"Castries Quarter","countryId":186,"countryCode":"LC","countryName":"Saint Lucia","latitude":"13.98885000","longitude":"-61.00615000","wikiDataId":"Q11779522"},{"id":66291,"name":"Morne Assau/Babonneau","stateId":3758,"stateCode":"02","stateName":"Castries Quarter","countryId":186,"countryCode":"LC","countryName":"Saint Lucia","latitude":"13.99079000","longitude":"-60.93241000","wikiDataId":"Q11779522"},{"id":66297,"name":"Morne Dudon","stateId":3758,"stateCode":"02","stateName":"Castries Quarter","countryId":186,"countryCode":"LC","countryName":"Saint Lucia","latitude":"14.01194000","longitude":"-60.96378000","wikiDataId":"Q11779522"},{"id":66304,"name":"Morne Road","stateId":3758,"stateCode":"02","stateName":"Castries Quarter","countryId":186,"countryCode":"LC","countryName":"Saint Lucia","latitude":"14.00544000","longitude":"-60.99693000","wikiDataId":"Q11779522"},{"id":66305,"name":"Morne Rouge/Marc","stateId":3758,"stateCode":"02","stateName":"Castries Quarter","countryId":186,"countryCode":"LC","countryName":"Saint Lucia","latitude":"13.95838000","longitude":"-60.96972000","wikiDataId":"Q11779522"},{"id":66311,"name":"Mount Pleasant","stateId":3758,"stateCode":"02","stateName":"Castries Quarter","countryId":186,"countryCode":"LC","countryName":"Saint Lucia","latitude":"14.01494000","longitude":"-60.98576000","wikiDataId":"Q11779522"},{"id":66316,"name":"New Village","stateId":3758,"stateCode":"02","stateName":"Castries Quarter","countryId":186,"countryCode":"LC","countryName":"Saint Lucia","latitude":"14.01104000","longitude":"-60.98456000","wikiDataId":"Q11779522"},{"id":66318,"name":"Odsan","stateId":3758,"stateCode":"02","stateName":"Castries Quarter","countryId":186,"countryCode":"LC","countryName":"Saint Lucia","latitude":"13.97479000","longitude":"-60.98319000","wikiDataId":"Q11779522"},{"id":66325,"name":"Parker'S Hill","stateId":3758,"stateCode":"02","stateName":"Castries Quarter","countryId":186,"countryCode":"LC","countryName":"Saint Lucia","latitude":"14.00378000","longitude":"-60.99049000","wikiDataId":"Q11779522"},{"id":66327,"name":"Patterson'S Gap","stateId":3758,"stateCode":"02","stateName":"Castries Quarter","countryId":186,"countryCode":"LC","countryName":"Saint Lucia","latitude":"14.00655000","longitude":"-60.98473000","wikiDataId":"Q11779522"},{"id":66328,"name":"Pavee","stateId":3758,"stateCode":"02","stateName":"Castries Quarter","countryId":186,"countryCode":"LC","countryName":"Saint Lucia","latitude":"14.00282000","longitude":"-60.99191000","wikiDataId":"Q11779522"},{"id":66329,"name":"Peart'S Gap","stateId":3758,"stateCode":"02","stateName":"Castries Quarter","countryId":186,"countryCode":"LC","countryName":"Saint Lucia","latitude":"14.01035000","longitude":"-60.98598000","wikiDataId":"Q11779522"},{"id":66330,"name":"Perou","stateId":3758,"stateCode":"02","stateName":"Castries Quarter","countryId":186,"countryCode":"LC","countryName":"Saint Lucia","latitude":"13.95960000","longitude":"-61.00726000","wikiDataId":"Q11779522"},{"id":66338,"name":"Pointe Seraphine","stateId":3758,"stateCode":"02","stateName":"Castries Quarter","countryId":186,"countryCode":"LC","countryName":"Saint Lucia","latitude":"14.01575000","longitude":"-60.99305000","wikiDataId":"Q11779522"},{"id":66342,"name":"Quarte Chemins","stateId":3758,"stateCode":"02","stateName":"Castries Quarter","countryId":186,"countryCode":"LC","countryName":"Saint Lucia","latitude":"13.99136000","longitude":"-60.97630000","wikiDataId":"Q11779522"},{"id":66346,"name":"Ravine Chabot","stateId":3758,"stateCode":"02","stateName":"Castries Quarter","countryId":186,"countryCode":"LC","countryName":"Saint Lucia","latitude":"14.00051000","longitude":"-60.97617000","wikiDataId":"Q11779522"},{"id":66348,"name":"Ravine Poisson","stateId":3758,"stateCode":"02","stateName":"Castries Quarter","countryId":186,"countryCode":"LC","countryName":"Saint Lucia","latitude":"13.93156000","longitude":"-60.96849000","wikiDataId":"Q11779522"},{"id":66349,"name":"Ravine Touterelle","stateId":3758,"stateCode":"02","stateName":"Castries Quarter","countryId":186,"countryCode":"LC","countryName":"Saint Lucia","latitude":"14.00325000","longitude":"-60.98806000","wikiDataId":"Q11779522"},{"id":66353,"name":"Resinard/Babonneau","stateId":3758,"stateCode":"02","stateName":"Castries Quarter","countryId":186,"countryCode":"LC","countryName":"Saint Lucia","latitude":"14.00289000","longitude":"-60.94200000","wikiDataId":"Q11779522"},{"id":66361,"name":"Rock Hall","stateId":3758,"stateCode":"02","stateName":"Castries Quarter","countryId":186,"countryCode":"LC","countryName":"Saint Lucia","latitude":"14.00009000","longitude":"-60.98928000","wikiDataId":"Q11779522"},{"id":66364,"name":"Rose Hill","stateId":3758,"stateCode":"02","stateName":"Castries Quarter","countryId":186,"countryCode":"LC","countryName":"Saint Lucia","latitude":"14.00816000","longitude":"-60.98560000","wikiDataId":"Q11779522"},{"id":66369,"name":"San Soucis","stateId":3758,"stateCode":"02","stateName":"Castries Quarter","countryId":186,"countryCode":"LC","countryName":"Saint Lucia","latitude":"14.01695000","longitude":"-60.98985000","wikiDataId":"Q11779522"},{"id":66370,"name":"Sand De Feu","stateId":3758,"stateCode":"02","stateName":"Castries Quarter","countryId":186,"countryCode":"LC","countryName":"Saint Lucia","latitude":"13.92781000","longitude":"-60.98026000","wikiDataId":"Q11779522"},{"id":66372,"name":"Sarot","stateId":3758,"stateCode":"02","stateName":"Castries Quarter","countryId":186,"countryCode":"LC","countryName":"Saint Lucia","latitude":"13.94212000","longitude":"-60.98489000","wikiDataId":"Q11779522"},{"id":66387,"name":"Summersdale","stateId":3758,"stateCode":"02","stateName":"Castries Quarter","countryId":186,"countryCode":"LC","countryName":"Saint Lucia","latitude":"14.02582000","longitude":"-60.97644000","wikiDataId":"Q493030"},{"id":66388,"name":"Sunbilt","stateId":3758,"stateCode":"02","stateName":"Castries Quarter","countryId":186,"countryCode":"LC","countryName":"Saint Lucia","latitude":"14.00561000","longitude":"-60.97922000","wikiDataId":"Q493030"},{"id":66389,"name":"Sunny Acres","stateId":3758,"stateCode":"02","stateName":"Castries Quarter","countryId":186,"countryCode":"LC","countryName":"Saint Lucia","latitude":"14.02810000","longitude":"-60.97361000","wikiDataId":"Q493030"},{"id":66390,"name":"Talvern","stateId":3758,"stateCode":"02","stateName":"Castries Quarter","countryId":186,"countryCode":"LC","countryName":"Saint Lucia","latitude":"13.99578000","longitude":"-60.94410000","wikiDataId":"Q493030"},{"id":66391,"name":"Tapion","stateId":3758,"stateCode":"02","stateName":"Castries Quarter","countryId":186,"countryCode":"LC","countryName":"Saint Lucia","latitude":"14.01383000","longitude":"-61.00489000","wikiDataId":"Q493030"},{"id":66396,"name":"The Morne","stateId":3758,"stateCode":"02","stateName":"Castries Quarter","countryId":186,"countryCode":"LC","countryName":"Saint Lucia","latitude":"13.99778000","longitude":"-60.99620000","wikiDataId":"Q493030"},{"id":66399,"name":"Ti Colon","stateId":3758,"stateCode":"02","stateName":"Castries Quarter","countryId":186,"countryCode":"LC","countryName":"Saint Lucia","latitude":"13.97071000","longitude":"-61.00229000","wikiDataId":"Q493030"},{"id":66402,"name":"Ti Rocher","stateId":3758,"stateCode":"02","stateName":"Castries Quarter","countryId":186,"countryCode":"LC","countryName":"Saint Lucia","latitude":"13.99490000","longitude":"-60.97110000","wikiDataId":"Q493030"},{"id":66407,"name":"Trois Piton","stateId":3758,"stateCode":"02","stateName":"Castries Quarter","countryId":186,"countryCode":"LC","countryName":"Saint Lucia","latitude":"13.98890000","longitude":"-60.97259000","wikiDataId":"Q493030"},{"id":66408,"name":"Trou Cochan/Marc","stateId":3758,"stateCode":"02","stateName":"Castries Quarter","countryId":186,"countryCode":"LC","countryName":"Saint Lucia","latitude":"13.94220000","longitude":"-60.96199000","wikiDataId":"Q493030"},{"id":66409,"name":"Trou Florent/Marc","stateId":3758,"stateCode":"02","stateName":"Castries Quarter","countryId":186,"countryCode":"LC","countryName":"Saint Lucia","latitude":"13.94525000","longitude":"-60.95382000","wikiDataId":"Q493030"},{"id":66410,"name":"Trou Rouge","stateId":3758,"stateCode":"02","stateName":"Castries Quarter","countryId":186,"countryCode":"LC","countryName":"Saint Lucia","latitude":"14.00602000","longitude":"-60.98950000","wikiDataId":"Q493030"},{"id":66419,"name":"Vide Bouteille","stateId":3758,"stateCode":"02","stateName":"Castries Quarter","countryId":186,"countryCode":"LC","countryName":"Saint Lucia","latitude":"14.02439000","longitude":"-60.98066000","wikiDataId":"Q493030"},{"id":66423,"name":"Vigie","stateId":3758,"stateCode":"02","stateName":"Castries Quarter","countryId":186,"countryCode":"LC","countryName":"Saint Lucia","latitude":"14.02053000","longitude":"-60.99611000","wikiDataId":"Q3494579"},{"id":66432,"name":"Waterworks","stateId":3758,"stateCode":"02","stateName":"Castries Quarter","countryId":186,"countryCode":"LC","countryName":"Saint Lucia","latitude":"14.00498000","longitude":"-60.97635000","wikiDataId":"Q3494579"},{"id":66434,"name":"Wilton'S Yard/Grave Yard","stateId":3758,"stateCode":"02","stateName":"Castries Quarter","countryId":186,"countryCode":"LC","countryName":"Saint Lucia","latitude":"14.00968000","longitude":"-60.98639000","wikiDataId":"Q3494579"},{"id":66435,"name":"Yorke Hill","stateId":3758,"stateCode":"02","stateName":"Castries Quarter","countryId":186,"countryCode":"LC","countryName":"Saint Lucia","latitude":"14.01694000","longitude":"-60.97919000","wikiDataId":"Q3494579"},{"id":66000,"name":"Belle Vue","stateId":3760,"stateCode":"03","stateName":"Choiseul Quarter","countryId":186,"countryCode":"LC","countryName":"Saint Lucia","latitude":"13.80510000","longitude":"-61.03615000","wikiDataId":"Q569439"},{"id":66023,"name":"Bois Dinde","stateId":3760,"stateCode":"03","stateName":"Choiseul Quarter","countryId":186,"countryCode":"LC","countryName":"Saint Lucia","latitude":"13.80463000","longitude":"-61.04952000","wikiDataId":"Q569439"},{"id":66036,"name":"Caffiere","stateId":3760,"stateCode":"03","stateName":"Choiseul Quarter","countryId":186,"countryCode":"LC","countryName":"Saint Lucia","latitude":"13.78409000","longitude":"-61.03554000","wikiDataId":"Q569439"},{"id":66061,"name":"Cedars/Chu Tigre","stateId":3760,"stateCode":"03","stateName":"Choiseul Quarter","countryId":186,"countryCode":"LC","countryName":"Saint Lucia","latitude":"13.76995000","longitude":"-61.04716000","wikiDataId":"Q41699"},{"id":66069,"name":"Choiseul","stateId":3760,"stateCode":"03","stateName":"Choiseul Quarter","countryId":186,"countryCode":"LC","countryName":"Saint Lucia","latitude":"13.77273000","longitude":"-61.04931000","wikiDataId":"Q3556840"},{"id":66071,"name":"Christian Hill","stateId":3760,"stateCode":"03","stateName":"Choiseul Quarter","countryId":186,"countryCode":"LC","countryName":"Saint Lucia","latitude":"13.77354000","longitude":"-61.04694000","wikiDataId":"Q3556840"},{"id":66090,"name":"Dacretin","stateId":3760,"stateCode":"03","stateName":"Choiseul Quarter","countryId":186,"countryCode":"LC","countryName":"Saint Lucia","latitude":"13.79617000","longitude":"-61.03574000","wikiDataId":"Q3556840"},{"id":66094,"name":"Debreuil","stateId":3760,"stateCode":"03","stateName":"Choiseul Quarter","countryId":186,"countryCode":"LC","countryName":"Saint Lucia","latitude":"13.79033000","longitude":"-61.02585000","wikiDataId":"Q3556840"},{"id":66097,"name":"Delcer","stateId":3760,"stateCode":"03","stateName":"Choiseul Quarter","countryId":186,"countryCode":"LC","countryName":"Saint Lucia","latitude":"13.80121000","longitude":"-61.05892000","wikiDataId":"Q3556840"},{"id":66113,"name":"Derriere Morne","stateId":3760,"stateCode":"03","stateName":"Choiseul Quarter","countryId":186,"countryCode":"LC","countryName":"Saint Lucia","latitude":"13.80916000","longitude":"-61.05101000","wikiDataId":"Q3556840"},{"id":66125,"name":"Dugard","stateId":3760,"stateCode":"03","stateName":"Choiseul Quarter","countryId":186,"countryCode":"LC","countryName":"Saint Lucia","latitude":"13.80386000","longitude":"-61.02831000","wikiDataId":"Q3556840"},{"id":66127,"name":"Dupre","stateId":3760,"stateCode":"03","stateName":"Choiseul Quarter","countryId":186,"countryCode":"LC","countryName":"Saint Lucia","latitude":"13.79435000","longitude":"-61.02947000","wikiDataId":"Q3556840"},{"id":66136,"name":"Esperance","stateId":3760,"stateCode":"03","stateName":"Choiseul Quarter","countryId":186,"countryCode":"LC","countryName":"Saint Lucia","latitude":"13.80775000","longitude":"-61.05331000","wikiDataId":"Q3556840"},{"id":66155,"name":"Franciou","stateId":3760,"stateCode":"03","stateName":"Choiseul Quarter","countryId":186,"countryCode":"LC","countryName":"Saint Lucia","latitude":"13.80400000","longitude":"-61.05448000","wikiDataId":"Q3556840"},{"id":66197,"name":"Industry","stateId":3760,"stateCode":"03","stateName":"Choiseul Quarter","countryId":186,"countryCode":"LC","countryName":"Saint Lucia","latitude":"13.79127000","longitude":"-61.05992000","wikiDataId":"Q3116994"},{"id":66213,"name":"La Fargue","stateId":3760,"stateCode":"03","stateName":"Choiseul Quarter","countryId":186,"countryCode":"LC","countryName":"Saint Lucia","latitude":"13.77197000","longitude":"-61.04124000","wikiDataId":"Q3116994"},{"id":66223,"name":"La Pointe","stateId":3760,"stateCode":"03","stateName":"Choiseul Quarter","countryId":186,"countryCode":"LC","countryName":"Saint Lucia","latitude":"13.79443000","longitude":"-61.06497000","wikiDataId":"Q3116994"},{"id":66234,"name":"Lamaze","stateId":3760,"stateCode":"03","stateName":"Choiseul Quarter","countryId":186,"countryCode":"LC","countryName":"Saint Lucia","latitude":"13.80649000","longitude":"-61.01906000","wikiDataId":"Q13220042"},{"id":66236,"name":"Le Riche","stateId":3760,"stateCode":"03","stateName":"Choiseul Quarter","countryId":186,"countryCode":"LC","countryName":"Saint Lucia","latitude":"13.78365000","longitude":"-61.04815000","wikiDataId":"Q13220042"},{"id":66246,"name":"Mailly Motete","stateId":3760,"stateCode":"03","stateName":"Choiseul Quarter","countryId":186,"countryCode":"LC","countryName":"Saint Lucia","latitude":"13.81788000","longitude":"-61.02772000","wikiDataId":"Q13220042"},{"id":66259,"name":"Martin","stateId":3760,"stateCode":"03","stateName":"Choiseul Quarter","countryId":186,"countryCode":"LC","countryName":"Saint Lucia","latitude":"13.78941000","longitude":"-61.04542000","wikiDataId":"Q13220042"},{"id":66286,"name":"Mongouge","stateId":3760,"stateCode":"03","stateName":"Choiseul Quarter","countryId":186,"countryCode":"LC","countryName":"Saint Lucia","latitude":"13.80301000","longitude":"-61.04524000","wikiDataId":"Q11779522"},{"id":66289,"name":"Monzie","stateId":3760,"stateCode":"03","stateName":"Choiseul Quarter","countryId":186,"countryCode":"LC","countryName":"Saint Lucia","latitude":"13.80669000","longitude":"-61.02297000","wikiDataId":"Q11779522"},{"id":66299,"name":"Morne Jacques","stateId":3760,"stateCode":"03","stateName":"Choiseul Quarter","countryId":186,"countryCode":"LC","countryName":"Saint Lucia","latitude":"13.81162000","longitude":"-61.03165000","wikiDataId":"Q11779522"},{"id":66306,"name":"Morne Sion","stateId":3760,"stateCode":"03","stateName":"Choiseul Quarter","countryId":186,"countryCode":"LC","countryName":"Saint Lucia","latitude":"13.79246000","longitude":"-61.05467000","wikiDataId":"Q11779522"},{"id":66309,"name":"Motete","stateId":3760,"stateCode":"03","stateName":"Choiseul Quarter","countryId":186,"countryCode":"LC","countryName":"Saint Lucia","latitude":"13.81325000","longitude":"-61.02320000","wikiDataId":"Q11779522"},{"id":66314,"name":"New Field/Fiette","stateId":3760,"stateCode":"03","stateName":"Choiseul Quarter","countryId":186,"countryCode":"LC","countryName":"Saint Lucia","latitude":"13.78815000","longitude":"-61.05216000","wikiDataId":"Q11779522"},{"id":66340,"name":"Ponyon","stateId":3760,"stateCode":"03","stateName":"Choiseul Quarter","countryId":186,"countryCode":"LC","countryName":"Saint Lucia","latitude":"13.79639000","longitude":"-61.04360000","wikiDataId":"Q11779522"},{"id":66345,"name":"Raveneau","stateId":3760,"stateCode":"03","stateName":"Choiseul Quarter","countryId":186,"countryCode":"LC","countryName":"Saint Lucia","latitude":"13.81018000","longitude":"-61.04642000","wikiDataId":"Q11779522"},{"id":66354,"name":"Reunion","stateId":3760,"stateCode":"03","stateName":"Choiseul Quarter","countryId":186,"countryCode":"LC","countryName":"Saint Lucia","latitude":"13.77861000","longitude":"-61.04531000","wikiDataId":"Q11779522"},{"id":66358,"name":"River Doree","stateId":3760,"stateCode":"03","stateName":"Choiseul Quarter","countryId":186,"countryCode":"LC","countryName":"Saint Lucia","latitude":"13.76769000","longitude":"-61.03646000","wikiDataId":"Q11779522"},{"id":66360,"name":"Roblot","stateId":3760,"stateCode":"03","stateName":"Choiseul Quarter","countryId":186,"countryCode":"LC","countryName":"Saint Lucia","latitude":"13.80323000","longitude":"-61.02297000","wikiDataId":"Q11779522"},{"id":66374,"name":"Sauzay","stateId":3760,"stateCode":"03","stateName":"Choiseul Quarter","countryId":186,"countryCode":"LC","countryName":"Saint Lucia","latitude":"13.77743000","longitude":"-61.03368000","wikiDataId":"Q11779522"},{"id":66376,"name":"Savannesgeorge/Constitution","stateId":3760,"stateCode":"03","stateName":"Choiseul Quarter","countryId":186,"countryCode":"LC","countryName":"Saint Lucia","latitude":"13.77855000","longitude":"-61.05139000","wikiDataId":"Q11779522"},{"id":66418,"name":"Victoria","stateId":3760,"stateCode":"03","stateName":"Choiseul Quarter","countryId":186,"countryCode":"LC","countryName":"Saint Lucia","latitude":"13.81116000","longitude":"-61.03963000","wikiDataId":"Q493030"},{"id":66424,"name":"Village","stateId":3760,"stateCode":"03","stateName":"Choiseul Quarter","countryId":186,"countryCode":"LC","countryName":"Saint Lucia","latitude":"13.77464000","longitude":"-61.05020000","wikiDataId":"Q3494579"},{"id":65960,"name":"Anse Canot","stateId":3756,"stateCode":"05","stateName":"Dennery Quarter","countryId":186,"countryCode":"LC","countryName":"Saint Lucia","latitude":"13.90871000","longitude":"-60.90440000","wikiDataId":"Q26569"},{"id":65967,"name":"Athens","stateId":3756,"stateCode":"05","stateName":"Dennery Quarter","countryId":186,"countryCode":"LC","countryName":"Saint Lucia","latitude":"13.90574000","longitude":"-60.89184000","wikiDataId":"Q569439"},{"id":65968,"name":"Au Leon","stateId":3756,"stateCode":"05","stateName":"Dennery Quarter","countryId":186,"countryCode":"LC","countryName":"Saint Lucia","latitude":"13.95245000","longitude":"-60.90456000","wikiDataId":"Q569439"},{"id":65982,"name":"Bara Bara","stateId":3756,"stateCode":"05","stateName":"Dennery Quarter","countryId":186,"countryCode":"LC","countryName":"Saint Lucia","latitude":"13.95911000","longitude":"-60.93414000","wikiDataId":"Q569439"},{"id":65988,"name":"Bazile","stateId":3756,"stateCode":"05","stateName":"Dennery Quarter","countryId":186,"countryCode":"LC","countryName":"Saint Lucia","latitude":"13.91082000","longitude":"-60.92430000","wikiDataId":"Q569439"},{"id":66005,"name":"Belmont","stateId":3756,"stateCode":"05","stateName":"Dennery Quarter","countryId":186,"countryCode":"LC","countryName":"Saint Lucia","latitude":"13.95044000","longitude":"-60.93276000","wikiDataId":"Q569439"},{"id":66024,"name":"Bois Joli","stateId":3756,"stateCode":"05","stateName":"Dennery Quarter","countryId":186,"countryCode":"LC","countryName":"Saint Lucia","latitude":"13.92020000","longitude":"-60.91409000","wikiDataId":"Q569439"},{"id":66029,"name":"Bordelais","stateId":3756,"stateCode":"05","stateName":"Dennery Quarter","countryId":186,"countryCode":"LC","countryName":"Saint Lucia","latitude":"13.89552000","longitude":"-60.90092000","wikiDataId":"Q569439"},{"id":66030,"name":"Bosquet D'Or","stateId":3756,"stateCode":"05","stateName":"Dennery Quarter","countryId":186,"countryCode":"LC","countryName":"Saint Lucia","latitude":"13.92886000","longitude":"-60.91127000","wikiDataId":"Q569439"},{"id":66096,"name":"Delaide","stateId":3756,"stateCode":"05","stateName":"Dennery Quarter","countryId":186,"countryCode":"LC","countryName":"Saint Lucia","latitude":"13.92993000","longitude":"-60.90584000","wikiDataId":"Q3556840"},{"id":66099,"name":"Dennery","stateId":3756,"stateCode":"05","stateName":"Dennery Quarter","countryId":186,"countryCode":"LC","countryName":"Saint Lucia","latitude":"13.91409000","longitude":"-60.89132000","wikiDataId":"Q3556840"},{"id":66100,"name":"Dennery By Pass","stateId":3756,"stateCode":"05","stateName":"Dennery Quarter","countryId":186,"countryCode":"LC","countryName":"Saint Lucia","latitude":"13.91164000","longitude":"-60.89454000","wikiDataId":"Q3556840"},{"id":66101,"name":"Dennery By Pass/Green Mountain","stateId":3756,"stateCode":"05","stateName":"Dennery Quarter","countryId":186,"countryCode":"LC","countryName":"Saint Lucia","latitude":"13.91094000","longitude":"-60.89810000","wikiDataId":"Q3556840"},{"id":66102,"name":"Dennery By Pass/Rocky Lane","stateId":3756,"stateCode":"05","stateName":"Dennery Quarter","countryId":186,"countryCode":"LC","countryName":"Saint Lucia","latitude":"13.91443000","longitude":"-60.90017000","wikiDataId":"Q3556840"},{"id":66103,"name":"Dennery By Pass/White Rock Gardens","stateId":3756,"stateCode":"05","stateName":"Dennery Quarter","countryId":186,"countryCode":"LC","countryName":"Saint Lucia","latitude":"13.91424000","longitude":"-60.89333000","wikiDataId":"Q3556840"},{"id":66104,"name":"Dennery Village","stateId":3756,"stateCode":"05","stateName":"Dennery Quarter","countryId":186,"countryCode":"LC","countryName":"Saint Lucia","latitude":"13.91099000","longitude":"-60.89122000","wikiDataId":"Q3556840"},{"id":66108,"name":"Derniere Riviere","stateId":3756,"stateCode":"05","stateName":"Dennery Quarter","countryId":186,"countryCode":"LC","countryName":"Saint Lucia","latitude":"13.95679000","longitude":"-60.92578000","wikiDataId":"Q3556840"},{"id":66109,"name":"Derniere Riviere/Fond Maricient","stateId":3756,"stateCode":"05","stateName":"Dennery Quarter","countryId":186,"countryCode":"LC","countryName":"Saint Lucia","latitude":"13.95130000","longitude":"-60.92218000","wikiDataId":"Q3556840"},{"id":66110,"name":"Derniere Riviere/Mardi Gras/Morne Caca Cochon","stateId":3756,"stateCode":"05","stateName":"Dennery Quarter","countryId":186,"countryCode":"LC","countryName":"Saint Lucia","latitude":"13.96288000","longitude":"-60.92029000","wikiDataId":"Q3556840"},{"id":66111,"name":"Derniere Riviere/Morne Panache","stateId":3756,"stateCode":"05","stateName":"Dennery Quarter","countryId":186,"countryCode":"LC","countryName":"Saint Lucia","latitude":"13.95252000","longitude":"-60.92919000","wikiDataId":"Q3556840"},{"id":66117,"name":"Despinoze","stateId":3756,"stateCode":"05","stateName":"Dennery Quarter","countryId":186,"countryCode":"LC","countryName":"Saint Lucia","latitude":"13.94971000","longitude":"-60.91182000","wikiDataId":"Q3556840"},{"id":66123,"name":"Dubonnaire","stateId":3756,"stateCode":"05","stateName":"Dennery Quarter","countryId":186,"countryCode":"LC","countryName":"Saint Lucia","latitude":"13.92808000","longitude":"-60.92336000","wikiDataId":"Q3556840"},{"id":66156,"name":"Gadette","stateId":3756,"stateCode":"05","stateName":"Dennery Quarter","countryId":186,"countryCode":"LC","countryName":"Saint Lucia","latitude":"13.95937000","longitude":"-60.91029000","wikiDataId":"Q3556840"},{"id":66170,"name":"Grande Ravine","stateId":3756,"stateCode":"05","stateName":"Dennery Quarter","countryId":186,"countryCode":"LC","countryName":"Saint Lucia","latitude":"13.94263000","longitude":"-60.93404000","wikiDataId":"Q3556840"},{"id":66171,"name":"Grande Riviere","stateId":3756,"stateCode":"05","stateName":"Dennery Quarter","countryId":186,"countryCode":"LC","countryName":"Saint Lucia","latitude":"13.93306000","longitude":"-60.93239000","wikiDataId":"Q3556840"},{"id":66173,"name":"Grande Riviere/Des Branch","stateId":3756,"stateCode":"05","stateName":"Dennery Quarter","countryId":186,"countryCode":"LC","countryName":"Saint Lucia","latitude":"13.93383000","longitude":"-60.93499000","wikiDataId":"Q3556840"},{"id":66174,"name":"Grande Riviere/En Leur Morne/Discompere","stateId":3756,"stateCode":"05","stateName":"Dennery Quarter","countryId":186,"countryCode":"LC","countryName":"Saint Lucia","latitude":"13.93223000","longitude":"-60.93461000","wikiDataId":"Q3556840"},{"id":66175,"name":"Grande Riviere/Funier","stateId":3756,"stateCode":"05","stateName":"Dennery Quarter","countryId":186,"countryCode":"LC","countryName":"Saint Lucia","latitude":"13.93240000","longitude":"-60.93305000","wikiDataId":"Q3556840"},{"id":66177,"name":"Grande Riviere/Morne Caca Cochon","stateId":3756,"stateCode":"05","stateName":"Dennery Quarter","countryId":186,"countryCode":"LC","countryName":"Saint Lucia","latitude":"13.92960000","longitude":"-60.93794000","wikiDataId":"Q3556840"},{"id":66208,"name":"La Caye","stateId":3756,"stateCode":"05","stateName":"Dennery Quarter","countryId":186,"countryCode":"LC","countryName":"Saint Lucia","latitude":"13.93290000","longitude":"-60.90434000","wikiDataId":"Q3116994"},{"id":66220,"name":"La Pelle","stateId":3756,"stateCode":"05","stateName":"Dennery Quarter","countryId":186,"countryCode":"LC","countryName":"Saint Lucia","latitude":"13.94096000","longitude":"-60.90569000","wikiDataId":"Q3116994"},{"id":66224,"name":"La Pointe","stateId":3756,"stateCode":"05","stateName":"Dennery Quarter","countryId":186,"countryCode":"LC","countryName":"Saint Lucia","latitude":"13.91525000","longitude":"-60.88830000","wikiDataId":"Q3116994"},{"id":66226,"name":"La Ressource","stateId":3756,"stateCode":"05","stateName":"Dennery Quarter","countryId":186,"countryCode":"LC","countryName":"Saint Lucia","latitude":"13.94293000","longitude":"-60.91585000","wikiDataId":"Q3116994"},{"id":66242,"name":"Lumiere","stateId":3756,"stateCode":"05","stateName":"Dennery Quarter","countryId":186,"countryCode":"LC","countryName":"Saint Lucia","latitude":"13.93928000","longitude":"-60.88889000","wikiDataId":"Q13220042"},{"id":66303,"name":"Morne Panache","stateId":3756,"stateCode":"05","stateName":"Dennery Quarter","countryId":186,"countryCode":"LC","countryName":"Saint Lucia","latitude":"13.92167000","longitude":"-60.93654000","wikiDataId":"Q11779522"},{"id":66355,"name":"Riche Fond","stateId":3756,"stateCode":"05","stateName":"Dennery Quarter","countryId":186,"countryCode":"LC","countryName":"Saint Lucia","latitude":"13.93644000","longitude":"-60.92026000","wikiDataId":"Q11779522"},{"id":66356,"name":"Riche Fond/La Belle Vie","stateId":3756,"stateCode":"05","stateName":"Dennery Quarter","countryId":186,"countryCode":"LC","countryName":"Saint Lucia","latitude":"13.93782000","longitude":"-60.92908000","wikiDataId":"Q11779522"},{"id":66357,"name":"Riche Fond/New Village","stateId":3756,"stateCode":"05","stateName":"Dennery Quarter","countryId":186,"countryCode":"LC","countryName":"Saint Lucia","latitude":"13.93648000","longitude":"-60.92394000","wikiDataId":"Q11779522"},{"id":66384,"name":"St. Joseph Estate","stateId":3756,"stateCode":"05","stateName":"Dennery Quarter","countryId":186,"countryCode":"LC","countryName":"Saint Lucia","latitude":"13.90066000","longitude":"-60.91444000","wikiDataId":"Q493030"},{"id":66395,"name":"Thamazo","stateId":3756,"stateCode":"05","stateName":"Dennery Quarter","countryId":186,"countryCode":"LC","countryName":"Saint Lucia","latitude":"13.93245000","longitude":"-60.94786000","wikiDataId":"Q493030"},{"id":65993,"name":"Beausejour","stateId":3766,"stateCode":"06","stateName":"Gros Islet Quarter","countryId":186,"countryCode":"LC","countryName":"Saint Lucia","latitude":"14.07647000","longitude":"-60.93780000","wikiDataId":"Q569439"},{"id":65994,"name":"Beausejour/Fostin'S Development","stateId":3766,"stateCode":"06","stateName":"Gros Islet Quarter","countryId":186,"countryCode":"LC","countryName":"Saint Lucia","latitude":"14.07445000","longitude":"-60.92929000","wikiDataId":"Q569439"},{"id":65995,"name":"Beausejour/Ndc","stateId":3766,"stateCode":"06","stateName":"Gros Islet Quarter","countryId":186,"countryCode":"LC","countryName":"Saint Lucia","latitude":"14.07733000","longitude":"-60.92683000","wikiDataId":"Q569439"},{"id":65997,"name":"Bella Rosa","stateId":3766,"stateCode":"06","stateName":"Gros Islet Quarter","countryId":186,"countryCode":"LC","countryName":"Saint Lucia","latitude":"14.07711000","longitude":"-60.94568000","wikiDataId":"Q569439"},{"id":66001,"name":"Belle Vue","stateId":3766,"stateCode":"06","stateName":"Gros Islet Quarter","countryId":186,"countryCode":"LC","countryName":"Saint Lucia","latitude":"14.08470000","longitude":"-60.94342000","wikiDataId":"Q569439"},{"id":66003,"name":"Belle Vue Estate","stateId":3766,"stateCode":"06","stateName":"Gros Islet Quarter","countryId":186,"countryCode":"LC","countryName":"Saint Lucia","latitude":"14.08840000","longitude":"-60.94613000","wikiDataId":"Q569439"},{"id":66016,"name":"Boguis","stateId":3766,"stateCode":"06","stateName":"Gros Islet Quarter","countryId":186,"countryCode":"LC","countryName":"Saint Lucia","latitude":"14.01548000","longitude":"-60.92089000","wikiDataId":"Q569439"},{"id":66017,"name":"Boguis/Desa Blond","stateId":3766,"stateCode":"06","stateName":"Gros Islet Quarter","countryId":186,"countryCode":"LC","countryName":"Saint Lucia","latitude":"14.01057000","longitude":"-60.92565000","wikiDataId":"Q569439"},{"id":66021,"name":"Bois D'Orange","stateId":3766,"stateCode":"06","stateName":"Gros Islet Quarter","countryId":186,"countryCode":"LC","countryName":"Saint Lucia","latitude":"14.05803000","longitude":"-60.95992000","wikiDataId":"Q569439"},{"id":66022,"name":"Bois D'Ornange/Trouya","stateId":3766,"stateCode":"06","stateName":"Gros Islet Quarter","countryId":186,"countryCode":"LC","countryName":"Saint Lucia","latitude":"14.06198000","longitude":"-60.96914000","wikiDataId":"Q569439"},{"id":66027,"name":"Bonneterre","stateId":3766,"stateCode":"06","stateName":"Gros Islet Quarter","countryId":186,"countryCode":"LC","countryName":"Saint Lucia","latitude":"14.06994000","longitude":"-60.94146000","wikiDataId":"Q569439"},{"id":66028,"name":"Bonneterre Gardens","stateId":3766,"stateCode":"06","stateName":"Gros Islet Quarter","countryId":186,"countryCode":"LC","countryName":"Saint Lucia","latitude":"14.06737000","longitude":"-60.93393000","wikiDataId":"Q569439"},{"id":66043,"name":"Cap Estate","stateId":3766,"stateCode":"06","stateName":"Gros Islet Quarter","countryId":186,"countryCode":"LC","countryName":"Saint Lucia","latitude":"14.09410000","longitude":"-60.93592000","wikiDataId":"Q1032796"},{"id":66044,"name":"Cap Estate/Becune Point","stateId":3766,"stateCode":"06","stateName":"Gros Islet Quarter","countryId":186,"countryCode":"LC","countryName":"Saint Lucia","latitude":"14.09270000","longitude":"-60.95161000","wikiDataId":"Q1032796"},{"id":66045,"name":"Cap Estate/Caribbean Park","stateId":3766,"stateCode":"06","stateName":"Gros Islet Quarter","countryId":186,"countryCode":"LC","countryName":"Saint Lucia","latitude":"14.10019000","longitude":"-60.92446000","wikiDataId":"Q1032796"},{"id":66046,"name":"Cap Estate/Golf Park","stateId":3766,"stateCode":"06","stateName":"Gros Islet Quarter","countryId":186,"countryCode":"LC","countryName":"Saint Lucia","latitude":"14.09998000","longitude":"-60.93705000","wikiDataId":"Q1032796"},{"id":66047,"name":"Cap Estate/Lower Saline Point","stateId":3766,"stateCode":"06","stateName":"Gros Islet Quarter","countryId":186,"countryCode":"LC","countryName":"Saint Lucia","latitude":"14.10515000","longitude":"-60.94310000","wikiDataId":"Q1032796"},{"id":66048,"name":"Cap Estate/Mon Du Cap","stateId":3766,"stateCode":"06","stateName":"Gros Islet Quarter","countryId":186,"countryCode":"LC","countryName":"Saint Lucia","latitude":"14.10554000","longitude":"-60.93758000","wikiDataId":"Q1032796"},{"id":66049,"name":"Cap Estate/Ranch Site","stateId":3766,"stateCode":"06","stateName":"Gros Islet Quarter","countryId":186,"countryCode":"LC","countryName":"Saint Lucia","latitude":"14.10437000","longitude":"-60.93360000","wikiDataId":"Q1032796"},{"id":66050,"name":"Cap Estate/Saddlec Back","stateId":3766,"stateCode":"06","stateName":"Gros Islet Quarter","countryId":186,"countryCode":"LC","countryName":"Saint Lucia","latitude":"14.10023000","longitude":"-60.94246000","wikiDataId":"Q1032796"},{"id":66051,"name":"Cap Estate/Upper Saline Point","stateId":3766,"stateCode":"06","stateName":"Gros Islet Quarter","countryId":186,"countryCode":"LC","countryName":"Saint Lucia","latitude":"14.10740000","longitude":"-60.94487000","wikiDataId":"Q1032796"},{"id":66055,"name":"Cas En Bas","stateId":3766,"stateCode":"06","stateName":"Gros Islet Quarter","countryId":186,"countryCode":"LC","countryName":"Saint Lucia","latitude":"14.08328000","longitude":"-60.93209000","wikiDataId":"Q1032796"},{"id":66058,"name":"Caye Manje'","stateId":3766,"stateCode":"06","stateName":"Gros Islet Quarter","countryId":186,"countryCode":"LC","countryName":"Saint Lucia","latitude":"14.06629000","longitude":"-60.93560000","wikiDataId":"Q41699"},{"id":66082,"name":"Corinth","stateId":3766,"stateCode":"06","stateName":"Gros Islet Quarter","countryId":186,"countryCode":"LC","countryName":"Saint Lucia","latitude":"14.04710000","longitude":"-60.96046000","wikiDataId":"Q3556840"},{"id":66083,"name":"Corinth Estate","stateId":3766,"stateCode":"06","stateName":"Gros Islet Quarter","countryId":186,"countryCode":"LC","countryName":"Saint Lucia","latitude":"14.04336000","longitude":"-60.95388000","wikiDataId":"Q3556840"},{"id":66084,"name":"Corinth/La Bel Lair","stateId":3766,"stateCode":"06","stateName":"Gros Islet Quarter","countryId":186,"countryCode":"LC","countryName":"Saint Lucia","latitude":"14.04469000","longitude":"-60.94484000","wikiDataId":"Q3556840"},{"id":66092,"name":"Dauphin","stateId":3766,"stateCode":"06","stateName":"Gros Islet Quarter","countryId":186,"countryCode":"LC","countryName":"Saint Lucia","latitude":"14.05647000","longitude":"-60.90188000","wikiDataId":"Q3556840"},{"id":66114,"name":"Des Barras","stateId":3766,"stateCode":"06","stateName":"Gros Islet Quarter","countryId":186,"countryCode":"LC","countryName":"Saint Lucia","latitude":"13.99949000","longitude":"-60.90166000","wikiDataId":"Q3556840"},{"id":66115,"name":"Des Barras/Cacolie","stateId":3766,"stateCode":"06","stateName":"Gros Islet Quarter","countryId":186,"countryCode":"LC","countryName":"Saint Lucia","latitude":"14.01687000","longitude":"-60.90097000","wikiDataId":"Q3556840"},{"id":66118,"name":"Desrameaux","stateId":3766,"stateCode":"06","stateName":"Gros Islet Quarter","countryId":186,"countryCode":"LC","countryName":"Saint Lucia","latitude":"14.03681000","longitude":"-60.92697000","wikiDataId":"Q3556840"},{"id":66157,"name":"Garrand","stateId":3766,"stateCode":"06","stateName":"Gros Islet Quarter","countryId":186,"countryCode":"LC","countryName":"Saint Lucia","latitude":"14.00424000","longitude":"-60.93270000","wikiDataId":"Q3556840"},{"id":66169,"name":"Grand Riviere","stateId":3766,"stateCode":"06","stateName":"Gros Islet Quarter","countryId":186,"countryCode":"LC","countryName":"Saint Lucia","latitude":"14.03546000","longitude":"-60.95152000","wikiDataId":"Q3556840"},{"id":66172,"name":"Grande Riviere/Assou Canal","stateId":3766,"stateCode":"06","stateName":"Gros Islet Quarter","countryId":186,"countryCode":"LC","countryName":"Saint Lucia","latitude":"14.03975000","longitude":"-60.95121000","wikiDataId":"Q3556840"},{"id":66176,"name":"Grande Riviere/Ingle Woods","stateId":3766,"stateCode":"06","stateName":"Gros Islet Quarter","countryId":186,"countryCode":"LC","countryName":"Saint Lucia","latitude":"14.03091000","longitude":"-60.95592000","wikiDataId":"Q3556840"},{"id":66178,"name":"Grande Riviere/Morne Serpent","stateId":3766,"stateCode":"06","stateName":"Gros Islet Quarter","countryId":186,"countryCode":"LC","countryName":"Saint Lucia","latitude":"14.03509000","longitude":"-60.96060000","wikiDataId":"Q3556840"},{"id":66179,"name":"Grande Riviere/Norbert","stateId":3766,"stateCode":"06","stateName":"Gros Islet Quarter","countryId":186,"countryCode":"LC","countryName":"Saint Lucia","latitude":"14.04317000","longitude":"-60.94933000","wikiDataId":"Q3556840"},{"id":66180,"name":"Grande Riviere/Piat","stateId":3766,"stateCode":"06","stateName":"Gros Islet Quarter","countryId":186,"countryCode":"LC","countryName":"Saint Lucia","latitude":"14.03926000","longitude":"-60.94361000","wikiDataId":"Q3556840"},{"id":66181,"name":"Grande Riviere/White Rock","stateId":3766,"stateCode":"06","stateName":"Gros Islet Quarter","countryId":186,"countryCode":"LC","countryName":"Saint Lucia","latitude":"14.03618000","longitude":"-60.95556000","wikiDataId":"Q3556840"},{"id":66184,"name":"Gros Islet","stateId":3766,"stateCode":"06","stateName":"Gros Islet Quarter","countryId":186,"countryCode":"LC","countryName":"Saint Lucia","latitude":"14.06667000","longitude":"-60.95000000","wikiDataId":"Q3116994"},{"id":66185,"name":"Gros Islet Town","stateId":3766,"stateCode":"06","stateName":"Gros Islet Quarter","countryId":186,"countryCode":"LC","countryName":"Saint Lucia","latitude":"14.08080000","longitude":"-60.95312000","wikiDataId":"Q3116994"},{"id":66186,"name":"Gros Islet/Edge Water","stateId":3766,"stateCode":"06","stateName":"Gros Islet Quarter","countryId":186,"countryCode":"LC","countryName":"Saint Lucia","latitude":"14.07912000","longitude":"-60.94973000","wikiDataId":"Q3116994"},{"id":66206,"name":"L'Hermitage","stateId":3766,"stateCode":"06","stateName":"Gros Islet Quarter","countryId":186,"countryCode":"LC","countryName":"Saint Lucia","latitude":"14.06521000","longitude":"-60.93967000","wikiDataId":"Q3116994"},{"id":66211,"name":"La Croix Chabourgh","stateId":3766,"stateCode":"06","stateName":"Gros Islet Quarter","countryId":186,"countryCode":"LC","countryName":"Saint Lucia","latitude":"14.01147000","longitude":"-60.94025000","wikiDataId":"Q3116994"},{"id":66214,"name":"La Guerre","stateId":3766,"stateCode":"06","stateName":"Gros Islet Quarter","countryId":186,"countryCode":"LC","countryName":"Saint Lucia","latitude":"14.02191000","longitude":"-60.92491000","wikiDataId":"Q3116994"},{"id":66215,"name":"La Guerre/Chicken Back Street","stateId":3766,"stateCode":"06","stateName":"Gros Islet Quarter","countryId":186,"countryCode":"LC","countryName":"Saint Lucia","latitude":"14.02387000","longitude":"-60.93108000","wikiDataId":"Q3116994"},{"id":66253,"name":"Marisule","stateId":3766,"stateCode":"06","stateName":"Gros Islet Quarter","countryId":186,"countryCode":"LC","countryName":"Saint Lucia","latitude":"14.04621000","longitude":"-60.97063000","wikiDataId":"Q13220042"},{"id":66254,"name":"Marisule/Bon Air","stateId":3766,"stateCode":"06","stateName":"Gros Islet Quarter","countryId":186,"countryCode":"LC","countryName":"Saint Lucia","latitude":"14.05062000","longitude":"-60.97124000","wikiDataId":"Q13220042"},{"id":66255,"name":"Marisule/East Winds","stateId":3766,"stateCode":"06","stateName":"Gros Islet Quarter","countryId":186,"countryCode":"LC","countryName":"Saint Lucia","latitude":"14.05407000","longitude":"-60.96849000","wikiDataId":"Q13220042"},{"id":66256,"name":"Marisule/La Brellotte","stateId":3766,"stateCode":"06","stateName":"Gros Islet Quarter","countryId":186,"countryCode":"LC","countryName":"Saint Lucia","latitude":"14.05710000","longitude":"-60.97183000","wikiDataId":"Q13220042"},{"id":66257,"name":"Marisule/Top Of The World","stateId":3766,"stateCode":"06","stateName":"Gros Islet Quarter","countryId":186,"countryCode":"LC","countryName":"Saint Lucia","latitude":"14.04385000","longitude":"-60.96885000","wikiDataId":"Q13220042"},{"id":66258,"name":"Marquis Estate","stateId":3766,"stateCode":"06","stateName":"Gros Islet Quarter","countryId":186,"countryCode":"LC","countryName":"Saint Lucia","latitude":"14.02960000","longitude":"-60.90732000","wikiDataId":"Q13220042"},{"id":66261,"name":"Massade","stateId":3766,"stateCode":"06","stateName":"Gros Islet Quarter","countryId":186,"countryCode":"LC","countryName":"Saint Lucia","latitude":"14.08292000","longitude":"-60.94946000","wikiDataId":"Q13220042"},{"id":66269,"name":"Monchy","stateId":3766,"stateCode":"06","stateName":"Gros Islet Quarter","countryId":186,"countryCode":"LC","countryName":"Saint Lucia","latitude":"14.05502000","longitude":"-60.92623000","wikiDataId":"Q11779522"},{"id":66270,"name":"Monchy/Careffe","stateId":3766,"stateCode":"06","stateName":"Gros Islet Quarter","countryId":186,"countryCode":"LC","countryName":"Saint Lucia","latitude":"14.05930000","longitude":"-60.95069000","wikiDataId":"Q11779522"},{"id":66271,"name":"Monchy/Cletus Village","stateId":3766,"stateCode":"06","stateName":"Gros Islet Quarter","countryId":186,"countryCode":"LC","countryName":"Saint Lucia","latitude":"14.05137000","longitude":"-60.92380000","wikiDataId":"Q11779522"},{"id":66272,"name":"Monchy/La Borne","stateId":3766,"stateCode":"06","stateName":"Gros Islet Quarter","countryId":186,"countryCode":"LC","countryName":"Saint Lucia","latitude":"14.04628000","longitude":"-60.91961000","wikiDataId":"Q11779522"},{"id":66273,"name":"Monchy/La Borne/Sans Souci","stateId":3766,"stateCode":"06","stateName":"Gros Islet Quarter","countryId":186,"countryCode":"LC","countryName":"Saint Lucia","latitude":"14.04504000","longitude":"-60.89961000","wikiDataId":"Q11779522"},{"id":66274,"name":"Monchy/La Retraite","stateId":3766,"stateCode":"06","stateName":"Gros Islet Quarter","countryId":186,"countryCode":"LC","countryName":"Saint Lucia","latitude":"14.06421000","longitude":"-60.94564000","wikiDataId":"Q11779522"},{"id":66275,"name":"Monchy/Lafeuillee","stateId":3766,"stateCode":"06","stateName":"Gros Islet Quarter","countryId":186,"countryCode":"LC","countryName":"Saint Lucia","latitude":"14.05950000","longitude":"-60.94086000","wikiDataId":"Q11779522"},{"id":66276,"name":"Monchy/Lawi Fwen","stateId":3766,"stateCode":"06","stateName":"Gros Islet Quarter","countryId":186,"countryCode":"LC","countryName":"Saint Lucia","latitude":"14.05802000","longitude":"-60.92906000","wikiDataId":"Q11779522"},{"id":66277,"name":"Monchy/Malgretoute","stateId":3766,"stateCode":"06","stateName":"Gros Islet Quarter","countryId":186,"countryCode":"LC","countryName":"Saint Lucia","latitude":"14.04108000","longitude":"-60.91912000","wikiDataId":"Q11779522"},{"id":66278,"name":"Monchy/Moulin A Vent","stateId":3766,"stateCode":"06","stateName":"Gros Islet Quarter","countryId":186,"countryCode":"LC","countryName":"Saint Lucia","latitude":"14.06283000","longitude":"-60.95025000","wikiDataId":"Q11779522"},{"id":66279,"name":"Monchy/Ravine Macock","stateId":3766,"stateCode":"06","stateName":"Gros Islet Quarter","countryId":186,"countryCode":"LC","countryName":"Saint Lucia","latitude":"14.04789000","longitude":"-60.92511000","wikiDataId":"Q11779522"},{"id":66280,"name":"Monchy/Riviere Mitan","stateId":3766,"stateCode":"06","stateName":"Gros Islet Quarter","countryId":186,"countryCode":"LC","countryName":"Saint Lucia","latitude":"14.04987000","longitude":"-60.94029000","wikiDataId":"Q11779522"},{"id":66281,"name":"Monchy/Ti Dauphin","stateId":3766,"stateCode":"06","stateName":"Gros Islet Quarter","countryId":186,"countryCode":"LC","countryName":"Saint Lucia","latitude":"14.04081000","longitude":"-60.93225000","wikiDataId":"Q11779522"},{"id":66282,"name":"Monchy/Vieux Sucreic","stateId":3766,"stateCode":"06","stateName":"Gros Islet Quarter","countryId":186,"countryCode":"LC","countryName":"Saint Lucia","latitude":"14.04996000","longitude":"-60.94992000","wikiDataId":"Q11779522"},{"id":66283,"name":"Monchy/Vieux Sucreic/Bois D'Inde","stateId":3766,"stateCode":"06","stateName":"Gros Islet Quarter","countryId":186,"countryCode":"LC","countryName":"Saint Lucia","latitude":"14.05613000","longitude":"-60.95151000","wikiDataId":"Q11779522"},{"id":66284,"name":"Monchy/Vieux Sucreic/Careffe","stateId":3766,"stateCode":"06","stateName":"Gros Islet Quarter","countryId":186,"countryCode":"LC","countryName":"Saint Lucia","latitude":"14.05652000","longitude":"-60.94948000","wikiDataId":"Q11779522"},{"id":66285,"name":"Mongiraud","stateId":3766,"stateCode":"06","stateName":"Gros Islet Quarter","countryId":186,"countryCode":"LC","countryName":"Saint Lucia","latitude":"14.06287000","longitude":"-60.95722000","wikiDataId":"Q11779522"},{"id":66287,"name":"Monier","stateId":3766,"stateCode":"06","stateName":"Gros Islet Quarter","countryId":186,"countryCode":"LC","countryName":"Saint Lucia","latitude":"14.02951000","longitude":"-60.94098000","wikiDataId":"Q11779522"},{"id":66295,"name":"Morne Citon","stateId":3766,"stateCode":"06","stateName":"Gros Islet Quarter","countryId":186,"countryCode":"LC","countryName":"Saint Lucia","latitude":"14.03004000","longitude":"-60.92813000","wikiDataId":"Q11779522"},{"id":66320,"name":"Paix Bouche","stateId":3766,"stateCode":"06","stateName":"Gros Islet Quarter","countryId":186,"countryCode":"LC","countryName":"Saint Lucia","latitude":"14.01755000","longitude":"-60.93852000","wikiDataId":"Q11779522"},{"id":66333,"name":"Pigeon Island","stateId":3766,"stateCode":"06","stateName":"Gros Islet Quarter","countryId":186,"countryCode":"LC","countryName":"Saint Lucia","latitude":"14.08965000","longitude":"-60.95724000","wikiDataId":"Q11779522"},{"id":66336,"name":"Plateau","stateId":3766,"stateCode":"06","stateName":"Gros Islet Quarter","countryId":186,"countryCode":"LC","countryName":"Saint Lucia","latitude":"14.02612000","longitude":"-60.93474000","wikiDataId":"Q11779522"},{"id":66350,"name":"Reduit","stateId":3766,"stateCode":"06","stateName":"Gros Islet Quarter","countryId":186,"countryCode":"LC","countryName":"Saint Lucia","latitude":"14.06829000","longitude":"-60.96145000","wikiDataId":"Q11779522"},{"id":66351,"name":"Reduit Orchard","stateId":3766,"stateCode":"06","stateName":"Gros Islet Quarter","countryId":186,"countryCode":"LC","countryName":"Saint Lucia","latitude":"14.06594000","longitude":"-60.95340000","wikiDataId":"Q11779522"},{"id":66352,"name":"Reduit Park","stateId":3766,"stateCode":"06","stateName":"Gros Islet Quarter","countryId":186,"countryCode":"LC","countryName":"Saint Lucia","latitude":"14.06622000","longitude":"-60.95560000","wikiDataId":"Q11779522"},{"id":66362,"name":"Rodney Bay","stateId":3766,"stateCode":"06","stateName":"Gros Islet Quarter","countryId":186,"countryCode":"LC","countryName":"Saint Lucia","latitude":"14.07292000","longitude":"-60.95443000","wikiDataId":"Q11779522"},{"id":66363,"name":"Rodney Heights","stateId":3766,"stateCode":"06","stateName":"Gros Islet Quarter","countryId":186,"countryCode":"LC","countryName":"Saint Lucia","latitude":"14.06731000","longitude":"-60.94906000","wikiDataId":"Q11779522"},{"id":66412,"name":"Union","stateId":3766,"stateCode":"06","stateName":"Gros Islet Quarter","countryId":186,"countryCode":"LC","countryName":"Saint Lucia","latitude":"14.02907000","longitude":"-60.96480000","wikiDataId":"Q493030"},{"id":66413,"name":"Union Terrace","stateId":3766,"stateCode":"06","stateName":"Gros Islet Quarter","countryId":186,"countryCode":"LC","countryName":"Saint Lucia","latitude":"14.02654000","longitude":"-60.95710000","wikiDataId":"Q493030"},{"id":66415,"name":"Union/Ti Morne","stateId":3766,"stateCode":"06","stateName":"Gros Islet Quarter","countryId":186,"countryCode":"LC","countryName":"Saint Lucia","latitude":"14.02283000","longitude":"-60.95272000","wikiDataId":"Q493030"},{"id":65959,"name":"Annus","stateId":3759,"stateCode":"07","stateName":"Laborie Quarter","countryId":186,"countryCode":"LC","countryName":"Saint Lucia","latitude":"13.77449000","longitude":"-61.00511000","wikiDataId":"Q26569"},{"id":65976,"name":"Balca","stateId":3759,"stateCode":"07","stateName":"Laborie Quarter","countryId":186,"countryCode":"LC","countryName":"Saint Lucia","latitude":"13.77117000","longitude":"-61.02389000","wikiDataId":"Q569439"},{"id":65977,"name":"Balca/En Leur Ba","stateId":3759,"stateCode":"07","stateName":"Laborie Quarter","countryId":186,"countryCode":"LC","countryName":"Saint Lucia","latitude":"13.77638000","longitude":"-61.01931000","wikiDataId":"Q569439"},{"id":65978,"name":"Balembouche","stateId":3759,"stateCode":"07","stateName":"Laborie Quarter","countryId":186,"countryCode":"LC","countryName":"Saint Lucia","latitude":"13.75992000","longitude":"-61.02840000","wikiDataId":"Q569439"},{"id":65980,"name":"Banse","stateId":3759,"stateCode":"07","stateName":"Laborie Quarter","countryId":186,"countryCode":"LC","countryName":"Saint Lucia","latitude":"13.79211000","longitude":"-60.99282000","wikiDataId":"Q569439"},{"id":65981,"name":"Banse La Grace","stateId":3759,"stateCode":"07","stateName":"Laborie Quarter","countryId":186,"countryCode":"LC","countryName":"Saint Lucia","latitude":"13.78150000","longitude":"-60.99840000","wikiDataId":"Q569439"},{"id":66026,"name":"Bongalo","stateId":3759,"stateCode":"07","stateName":"Laborie Quarter","countryId":186,"countryCode":"LC","countryName":"Saint Lucia","latitude":"13.76666000","longitude":"-61.02991000","wikiDataId":"Q569439"},{"id":66089,"name":"Daban","stateId":3759,"stateCode":"07","stateName":"Laborie Quarter","countryId":186,"countryCode":"LC","countryName":"Saint Lucia","latitude":"13.80490000","longitude":"-61.00435000","wikiDataId":"Q3556840"},{"id":66143,"name":"Fond Berange","stateId":3759,"stateCode":"07","stateName":"Laborie Quarter","countryId":186,"countryCode":"LC","countryName":"Saint Lucia","latitude":"13.78238000","longitude":"-61.00346000","wikiDataId":"Q3556840"},{"id":66158,"name":"Gayabois","stateId":3759,"stateCode":"07","stateName":"Laborie Quarter","countryId":186,"countryCode":"LC","countryName":"Saint Lucia","latitude":"13.78643000","longitude":"-61.01835000","wikiDataId":"Q3556840"},{"id":66159,"name":"Gentil","stateId":3759,"stateCode":"07","stateName":"Laborie Quarter","countryId":186,"countryCode":"LC","countryName":"Saint Lucia","latitude":"13.76816000","longitude":"-60.98877000","wikiDataId":"Q3556840"},{"id":66161,"name":"Getrine","stateId":3759,"stateCode":"07","stateName":"Laborie Quarter","countryId":186,"countryCode":"LC","countryName":"Saint Lucia","latitude":"13.78192000","longitude":"-61.00741000","wikiDataId":"Q3556840"},{"id":66163,"name":"Giraud","stateId":3759,"stateCode":"07","stateName":"Laborie Quarter","countryId":186,"countryCode":"LC","countryName":"Saint Lucia","latitude":"13.79254000","longitude":"-61.00843000","wikiDataId":"Q3556840"},{"id":66188,"name":"H'Erelle","stateId":3759,"stateCode":"07","stateName":"Laborie Quarter","countryId":186,"countryCode":"LC","countryName":"Saint Lucia","latitude":"13.75599000","longitude":"-60.98698000","wikiDataId":"Q3116994"},{"id":66203,"name":"Kennedy Highway/Laborie Bypass","stateId":3759,"stateCode":"07","stateName":"Laborie Quarter","countryId":186,"countryCode":"LC","countryName":"Saint Lucia","latitude":"13.75380000","longitude":"-60.99594000","wikiDataId":"Q3116994"},{"id":66216,"name":"La Haut","stateId":3759,"stateCode":"07","stateName":"Laborie Quarter","countryId":186,"countryCode":"LC","countryName":"Saint Lucia","latitude":"13.79207000","longitude":"-61.00014000","wikiDataId":"Q3116994"},{"id":66221,"name":"La Perle","stateId":3759,"stateCode":"07","stateName":"Laborie Quarter","countryId":186,"countryCode":"LC","countryName":"Saint Lucia","latitude":"13.76483000","longitude":"-61.02088000","wikiDataId":"Q3116994"},{"id":66233,"name":"Laborie","stateId":3759,"stateCode":"07","stateName":"Laborie Quarter","countryId":186,"countryCode":"LC","countryName":"Saint Lucia","latitude":"13.75000000","longitude":"-60.98333000","wikiDataId":"Q13220042"},{"id":66241,"name":"Londonderry","stateId":3759,"stateCode":"07","stateName":"Laborie Quarter","countryId":186,"countryCode":"LC","countryName":"Saint Lucia","latitude":"13.77623000","longitude":"-61.01362000","wikiDataId":"Q13220042"},{"id":66243,"name":"Macdomel","stateId":3759,"stateCode":"07","stateName":"Laborie Quarter","countryId":186,"countryCode":"LC","countryName":"Saint Lucia","latitude":"13.77497000","longitude":"-60.98508000","wikiDataId":"Q13220042"},{"id":66298,"name":"Morne Gomier","stateId":3759,"stateCode":"07","stateName":"Laborie Quarter","countryId":186,"countryCode":"LC","countryName":"Saint Lucia","latitude":"13.76552000","longitude":"-60.99524000","wikiDataId":"Q11779522"},{"id":66302,"name":"Morne Le Blanc","stateId":3759,"stateCode":"07","stateName":"Laborie Quarter","countryId":186,"countryCode":"LC","countryName":"Saint Lucia","latitude":"13.75868000","longitude":"-60.99913000","wikiDataId":"Q11779522"},{"id":66319,"name":"Olibo","stateId":3759,"stateCode":"07","stateName":"Laborie Quarter","countryId":186,"countryCode":"LC","countryName":"Saint Lucia","latitude":"13.77628000","longitude":"-60.99931000","wikiDataId":"Q11779522"},{"id":66324,"name":"Parc Estate","stateId":3759,"stateCode":"07","stateName":"Laborie Quarter","countryId":186,"countryCode":"LC","countryName":"Saint Lucia","latitude":"13.79639000","longitude":"-61.01613000","wikiDataId":"Q11779522"},{"id":66331,"name":"Piaye","stateId":3759,"stateCode":"07","stateName":"Laborie Quarter","countryId":186,"countryCode":"LC","countryName":"Saint Lucia","latitude":"13.75628000","longitude":"-61.02279000","wikiDataId":"Q11779522"},{"id":66368,"name":"Saltibus","stateId":3759,"stateCode":"07","stateName":"Laborie Quarter","countryId":186,"countryCode":"LC","countryName":"Saint Lucia","latitude":"13.81211000","longitude":"-61.00982000","wikiDataId":"Q11779522"},{"id":66371,"name":"Saphire","stateId":3759,"stateCode":"07","stateName":"Laborie Quarter","countryId":186,"countryCode":"LC","countryName":"Saint Lucia","latitude":"13.75670000","longitude":"-61.01209000","wikiDataId":"Q11779522"},{"id":66393,"name":"Tete Morne","stateId":3759,"stateCode":"07","stateName":"Laborie Quarter","countryId":186,"countryCode":"LC","countryName":"Saint Lucia","latitude":"13.76160000","longitude":"-61.03397000","wikiDataId":"Q493030"},{"id":66426,"name":"Village","stateId":3759,"stateCode":"07","stateName":"Laborie Quarter","countryId":186,"countryCode":"LC","countryName":"Saint Lucia","latitude":"13.74927000","longitude":"-60.99375000","wikiDataId":"Q3494579"},{"id":66431,"name":"Warwick/Daban","stateId":3759,"stateCode":"07","stateName":"Laborie Quarter","countryId":186,"countryCode":"LC","countryName":"Saint Lucia","latitude":"13.81084000","longitude":"-61.00047000","wikiDataId":"Q3494579"},{"id":65964,"name":"Anse Ger","stateId":3762,"stateCode":"08","stateName":"Micoud Quarter","countryId":186,"countryCode":"LC","countryName":"Saint Lucia","latitude":"13.79567000","longitude":"-60.91567000","wikiDataId":"Q26569"},{"id":65991,"name":"Beauchamp","stateId":3762,"stateCode":"08","stateName":"Micoud Quarter","countryId":186,"countryCode":"LC","countryName":"Saint Lucia","latitude":"13.81778000","longitude":"-60.91528000","wikiDataId":"Q569439"},{"id":66014,"name":"Blanchard","stateId":3762,"stateCode":"08","stateName":"Micoud Quarter","countryId":186,"countryCode":"LC","countryName":"Saint Lucia","latitude":"13.80616000","longitude":"-60.94630000","wikiDataId":"Q569439"},{"id":66041,"name":"Canelles","stateId":3762,"stateCode":"08","stateName":"Micoud Quarter","countryId":186,"countryCode":"LC","countryName":"Saint Lucia","latitude":"13.78515000","longitude":"-60.91789000","wikiDataId":"Q1032796"},{"id":66059,"name":"Cazuca","stateId":3762,"stateCode":"08","stateName":"Micoud Quarter","countryId":186,"countryCode":"LC","countryName":"Saint Lucia","latitude":"13.80002000","longitude":"-60.90481000","wikiDataId":"Q41699"},{"id":66068,"name":"Chique/Blanchard","stateId":3762,"stateCode":"08","stateName":"Micoud Quarter","countryId":186,"countryCode":"LC","countryName":"Saint Lucia","latitude":"13.80120000","longitude":"-60.94970000","wikiDataId":"Q41699"},{"id":66079,"name":"Coolie Town","stateId":3762,"stateCode":"08","stateName":"Micoud Quarter","countryId":186,"countryCode":"LC","countryName":"Saint Lucia","latitude":"13.85429000","longitude":"-60.91380000","wikiDataId":"Q3556840"},{"id":66098,"name":"Delomel","stateId":3762,"stateCode":"08","stateName":"Micoud Quarter","countryId":186,"countryCode":"LC","countryName":"Saint Lucia","latitude":"13.80338000","longitude":"-60.92927000","wikiDataId":"Q3556840"},{"id":66116,"name":"Des Blanchard","stateId":3762,"stateCode":"08","stateName":"Micoud Quarter","countryId":186,"countryCode":"LC","countryName":"Saint Lucia","latitude":"13.81155000","longitude":"-60.93423000","wikiDataId":"Q3556840"},{"id":66119,"name":"Desruisseaux","stateId":3762,"stateCode":"08","stateName":"Micoud Quarter","countryId":186,"countryCode":"LC","countryName":"Saint Lucia","latitude":"13.79640000","longitude":"-60.93540000","wikiDataId":"Q3556840"},{"id":66126,"name":"Dugard","stateId":3762,"stateCode":"08","stateName":"Micoud Quarter","countryId":186,"countryCode":"LC","countryName":"Saint Lucia","latitude":"13.81090000","longitude":"-60.91415000","wikiDataId":"Q3556840"},{"id":66134,"name":"Escap","stateId":3762,"stateCode":"08","stateName":"Micoud Quarter","countryId":186,"countryCode":"LC","countryName":"Saint Lucia","latitude":"13.83031000","longitude":"-60.89673000","wikiDataId":"Q3556840"},{"id":66148,"name":"Fond D'Lor/Dugard","stateId":3762,"stateCode":"08","stateName":"Micoud Quarter","countryId":186,"countryCode":"LC","countryName":"Saint Lucia","latitude":"13.81069000","longitude":"-60.92119000","wikiDataId":"Q3556840"},{"id":66150,"name":"Fond Estate","stateId":3762,"stateCode":"08","stateName":"Micoud Quarter","countryId":186,"countryCode":"LC","countryName":"Saint Lucia","latitude":"13.84243000","longitude":"-60.91862000","wikiDataId":"Q3556840"},{"id":66153,"name":"Fond/Desruisseaux","stateId":3762,"stateCode":"08","stateName":"Micoud Quarter","countryId":186,"countryCode":"LC","countryName":"Saint Lucia","latitude":"13.79421000","longitude":"-60.94128000","wikiDataId":"Q3556840"},{"id":66165,"name":"Gomier","stateId":3762,"stateCode":"08","stateName":"Micoud Quarter","countryId":186,"countryCode":"LC","countryName":"Saint Lucia","latitude":"13.81485000","longitude":"-60.95252000","wikiDataId":"Q3556840"},{"id":66167,"name":"Gouette","stateId":3762,"stateCode":"08","stateName":"Micoud Quarter","countryId":186,"countryCode":"LC","countryName":"Saint Lucia","latitude":"13.80650000","longitude":"-60.93964000","wikiDataId":"Q3556840"},{"id":66192,"name":"Honeymoon Beach","stateId":3762,"stateCode":"08","stateName":"Micoud Quarter","countryId":186,"countryCode":"LC","countryName":"Saint Lucia","latitude":"13.77746000","longitude":"-60.90493000","wikiDataId":"Q3116994"},{"id":66205,"name":"L'Eau Mineau","stateId":3762,"stateCode":"08","stateName":"Micoud Quarter","countryId":186,"countryCode":"LC","countryName":"Saint Lucia","latitude":"13.80672000","longitude":"-60.92103000","wikiDataId":"Q3116994"},{"id":66210,"name":"La Courville","stateId":3762,"stateCode":"08","stateName":"Micoud Quarter","countryId":186,"countryCode":"LC","countryName":"Saint Lucia","latitude":"13.81056000","longitude":"-60.92766000","wikiDataId":"Q3116994"},{"id":66222,"name":"La Pointe","stateId":3762,"stateCode":"08","stateName":"Micoud Quarter","countryId":186,"countryCode":"LC","countryName":"Saint Lucia","latitude":"13.84593000","longitude":"-60.89332000","wikiDataId":"Q3116994"},{"id":66228,"name":"La Tille","stateId":3762,"stateCode":"08","stateName":"Micoud Quarter","countryId":186,"countryCode":"LC","countryName":"Saint Lucia","latitude":"13.82744000","longitude":"-60.91716000","wikiDataId":"Q3116994"},{"id":66239,"name":"Lezy","stateId":3762,"stateCode":"08","stateName":"Micoud Quarter","countryId":186,"countryCode":"LC","countryName":"Saint Lucia","latitude":"13.80372000","longitude":"-60.93906000","wikiDataId":"Q13220042"},{"id":66240,"name":"Lombard","stateId":3762,"stateCode":"08","stateName":"Micoud Quarter","countryId":186,"countryCode":"LC","countryName":"Saint Lucia","latitude":"13.85772000","longitude":"-60.91510000","wikiDataId":"Q13220042"},{"id":66245,"name":"Mahaut","stateId":3762,"stateCode":"08","stateName":"Micoud Quarter","countryId":186,"countryCode":"LC","countryName":"Saint Lucia","latitude":"13.84391000","longitude":"-60.95397000","wikiDataId":"Q13220042"},{"id":66247,"name":"Malgretoute","stateId":3762,"stateCode":"08","stateName":"Micoud Quarter","countryId":186,"countryCode":"LC","countryName":"Saint Lucia","latitude":"13.84199000","longitude":"-60.90411000","wikiDataId":"Q13220042"},{"id":66249,"name":"Mamiku","stateId":3762,"stateCode":"08","stateName":"Micoud Quarter","countryId":186,"countryCode":"LC","countryName":"Saint Lucia","latitude":"13.86744000","longitude":"-60.90184000","wikiDataId":"Q13220042"},{"id":66264,"name":"Micoud","stateId":3762,"stateCode":"08","stateName":"Micoud Quarter","countryId":186,"countryCode":"LC","countryName":"Saint Lucia","latitude":"13.81667000","longitude":"-60.90000000","wikiDataId":"Q11779522"},{"id":66268,"name":"Mon Repos","stateId":3762,"stateCode":"08","stateName":"Micoud Quarter","countryId":186,"countryCode":"LC","countryName":"Saint Lucia","latitude":"13.85865000","longitude":"-60.89591000","wikiDataId":"Q11779522"},{"id":66290,"name":"Moreau","stateId":3762,"stateCode":"08","stateName":"Micoud Quarter","countryId":186,"countryCode":"LC","countryName":"Saint Lucia","latitude":"13.82676000","longitude":"-60.94238000","wikiDataId":"Q11779522"},{"id":66308,"name":"Morne Vient","stateId":3762,"stateCode":"08","stateName":"Micoud Quarter","countryId":186,"countryCode":"LC","countryName":"Saint Lucia","latitude":"13.80646000","longitude":"-60.95241000","wikiDataId":"Q11779522"},{"id":66312,"name":"Myette Gardens","stateId":3762,"stateCode":"08","stateName":"Micoud Quarter","countryId":186,"countryCode":"LC","countryName":"Saint Lucia","latitude":"13.81862000","longitude":"-60.90440000","wikiDataId":"Q11779522"},{"id":66315,"name":"New Village","stateId":3762,"stateCode":"08","stateName":"Micoud Quarter","countryId":186,"countryCode":"LC","countryName":"Saint Lucia","latitude":"13.82446000","longitude":"-60.89864000","wikiDataId":"Q11779522"},{"id":66321,"name":"Paix Bouche","stateId":3762,"stateCode":"08","stateName":"Micoud Quarter","countryId":186,"countryCode":"LC","countryName":"Saint Lucia","latitude":"13.81556000","longitude":"-60.94073000","wikiDataId":"Q11779522"},{"id":66323,"name":"Palmiste Estate","stateId":3762,"stateCode":"08","stateName":"Micoud Quarter","countryId":186,"countryCode":"LC","countryName":"Saint Lucia","latitude":"13.85377000","longitude":"-60.96007000","wikiDataId":"Q11779522"},{"id":66326,"name":"Patience","stateId":3762,"stateCode":"08","stateName":"Micoud Quarter","countryId":186,"countryCode":"LC","countryName":"Saint Lucia","latitude":"13.85000000","longitude":"-60.90874000","wikiDataId":"Q11779522"},{"id":66334,"name":"Planard","stateId":3762,"stateCode":"08","stateName":"Micoud Quarter","countryId":186,"countryCode":"LC","countryName":"Saint Lucia","latitude":"13.80521000","longitude":"-60.91540000","wikiDataId":"Q11779522"},{"id":66341,"name":"Praslin","stateId":3762,"stateCode":"08","stateName":"Micoud Quarter","countryId":186,"countryCode":"LC","countryName":"Saint Lucia","latitude":"13.87545000","longitude":"-60.89717000","wikiDataId":"Q11779522"},{"id":66344,"name":"Rameau","stateId":3762,"stateCode":"08","stateName":"Micoud Quarter","countryId":186,"countryCode":"LC","countryName":"Saint Lucia","latitude":"13.83055000","longitude":"-60.92375000","wikiDataId":"Q11779522"},{"id":66367,"name":"Saint Marie Road","stateId":3762,"stateCode":"08","stateName":"Micoud Quarter","countryId":186,"countryCode":"LC","countryName":"Saint Lucia","latitude":"13.85444000","longitude":"-60.91803000","wikiDataId":"Q11779522"},{"id":66373,"name":"Saut","stateId":3762,"stateCode":"08","stateName":"Micoud Quarter","countryId":186,"countryCode":"LC","countryName":"Saint Lucia","latitude":"13.81272000","longitude":"-60.94375000","wikiDataId":"Q11779522"},{"id":66375,"name":"Savannes","stateId":3762,"stateCode":"08","stateName":"Micoud Quarter","countryId":186,"countryCode":"LC","countryName":"Saint Lucia","latitude":"13.77098000","longitude":"-60.92017000","wikiDataId":"Q11779522"},{"id":66379,"name":"St Helen Estate","stateId":3762,"stateCode":"08","stateName":"Micoud Quarter","countryId":186,"countryCode":"LC","countryName":"Saint Lucia","latitude":"13.78735000","longitude":"-60.90726000","wikiDataId":"Q493030"},{"id":66401,"name":"Ti Riviere","stateId":3762,"stateCode":"08","stateName":"Micoud Quarter","countryId":186,"countryCode":"LC","countryName":"Saint Lucia","latitude":"13.83006000","longitude":"-60.93774000","wikiDataId":"Q493030"},{"id":66403,"name":"Ti Rocher","stateId":3762,"stateCode":"08","stateName":"Micoud Quarter","countryId":186,"countryCode":"LC","countryName":"Saint Lucia","latitude":"13.81734000","longitude":"-60.92858000","wikiDataId":"Q493030"},{"id":66411,"name":"Troumassee","stateId":3762,"stateCode":"08","stateName":"Micoud Quarter","countryId":186,"countryCode":"LC","countryName":"Saint Lucia","latitude":"13.80892000","longitude":"-60.90341000","wikiDataId":"Q493030"},{"id":66425,"name":"Village","stateId":3762,"stateCode":"08","stateName":"Micoud Quarter","countryId":186,"countryCode":"LC","countryName":"Saint Lucia","latitude":"13.81904000","longitude":"-60.89692000","wikiDataId":"Q3494579"},{"id":66430,"name":"Volet","stateId":3762,"stateCode":"08","stateName":"Micoud Quarter","countryId":186,"countryCode":"LC","countryName":"Saint Lucia","latitude":"13.82626000","longitude":"-60.90789000","wikiDataId":"Q3494579"},{"id":65961,"name":"Anse Chastanet","stateId":3764,"stateCode":"10","stateName":"Soufrire Quarter","countryId":186,"countryCode":"LC","countryName":"Saint Lucia","latitude":"13.86426000","longitude":"-61.07016000","wikiDataId":"Q26569"},{"id":65984,"name":"Barons Drive/Coin De L'Anse","stateId":3764,"stateCode":"10","stateName":"Soufrire Quarter","countryId":186,"countryCode":"LC","countryName":"Saint Lucia","latitude":"13.85138000","longitude":"-61.05939000","wikiDataId":"Q569439"},{"id":65990,"name":"Beasejour/Myers Bridge","stateId":3764,"stateCode":"10","stateName":"Soufrire Quarter","countryId":186,"countryCode":"LC","countryName":"Saint Lucia","latitude":"13.82147000","longitude":"-61.03396000","wikiDataId":"Q569439"},{"id":65999,"name":"Belle Plaine","stateId":3764,"stateCode":"10","stateName":"Soufrire Quarter","countryId":186,"countryCode":"LC","countryName":"Saint Lucia","latitude":"13.82700000","longitude":"-61.03127000","wikiDataId":"Q569439"},{"id":66004,"name":"Bellefond","stateId":3764,"stateCode":"10","stateName":"Soufrire Quarter","countryId":186,"countryCode":"LC","countryName":"Saint Lucia","latitude":"13.82753000","longitude":"-61.04269000","wikiDataId":"Q569439"},{"id":66007,"name":"Belvedere","stateId":3764,"stateCode":"10","stateName":"Soufrire Quarter","countryId":186,"countryCode":"LC","countryName":"Saint Lucia","latitude":"13.83440000","longitude":"-61.01771000","wikiDataId":"Q569439"},{"id":66020,"name":"Bois D'Inde","stateId":3764,"stateCode":"10","stateName":"Soufrire Quarter","countryId":186,"countryCode":"LC","countryName":"Saint Lucia","latitude":"13.83650000","longitude":"-61.03491000","wikiDataId":"Q569439"},{"id":66031,"name":"Bouton","stateId":3764,"stateCode":"10","stateName":"Soufrire Quarter","countryId":186,"countryCode":"LC","countryName":"Saint Lucia","latitude":"13.87936000","longitude":"-61.06449000","wikiDataId":"Q569439"},{"id":66039,"name":"Calvary/Calvaire","stateId":3764,"stateCode":"10","stateName":"Soufrire Quarter","countryId":186,"countryCode":"LC","countryName":"Saint Lucia","latitude":"13.85035000","longitude":"-61.05620000","wikiDataId":"Q569439"},{"id":66062,"name":"Cenac","stateId":3764,"stateCode":"10","stateName":"Soufrire Quarter","countryId":186,"countryCode":"LC","countryName":"Saint Lucia","latitude":"13.87207000","longitude":"-61.04243000","wikiDataId":"Q41699"},{"id":66067,"name":"Chateau Belair","stateId":3764,"stateCode":"10","stateName":"Soufrire Quarter","countryId":186,"countryCode":"LC","countryName":"Saint Lucia","latitude":"13.81830000","longitude":"-61.05350000","wikiDataId":"Q41699"},{"id":66076,"name":"Colombette","stateId":3764,"stateCode":"10","stateName":"Soufrire Quarter","countryId":186,"countryCode":"LC","countryName":"Saint Lucia","latitude":"13.86861000","longitude":"-61.04990000","wikiDataId":"Q3556840"},{"id":66077,"name":"Compar","stateId":3764,"stateCode":"10","stateName":"Soufrire Quarter","countryId":186,"countryCode":"LC","countryName":"Saint Lucia","latitude":"13.83586000","longitude":"-61.05934000","wikiDataId":"Q3556840"},{"id":66086,"name":"Cresslands","stateId":3764,"stateCode":"10","stateName":"Soufrire Quarter","countryId":186,"countryCode":"LC","countryName":"Saint Lucia","latitude":"13.85999000","longitude":"-61.04032000","wikiDataId":"Q3556840"},{"id":66120,"name":"Deville","stateId":3764,"stateCode":"10","stateName":"Soufrire Quarter","countryId":186,"countryCode":"LC","countryName":"Saint Lucia","latitude":"13.81372000","longitude":"-61.05049000","wikiDataId":"Q3556840"},{"id":66121,"name":"Diamond/Diamond Estate","stateId":3764,"stateCode":"10","stateName":"Soufrire Quarter","countryId":186,"countryCode":"LC","countryName":"Saint Lucia","latitude":"13.85168000","longitude":"-61.04352000","wikiDataId":"Q3556840"},{"id":66137,"name":"Esperance","stateId":3764,"stateCode":"10","stateName":"Soufrire Quarter","countryId":186,"countryCode":"LC","countryName":"Saint Lucia","latitude":"13.84562000","longitude":"-61.03713000","wikiDataId":"Q3556840"},{"id":66138,"name":"Etangs","stateId":3764,"stateCode":"10","stateName":"Soufrire Quarter","countryId":186,"countryCode":"LC","countryName":"Saint Lucia","latitude":"13.81902000","longitude":"-61.04056000","wikiDataId":"Q3556840"},{"id":66144,"name":"Fond Bernier","stateId":3764,"stateCode":"10","stateName":"Soufrire Quarter","countryId":186,"countryCode":"LC","countryName":"Saint Lucia","latitude":"13.85845000","longitude":"-61.05949000","wikiDataId":"Q3556840"},{"id":66145,"name":"Fond Cacoa","stateId":3764,"stateCode":"10","stateName":"Soufrire Quarter","countryId":186,"countryCode":"LC","countryName":"Saint Lucia","latitude":"13.85442000","longitude":"-61.05077000","wikiDataId":"Q3556840"},{"id":66149,"name":"Fond Doux","stateId":3764,"stateCode":"10","stateName":"Soufrire Quarter","countryId":186,"countryCode":"LC","countryName":"Saint Lucia","latitude":"13.82096000","longitude":"-61.04952000","wikiDataId":"Q3556840"},{"id":66151,"name":"Fond Gens Libre","stateId":3764,"stateCode":"10","stateName":"Soufrire Quarter","countryId":186,"countryCode":"LC","countryName":"Saint Lucia","latitude":"13.80791000","longitude":"-61.06259000","wikiDataId":"Q3556840"},{"id":66199,"name":"Jalousie","stateId":3764,"stateCode":"10","stateName":"Soufrire Quarter","countryId":186,"countryCode":"LC","countryName":"Saint Lucia","latitude":"13.82811000","longitude":"-61.05891000","wikiDataId":"Q3116994"},{"id":66217,"name":"La Haut","stateId":3764,"stateCode":"10","stateName":"Soufrire Quarter","countryId":186,"countryCode":"LC","countryName":"Saint Lucia","latitude":"13.86276000","longitude":"-61.05584000","wikiDataId":"Q3116994"},{"id":66219,"name":"La Pearle","stateId":3764,"stateCode":"10","stateName":"Soufrire Quarter","countryId":186,"countryCode":"LC","countryName":"Saint Lucia","latitude":"13.85740000","longitude":"-61.04760000","wikiDataId":"Q3116994"},{"id":66237,"name":"Lenny Hill","stateId":3764,"stateCode":"10","stateName":"Soufrire Quarter","countryId":186,"countryCode":"LC","countryName":"Saint Lucia","latitude":"13.85059000","longitude":"-61.05906000","wikiDataId":"Q13220042"},{"id":66248,"name":"Malgretoute","stateId":3764,"stateCode":"10","stateName":"Soufrire Quarter","countryId":186,"countryCode":"LC","countryName":"Saint Lucia","latitude":"13.84233000","longitude":"-61.05998000","wikiDataId":"Q13220042"},{"id":66265,"name":"Migny","stateId":3764,"stateCode":"10","stateName":"Soufrire Quarter","countryId":186,"countryCode":"LC","countryName":"Saint Lucia","latitude":"13.84166000","longitude":"-61.01808000","wikiDataId":"Q11779522"},{"id":66267,"name":"Mocha","stateId":3764,"stateCode":"10","stateName":"Soufrire Quarter","countryId":186,"countryCode":"LC","countryName":"Saint Lucia","latitude":"13.83117000","longitude":"-61.02503000","wikiDataId":"Q11779522"},{"id":66292,"name":"Morne Bonin","stateId":3764,"stateCode":"10","stateName":"Soufrire Quarter","countryId":186,"countryCode":"LC","countryName":"Saint Lucia","latitude":"13.83174000","longitude":"-61.03285000","wikiDataId":"Q11779522"},{"id":66300,"name":"Morne La Croix","stateId":3764,"stateCode":"10","stateName":"Soufrire Quarter","countryId":186,"countryCode":"LC","countryName":"Saint Lucia","latitude":"13.81762000","longitude":"-61.06146000","wikiDataId":"Q11779522"},{"id":66301,"name":"Morne Lastic/Desruisseaux","stateId":3764,"stateCode":"10","stateName":"Soufrire Quarter","countryId":186,"countryCode":"LC","countryName":"Saint Lucia","latitude":"13.86628000","longitude":"-61.05894000","wikiDataId":"Q11779522"},{"id":66313,"name":"New Development","stateId":3764,"stateCode":"10","stateName":"Soufrire Quarter","countryId":186,"countryCode":"LC","countryName":"Saint Lucia","latitude":"13.86176000","longitude":"-61.04791000","wikiDataId":"Q11779522"},