[{"id":97508,"name":"Afanas’yevskiy Rayon","stateId":1890,"stateCode":"KIR","stateName":"Kirov Oblast","countryId":182,"countryCode":"RU","countryName":"Russia","latitude":"58.83333000","longitude":"53.25000000","wikiDataId":"Q2723543"},{"id":97653,"name":"Arbazh","stateId":1890,"stateCode":"KIR","stateName":"Kirov Oblast","countryId":182,"countryCode":"RU","countryName":"Russia","latitude":"57.68041000","longitude":"48.30647000","wikiDataId":"Q31886960"},{"id":97671,"name":"Arkul’","stateId":1890,"stateCode":"KIR","stateName":"Kirov Oblast","countryId":182,"countryCode":"RU","countryName":"Russia","latitude":"57.28085000","longitude":"50.04400000","wikiDataId":"Q2683528"},{"id":97843,"name":"Belaya Kholunitsa","stateId":1890,"stateCode":"KIR","stateName":"Kirov Oblast","countryId":182,"countryCode":"RU","countryName":"Russia","latitude":"58.84000000","longitude":"50.85278000","wikiDataId":"Q104660"},{"id":97861,"name":"Belorechensk","stateId":1890,"stateCode":"KIR","stateName":"Kirov Oblast","countryId":182,"countryCode":"RU","countryName":"Russia","latitude":"58.77251000","longitude":"52.29357000","wikiDataId":"Q31913805"},{"id":97973,"name":"Bogorodskoye","stateId":1890,"stateCode":"KIR","stateName":"Kirov Oblast","countryId":182,"countryCode":"RU","countryName":"Russia","latitude":"57.82849000","longitude":"50.74856000","wikiDataId":"Q31917897"},{"id":98229,"name":"Chërnaya Kholunitsa","stateId":1890,"stateCode":"KIR","stateName":"Kirov Oblast","countryId":182,"countryCode":"RU","countryName":"Russia","latitude":"58.85115000","longitude":"51.71545000","wikiDataId":"Q4518633"},{"id":98247,"name":"Darovskoy","stateId":1890,"stateCode":"KIR","stateName":"Kirov Oblast","countryId":182,"countryCode":"RU","countryName":"Russia","latitude":"58.76999000","longitude":"47.95642000","wikiDataId":"Q34800519"},{"id":98263,"name":"Dem’yanovo","stateId":1890,"stateCode":"KIR","stateName":"Kirov Oblast","countryId":182,"countryCode":"RU","countryName":"Russia","latitude":"60.35111000","longitude":"47.08417000","wikiDataId":"Q34801215"},{"id":98344,"name":"Dubrovka","stateId":1890,"stateCode":"KIR","stateName":"Kirov Oblast","countryId":182,"countryCode":"RU","countryName":"Russia","latitude":"59.22866000","longitude":"51.15578000","wikiDataId":"Q37783957"},{"id":98412,"name":"Falënki","stateId":1890,"stateCode":"KIR","stateName":"Kirov Oblast","countryId":182,"countryCode":"RU","countryName":"Russia","latitude":"58.36127000","longitude":"51.59461000","wikiDataId":"Q37785040"},{"id":98413,"name":"Falënskiy Rayon","stateId":1890,"stateCode":"KIR","stateName":"Kirov Oblast","countryId":182,"countryCode":"RU","countryName":"Russia","latitude":"58.33333000","longitude":"51.58333000","wikiDataId":"Q2220468"},{"id":99037,"name":"Kiknur","stateId":1890,"stateCode":"KIR","stateName":"Kirov Oblast","countryId":182,"countryCode":"RU","countryName":"Russia","latitude":"57.30341000","longitude":"47.20105000","wikiDataId":"Q2650937"},{"id":99038,"name":"Kiknurskiy Rayon","stateId":1890,"stateCode":"KIR","stateName":"Kirov Oblast","countryId":182,"countryCode":"RU","countryName":"Russia","latitude":"57.33333000","longitude":"47.16667000","wikiDataId":"Q2641038"},{"id":99041,"name":"Kil’mez’","stateId":1890,"stateCode":"KIR","stateName":"Kirov Oblast","countryId":182,"countryCode":"RU","countryName":"Russia","latitude":"56.94389000","longitude":"51.06500000","wikiDataId":"Q35696267"},{"id":99059,"name":"Kirov","stateId":1890,"stateCode":"KIR","stateName":"Kirov Oblast","countryId":182,"countryCode":"RU","countryName":"Russia","latitude":"58.59665000","longitude":"49.66007000","wikiDataId":"Q5384"},{"id":99062,"name":"Kirovo-Chepetsk","stateId":1890,"stateCode":"KIR","stateName":"Kirov Oblast","countryId":182,"countryCode":"RU","countryName":"Russia","latitude":"58.55386000","longitude":"50.03986000","wikiDataId":"Q153565"},{"id":99063,"name":"Kirovo-Chepetskiy Rayon","stateId":1890,"stateCode":"KIR","stateName":"Kirov Oblast","countryId":182,"countryCode":"RU","countryName":"Russia","latitude":"58.50000000","longitude":"50.00000000","wikiDataId":"Q973848"},{"id":99073,"name":"Kirs","stateId":1890,"stateCode":"KIR","stateName":"Kirov Oblast","countryId":182,"countryCode":"RU","countryName":"Russia","latitude":"59.33882000","longitude":"52.24467000","wikiDataId":"Q153636"},{"id":99233,"name":"Kosino","stateId":1890,"stateCode":"KIR","stateName":"Kirov Oblast","countryId":182,"countryCode":"RU","countryName":"Russia","latitude":"58.41272000","longitude":"51.27819000","wikiDataId":"Q35700278"},{"id":99239,"name":"Kostino","stateId":1890,"stateCode":"KIR","stateName":"Kirov Oblast","countryId":182,"countryCode":"RU","countryName":"Russia","latitude":"58.90966000","longitude":"53.26907000","wikiDataId":"Q35700424"},{"id":99244,"name":"Kotel’nich","stateId":1890,"stateCode":"KIR","stateName":"Kirov Oblast","countryId":182,"countryCode":"RU","countryName":"Russia","latitude":"58.30890000","longitude":"48.34800000","wikiDataId":"Q155437"},{"id":99282,"name":"Krasnaya Polyana","stateId":1890,"stateCode":"KIR","stateName":"Kirov Oblast","countryId":182,"countryCode":"RU","countryName":"Russia","latitude":"56.24204000","longitude":"51.14425000","wikiDataId":"Q35702190"},{"id":99444,"name":"Kumëny","stateId":1890,"stateCode":"KIR","stateName":"Kirov Oblast","countryId":182,"countryCode":"RU","countryName":"Russia","latitude":"58.10887000","longitude":"49.91614000","wikiDataId":"Q607019"},{"id":99543,"name":"Lal’sk","stateId":1890,"stateCode":"KIR","stateName":"Kirov Oblast","countryId":182,"countryCode":"RU","countryName":"Russia","latitude":"60.74146000","longitude":"47.58617000","wikiDataId":"Q996772"},{"id":99577,"name":"Leninskoye","stateId":1890,"stateCode":"KIR","stateName":"Kirov Oblast","countryId":182,"countryCode":"RU","countryName":"Russia","latitude":"58.31637000","longitude":"47.08856000","wikiDataId":"Q35715063"},{"id":99593,"name":"Lesnoy","stateId":1890,"stateCode":"KIR","stateName":"Kirov Oblast","countryId":182,"countryCode":"RU","countryName":"Russia","latitude":"59.78100000","longitude":"52.12838000","wikiDataId":"Q35715803"},{"id":99601,"name":"Lesnyye Polyany","stateId":1890,"stateCode":"KIR","stateName":"Kirov Oblast","countryId":182,"countryCode":"RU","countryName":"Russia","latitude":"59.00314000","longitude":"52.41802000","wikiDataId":"Q4259764"},{"id":99695,"name":"Luza","stateId":1890,"stateCode":"KIR","stateName":"Kirov Oblast","countryId":182,"countryCode":"RU","countryName":"Russia","latitude":"60.63081000","longitude":"47.25118000","wikiDataId":"Q146334"},{"id":99699,"name":"Luzskiy Rayon","stateId":1890,"stateCode":"KIR","stateName":"Kirov Oblast","countryId":182,"countryCode":"RU","countryName":"Russia","latitude":"60.58333000","longitude":"47.25000000","wikiDataId":"Q920480"},{"id":99704,"name":"Lyangasovo","stateId":1890,"stateCode":"KIR","stateName":"Kirov Oblast","countryId":182,"countryCode":"RU","countryName":"Russia","latitude":"58.51759000","longitude":"49.44718000","wikiDataId":"Q35721594"},{"id":99760,"name":"Malmyzh","stateId":1890,"stateCode":"KIR","stateName":"Kirov Oblast","countryId":182,"countryCode":"RU","countryName":"Russia","latitude":"56.52050000","longitude":"50.68180000","wikiDataId":"Q157961"},{"id":99761,"name":"Malmyzhskiy Rayon","stateId":1890,"stateCode":"KIR","stateName":"Kirov Oblast","countryId":182,"countryCode":"RU","countryName":"Russia","latitude":"56.58333000","longitude":"50.91667000","wikiDataId":"Q2737760"},{"id":99803,"name":"Maromitsa","stateId":1890,"stateCode":"KIR","stateName":"Kirov Oblast","countryId":182,"countryCode":"RU","countryName":"Russia","latitude":"59.86828000","longitude":"48.01227000","wikiDataId":"Q35725157"},{"id":99844,"name":"Medvedok","stateId":1890,"stateCode":"KIR","stateName":"Kirov Oblast","countryId":182,"countryCode":"RU","countryName":"Russia","latitude":"57.38913000","longitude":"50.03510000","wikiDataId":"Q35727518"},{"id":99925,"name":"Mirnyy","stateId":1890,"stateCode":"KIR","stateName":"Kirov Oblast","countryId":182,"countryCode":"RU","countryName":"Russia","latitude":"58.49333000","longitude":"47.65389000","wikiDataId":"Q35730454"},{"id":100005,"name":"Murashi","stateId":1890,"stateCode":"KIR","stateName":"Kirov Oblast","countryId":182,"countryCode":"RU","countryName":"Russia","latitude":"59.39990000","longitude":"48.96150000","wikiDataId":"Q162640"},{"id":100006,"name":"Murashinskiy Rayon","stateId":1890,"stateCode":"KIR","stateName":"Kirov Oblast","countryId":182,"countryCode":"RU","countryName":"Russia","latitude":"59.33333000","longitude":"48.75000000","wikiDataId":"Q2219075"},{"id":100018,"name":"Murygino","stateId":1890,"stateCode":"KIR","stateName":"Kirov Oblast","countryId":182,"countryCode":"RU","countryName":"Russia","latitude":"58.73831000","longitude":"49.45822000","wikiDataId":"Q3867455"},{"id":100048,"name":"Nagorsk","stateId":1890,"stateCode":"KIR","stateName":"Kirov Oblast","countryId":182,"countryCode":"RU","countryName":"Russia","latitude":"59.31722000","longitude":"50.80778000","wikiDataId":"Q37894099"},{"id":100049,"name":"Nagorskiy Rayon","stateId":1890,"stateCode":"KIR","stateName":"Kirov Oblast","countryId":182,"countryCode":"RU","countryName":"Russia","latitude":"59.50000000","longitude":"50.83333000","wikiDataId":"Q2217368"},{"id":100099,"name":"Nema","stateId":1890,"stateCode":"KIR","stateName":"Kirov Oblast","countryId":182,"countryCode":"RU","countryName":"Russia","latitude":"57.50675000","longitude":"50.50115000","wikiDataId":"Q37895286"},{"id":100103,"name":"Nemskiy Rayon","stateId":1890,"stateCode":"KIR","stateName":"Kirov Oblast","countryId":182,"countryCode":"RU","countryName":"Russia","latitude":"57.50000000","longitude":"50.66667000","wikiDataId":"Q2219032"},{"id":100154,"name":"Nizhneivkino","stateId":1890,"stateCode":"KIR","stateName":"Kirov Oblast","countryId":182,"countryCode":"RU","countryName":"Russia","latitude":"58.19398000","longitude":"49.52137000","wikiDataId":"Q37896696"},{"id":100196,"name":"Nolinsk","stateId":1890,"stateCode":"KIR","stateName":"Kirov Oblast","countryId":182,"countryCode":"RU","countryName":"Russia","latitude":"57.55962000","longitude":"49.93629000","wikiDataId":"Q175505"},{"id":100197,"name":"Nolinskiy Rayon","stateId":1890,"stateCode":"KIR","stateName":"Kirov Oblast","countryId":182,"countryCode":"RU","countryName":"Russia","latitude":"57.58333000","longitude":"49.91667000","wikiDataId":"Q2631532"},{"id":100445,"name":"Omutninsk","stateId":1890,"stateCode":"KIR","stateName":"Kirov Oblast","countryId":182,"countryCode":"RU","countryName":"Russia","latitude":"58.67001000","longitude":"52.19320000","wikiDataId":"Q176395"},{"id":100453,"name":"Oparino","stateId":1890,"stateCode":"KIR","stateName":"Kirov Oblast","countryId":182,"countryCode":"RU","countryName":"Russia","latitude":"59.85179000","longitude":"48.27826000","wikiDataId":"Q3882808"},{"id":100467,"name":"Orichevskiy Rayon","stateId":1890,"stateCode":"KIR","stateName":"Kirov Oblast","countryId":182,"countryCode":"RU","countryName":"Russia","latitude":"58.25000000","longitude":"48.75000000","wikiDataId":"Q1654452"},{"id":100468,"name":"Orichi","stateId":1890,"stateCode":"KIR","stateName":"Kirov Oblast","countryId":182,"countryCode":"RU","countryName":"Russia","latitude":"58.40356000","longitude":"49.05719000","wikiDataId":"Q37903480"},{"id":100470,"name":"Orlov","stateId":1890,"stateCode":"KIR","stateName":"Kirov Oblast","countryId":182,"countryCode":"RU","countryName":"Russia","latitude":"58.53946000","longitude":"48.89173000","wikiDataId":"Q168088"},{"id":100475,"name":"Orlovskiy Rayon","stateId":1890,"stateCode":"KIR","stateName":"Kirov Oblast","countryId":182,"countryCode":"RU","countryName":"Russia","latitude":"58.66306000","longitude":"48.74222000","wikiDataId":"Q1774536"},{"id":100559,"name":"Pasegovo","stateId":1890,"stateCode":"KIR","stateName":"Kirov Oblast","countryId":182,"countryCode":"RU","countryName":"Russia","latitude":"58.50602000","longitude":"49.51383000","wikiDataId":"Q37959299"},{"id":100635,"name":"Peskovka","stateId":1890,"stateCode":"KIR","stateName":"Kirov Oblast","countryId":182,"countryCode":"RU","countryName":"Russia","latitude":"59.04478000","longitude":"52.36057000","wikiDataId":"Q37959163"},{"id":100678,"name":"Pinyug","stateId":1890,"stateCode":"KIR","stateName":"Kirov Oblast","countryId":182,"countryCode":"RU","countryName":"Russia","latitude":"60.25095000","longitude":"47.78425000","wikiDataId":"Q37959074"},{"id":100690,"name":"Pizhanka","stateId":1890,"stateCode":"KIR","stateName":"Kirov Oblast","countryId":182,"countryCode":"RU","countryName":"Russia","latitude":"57.46042000","longitude":"48.54200000","wikiDataId":"Q37959055"},{"id":100691,"name":"Pizhanskiy Rayon","stateId":1890,"stateCode":"KIR","stateName":"Kirov Oblast","countryId":182,"countryCode":"RU","countryName":"Russia","latitude":"57.41667000","longitude":"48.50000000","wikiDataId":"Q2218676"},{"id":100726,"name":"Podosinovets","stateId":1890,"stateCode":"KIR","stateName":"Kirov Oblast","countryId":182,"countryCode":"RU","countryName":"Russia","latitude":"60.27758000","longitude":"47.06587000","wikiDataId":"Q37958985"},{"id":100727,"name":"Podosinovskiy Rayon","stateId":1890,"stateCode":"KIR","stateName":"Kirov Oblast","countryId":182,"countryCode":"RU","countryName":"Russia","latitude":"60.16667000","longitude":"47.33333000","wikiDataId":"Q2218017"},{"id":100930,"name":"Raduzhnyy","stateId":1890,"stateCode":"KIR","stateName":"Kirov Oblast","countryId":182,"countryCode":"RU","countryName":"Russia","latitude":"58.49899000","longitude":"49.64347000","wikiDataId":"Q4387944"},{"id":101022,"name":"Rudnichnyy","stateId":1890,"stateCode":"KIR","stateName":"Kirov Oblast","countryId":182,"countryCode":"RU","countryName":"Russia","latitude":"59.61702000","longitude":"52.47033000","wikiDataId":"Q37958480"},{"id":101095,"name":"Sanchursk","stateId":1890,"stateCode":"KIR","stateName":"Kirov Oblast","countryId":182,"countryCode":"RU","countryName":"Russia","latitude":"56.94125000","longitude":"47.24987000","wikiDataId":"Q37958323"},{"id":101096,"name":"Sanchurskiy Rayon","stateId":1890,"stateCode":"KIR","stateName":"Kirov Oblast","countryId":182,"countryCode":"RU","countryName":"Russia","latitude":"57.00000000","longitude":"47.33333000","wikiDataId":"Q2641054"},{"id":101228,"name":"Shabalinskiy Rayon","stateId":1890,"stateCode":"KIR","stateName":"Kirov Oblast","countryId":182,"countryCode":"RU","countryName":"Russia","latitude":"58.33333000","longitude":"46.91667000","wikiDataId":"Q2218987"},{"id":101409,"name":"Slobodskoy","stateId":1890,"stateCode":"KIR","stateName":"Kirov Oblast","countryId":182,"countryCode":"RU","countryName":"Russia","latitude":"58.73222000","longitude":"50.17722000","wikiDataId":"Q195683"},{"id":101410,"name":"Slobodskoy Rayon","stateId":1890,"stateCode":"KIR","stateName":"Kirov Oblast","countryId":182,"countryCode":"RU","countryName":"Russia","latitude":"58.75000000","longitude":"50.25000000","wikiDataId":"Q2723499"},{"id":101487,"name":"Sosnovka","stateId":1890,"stateCode":"KIR","stateName":"Kirov Oblast","countryId":182,"countryCode":"RU","countryName":"Russia","latitude":"56.25496000","longitude":"51.28419000","wikiDataId":"Q196400"},{"id":101503,"name":"Sovetsk","stateId":1890,"stateCode":"KIR","stateName":"Kirov Oblast","countryId":182,"countryCode":"RU","countryName":"Russia","latitude":"57.58475000","longitude":"48.95844000","wikiDataId":"Q196369"},{"id":101513,"name":"Sovetskiy Rayon","stateId":1890,"stateCode":"KIR","stateName":"Kirov Oblast","countryId":182,"countryCode":"RU","countryName":"Russia","latitude":"57.58333000","longitude":"49.00000000","wikiDataId":"Q2632840"},{"id":101521,"name":"Sozimskiy","stateId":1890,"stateCode":"KIR","stateName":"Kirov Oblast","countryId":182,"countryCode":"RU","countryName":"Russia","latitude":"59.74178000","longitude":"52.24821000","wikiDataId":"Q37957257"},{"id":101629,"name":"Strizhi","stateId":1890,"stateCode":"KIR","stateName":"Kirov Oblast","countryId":182,"countryCode":"RU","countryName":"Russia","latitude":"58.45758000","longitude":"49.28667000","wikiDataId":"Q37957005"},{"id":101637,"name":"Stulovo","stateId":1890,"stateCode":"KIR","stateName":"Kirov Oblast","countryId":182,"countryCode":"RU","countryName":"Russia","latitude":"58.72250000","longitude":"50.14389000","wikiDataId":"Q37956994"},{"id":101662,"name":"Suna","stateId":1890,"stateCode":"KIR","stateName":"Kirov Oblast","countryId":182,"countryCode":"RU","countryName":"Russia","latitude":"57.83379000","longitude":"50.05884000","wikiDataId":"Q37956890"},{"id":101663,"name":"Sunskiy Rayon","stateId":1890,"stateCode":"KIR","stateName":"Kirov Oblast","countryId":182,"countryCode":"RU","countryName":"Russia","latitude":"57.83333000","longitude":"50.00000000","wikiDataId":"Q1655810"},{"id":101696,"name":"Svecha","stateId":1890,"stateCode":"KIR","stateName":"Kirov Oblast","countryId":182,"countryCode":"RU","countryName":"Russia","latitude":"58.27849000","longitude":"47.51636000","wikiDataId":"Q37956818"},{"id":101704,"name":"Svetlopolyansk","stateId":1890,"stateCode":"KIR","stateName":"Kirov Oblast","countryId":182,"countryCode":"RU","countryName":"Russia","latitude":"59.41836000","longitude":"52.36045000","wikiDataId":"Q37959806"},{"id":101898,"name":"Torfyanoy","stateId":1890,"stateCode":"KIR","stateName":"Kirov Oblast","countryId":182,"countryCode":"RU","countryName":"Russia","latitude":"58.49160000","longitude":"49.19786000","wikiDataId":"Q37956414"},{"id":101987,"name":"Tuzha","stateId":1890,"stateCode":"KIR","stateName":"Kirov Oblast","countryId":182,"countryCode":"RU","countryName":"Russia","latitude":"57.60615000","longitude":"47.93597000","wikiDataId":"Q4000979"},{"id":102060,"name":"Uni","stateId":1890,"stateCode":"KIR","stateName":"Kirov Oblast","countryId":182,"countryCode":"RU","countryName":"Russia","latitude":"57.75100000","longitude":"51.49130000","wikiDataId":"Q1069990"},{"id":102061,"name":"Uninskiy Rayon","stateId":1890,"stateCode":"KIR","stateName":"Kirov Oblast","countryId":182,"countryCode":"RU","countryName":"Russia","latitude":"57.66667000","longitude":"51.50000000","wikiDataId":"Q1658636"},{"id":102094,"name":"Urzhum","stateId":1890,"stateCode":"KIR","stateName":"Kirov Oblast","countryId":182,"countryCode":"RU","countryName":"Russia","latitude":"57.11412000","longitude":"49.99956000","wikiDataId":"Q196839"},{"id":102177,"name":"Vakhrushi","stateId":1890,"stateCode":"KIR","stateName":"Kirov Oblast","countryId":182,"countryCode":"RU","countryName":"Russia","latitude":"58.68472000","longitude":"50.02611000","wikiDataId":"Q4007176"},{"id":102276,"name":"Verkhoshizhem’ye","stateId":1890,"stateCode":"KIR","stateName":"Kirov Oblast","countryId":182,"countryCode":"RU","countryName":"Russia","latitude":"58.01097000","longitude":"49.10384000","wikiDataId":"Q37955421"},{"id":102398,"name":"Vostochnyy","stateId":1890,"stateCode":"KIR","stateName":"Kirov Oblast","countryId":182,"countryCode":"RU","countryName":"Russia","latitude":"58.78811000","longitude":"52.24513000","wikiDataId":"Q4016497"},{"id":102420,"name":"Vyatskiye Polyany","stateId":1890,"stateCode":"KIR","stateName":"Kirov Oblast","countryId":182,"countryCode":"RU","countryName":"Russia","latitude":"56.22602000","longitude":"51.06557000","wikiDataId":"Q134302"},{"id":102491,"name":"Yaransk","stateId":1890,"stateCode":"KIR","stateName":"Kirov Oblast","countryId":182,"countryCode":"RU","countryName":"Russia","latitude":"57.30331000","longitude":"47.88611000","wikiDataId":"Q198977"},{"id":102492,"name":"Yaranskiy Rayon","stateId":1890,"stateCode":"KIR","stateName":"Kirov Oblast","countryId":182,"countryCode":"RU","countryName":"Russia","latitude":"57.16667000","longitude":"48.00000000","wikiDataId":"Q2723493"},{"id":102602,"name":"Yur’yanskiy Rayon","stateId":1890,"stateCode":"KIR","stateName":"Kirov Oblast","countryId":182,"countryCode":"RU","countryName":"Russia","latitude":"59.00000000","longitude":"49.25000000","wikiDataId":"Q1973867"},{"id":102777,"name":"Zuyevka","stateId":1890,"stateCode":"KIR","stateName":"Kirov Oblast","countryId":182,"countryCode":"RU","countryName":"Russia","latitude":"58.40503000","longitude":"51.13355000","wikiDataId":"Q141373"}]