[{"id":2212,"name":"Adana","countryId":225,"countryCode":"TR","countryName":"Turkey","stateCode":"01","type":"province","latitude":"37.26123150","longitude":"35.39050460"},{"id":2155,"name":"Adıyaman","countryId":225,"countryCode":"TR","countryName":"Turkey","stateCode":"02","type":"province","latitude":"37.90782910","longitude":"38.48499230"},{"id":2179,"name":"Afyonkarahisar","countryId":225,"countryCode":"TR","countryName":"Turkey","stateCode":"03","type":"province","latitude":"38.73910990","longitude":"30.71200230"},{"id":2193,"name":"Ağrı","countryId":225,"countryCode":"TR","countryName":"Turkey","stateCode":"04","type":"province","latitude":"39.62692180","longitude":"43.02159650"},{"id":2210,"name":"Aksaray","countryId":225,"countryCode":"TR","countryName":"Turkey","stateCode":"68","type":"province","latitude":"38.33520430","longitude":"33.97500180"},{"id":2161,"name":"Amasya","countryId":225,"countryCode":"TR","countryName":"Turkey","stateCode":"05","type":"province","latitude":"40.65166080","longitude":"35.90379660"},{"id":2217,"name":"Ankara","countryId":225,"countryCode":"TR","countryName":"Turkey","stateCode":"06","type":"province","latitude":"39.78052450","longitude":"32.71813750"},{"id":2169,"name":"Antalya","countryId":225,"countryCode":"TR","countryName":"Turkey","stateCode":"07","type":"province","latitude":"37.09516720","longitude":"31.07937050"},{"id":2185,"name":"Ardahan","countryId":225,"countryCode":"TR","countryName":"Turkey","stateCode":"75","type":"province","latitude":"41.11129640","longitude":"42.78316740"},{"id":2191,"name":"Artvin","countryId":225,"countryCode":"TR","countryName":"Turkey","stateCode":"08","type":"province","latitude":"41.07866400","longitude":"41.76282230"},{"id":2187,"name":"Aydın","countryId":225,"countryCode":"TR","countryName":"Turkey","stateCode":"09","type":"province","latitude":"37.81170330","longitude":"28.48639630"},{"id":2175,"name":"Balıkesir","countryId":225,"countryCode":"TR","countryName":"Turkey","stateCode":"10","type":"province","latitude":"39.76167820","longitude":"28.11226790"},{"id":2148,"name":"Bartın","countryId":225,"countryCode":"TR","countryName":"Turkey","stateCode":"74","type":"province","latitude":"41.58105090","longitude":"32.46097940"},{"id":2194,"name":"Batman","countryId":225,"countryCode":"TR","countryName":"Turkey","stateCode":"72","type":"province","latitude":"37.83624960","longitude":"41.36057390"},{"id":2177,"name":"Bayburt","countryId":225,"countryCode":"TR","countryName":"Turkey","stateCode":"69","type":"province","latitude":"40.26032000","longitude":"40.22804800"},{"id":2221,"name":"Bilecik","countryId":225,"countryCode":"TR","countryName":"Turkey","stateCode":"11","type":"province","latitude":"40.05665550","longitude":"30.06652360"},{"id":2153,"name":"Bingöl","countryId":225,"countryCode":"TR","countryName":"Turkey","stateCode":"12","type":"province","latitude":"39.06263540","longitude":"40.76960950"},{"id":2215,"name":"Bitlis","countryId":225,"countryCode":"TR","countryName":"Turkey","stateCode":"13","type":"province","latitude":"38.65231330","longitude":"42.42020280"},{"id":2172,"name":"Bolu","countryId":225,"countryCode":"TR","countryName":"Turkey","stateCode":"14","type":"province","latitude":"40.57597660","longitude":"31.57880860"},{"id":2209,"name":"Burdur","countryId":225,"countryCode":"TR","countryName":"Turkey","stateCode":"15","type":"province","latitude":"37.46126690","longitude":"30.06652360"},{"id":2163,"name":"Bursa","countryId":225,"countryCode":"TR","countryName":"Turkey","stateCode":"16","type":"province","latitude":"40.06554590","longitude":"29.23207840"},{"id":2216,"name":"Çanakkale","countryId":225,"countryCode":"TR","countryName":"Turkey","stateCode":"17","type":"province","latitude":"40.05101040","longitude":"26.98524220"},{"id":2168,"name":"Çankırı","countryId":225,"countryCode":"TR","countryName":"Turkey","stateCode":"18","type":"province","latitude":"40.53690730","longitude":"33.58838930"},{"id":2173,"name":"Çorum","countryId":225,"countryCode":"TR","countryName":"Turkey","stateCode":"19","type":"province","latitude":"40.49982110","longitude":"34.59862630"},{"id":2157,"name":"Denizli","countryId":225,"countryCode":"TR","countryName":"Turkey","stateCode":"20","type":"province","latitude":"37.61283950","longitude":"29.23207840"},{"id":2226,"name":"Diyarbakır","countryId":225,"countryCode":"TR","countryName":"Turkey","stateCode":"21","type":"province","latitude":"38.10663720","longitude":"40.54268960"},{"id":2202,"name":"Düzce","countryId":225,"countryCode":"TR","countryName":"Turkey","stateCode":"81","type":"province","latitude":"40.87705310","longitude":"31.31927130"},{"id":2151,"name":"Edirne","countryId":225,"countryCode":"TR","countryName":"Turkey","stateCode":"22","type":"province","latitude":"41.15172220","longitude":"26.51379640"},{"id":2159,"name":"Elazığ","countryId":225,"countryCode":"TR","countryName":"Turkey","stateCode":"23","type":"province","latitude":"38.49648040","longitude":"39.21990290"},{"id":2160,"name":"Erzincan","countryId":225,"countryCode":"TR","countryName":"Turkey","stateCode":"24","type":"province","latitude":"39.76819140","longitude":"39.05013060"},{"id":2165,"name":"Erzurum","countryId":225,"countryCode":"TR","countryName":"Turkey","stateCode":"25","type":"province","latitude":"40.07467990","longitude":"41.66945620"},{"id":2164,"name":"Eskişehir","countryId":225,"countryCode":"TR","countryName":"Turkey","stateCode":"26","type":"province","latitude":"39.63296570","longitude":"31.26263660"},{"id":2203,"name":"Gaziantep","countryId":225,"countryCode":"TR","countryName":"Turkey","stateCode":"27","type":"province","latitude":"37.07638820","longitude":"37.38272340"},{"id":2186,"name":"Giresun","countryId":225,"countryCode":"TR","countryName":"Turkey","stateCode":"28","type":"province","latitude":"40.64616720","longitude":"38.59355110"},{"id":2204,"name":"Gümüşhane","countryId":225,"countryCode":"TR","countryName":"Turkey","stateCode":"29","type":"province","latitude":"40.28036730","longitude":"39.31432530"},{"id":2190,"name":"Hakkâri","countryId":225,"countryCode":"TR","countryName":"Turkey","stateCode":"30","type":"province","latitude":"37.44593190","longitude":"43.74498410"},{"id":2211,"name":"Hatay","countryId":225,"countryCode":"TR","countryName":"Turkey","stateCode":"31","type":"province","latitude":"36.40184880","longitude":"36.34980970"},{"id":2166,"name":"Iğdır","countryId":225,"countryCode":"TR","countryName":"Turkey","stateCode":"76","type":"province","latitude":"39.88798410","longitude":"44.00483650"},{"id":2222,"name":"Isparta","countryId":225,"countryCode":"TR","countryName":"Turkey","stateCode":"32","type":"province","latitude":"38.02114640","longitude":"31.07937050"},{"id":2170,"name":"İstanbul","countryId":225,"countryCode":"TR","countryName":"Turkey","stateCode":"34","type":"province","latitude":"41.16343020","longitude":"28.76644080"},{"id":2205,"name":"İzmir","countryId":225,"countryCode":"TR","countryName":"Turkey","stateCode":"35","type":"province","latitude":"38.35916930","longitude":"27.26761160"},{"id":2227,"name":"Kahramanmaraş","countryId":225,"countryCode":"TR","countryName":"Turkey","stateCode":"46","type":"province","latitude":"37.75030360","longitude":"36.95410700"},{"id":2223,"name":"Karabük","countryId":225,"countryCode":"TR","countryName":"Turkey","stateCode":"78","type":"province","latitude":"41.18748900","longitude":"32.74174190"},{"id":2184,"name":"Karaman","countryId":225,"countryCode":"TR","countryName":"Turkey","stateCode":"70","type":"province","latitude":"37.24363360","longitude":"33.61757700"},{"id":2208,"name":"Kars","countryId":225,"countryCode":"TR","countryName":"Turkey","stateCode":"36","type":"province","latitude":"40.28076360","longitude":"42.99195270"},{"id":2197,"name":"Kastamonu","countryId":225,"countryCode":"TR","countryName":"Turkey","stateCode":"37","type":"province","latitude":"41.41038630","longitude":"33.69983340"},{"id":2200,"name":"Kayseri","countryId":225,"countryCode":"TR","countryName":"Turkey","stateCode":"38","type":"province","latitude":"38.62568540","longitude":"35.74068820"},{"id":2154,"name":"Kilis","countryId":225,"countryCode":"TR","countryName":"Turkey","stateCode":"79","type":"province","latitude":"36.82047750","longitude":"37.16873390"},{"id":2178,"name":"Kırıkkale","countryId":225,"countryCode":"TR","countryName":"Turkey","stateCode":"71","type":"province","latitude":"39.88768780","longitude":"33.75552480"},{"id":2176,"name":"Kırklareli","countryId":225,"countryCode":"TR","countryName":"Turkey","stateCode":"39","type":"province","latitude":"41.72597950","longitude":"27.48383900"},{"id":2180,"name":"Kırşehir","countryId":225,"countryCode":"TR","countryName":"Turkey","stateCode":"40","type":"province","latitude":"39.22689050","longitude":"33.97500180"},{"id":2195,"name":"Kocaeli","countryId":225,"countryCode":"TR","countryName":"Turkey","stateCode":"41","type":"province","latitude":"40.85327040","longitude":"29.88152030"},{"id":2171,"name":"Konya","countryId":225,"countryCode":"TR","countryName":"Turkey","stateCode":"42","type":"province","latitude":"37.98381340","longitude":"32.71813750"},{"id":2149,"name":"Kütahya","countryId":225,"countryCode":"TR","countryName":"Turkey","stateCode":"43","type":"province","latitude":"39.35813700","longitude":"29.60354950"},{"id":2158,"name":"Malatya","countryId":225,"countryCode":"TR","countryName":"Turkey","stateCode":"44","type":"province","latitude":"38.40150570","longitude":"37.95362980"},{"id":2198,"name":"Manisa","countryId":225,"countryCode":"TR","countryName":"Turkey","stateCode":"45","type":"province","latitude":"38.84193730","longitude":"28.11226790"},{"id":2224,"name":"Mardin","countryId":225,"countryCode":"TR","countryName":"Turkey","stateCode":"47","type":"province","latitude":"37.34429290","longitude":"40.61964870"},{"id":2156,"name":"Mersin","countryId":225,"countryCode":"TR","countryName":"Turkey","stateCode":"33","type":"province","latitude":"36.81208580","longitude":"34.64147500"},{"id":2182,"name":"Muğla","countryId":225,"countryCode":"TR","countryName":"Turkey","stateCode":"48","type":"province","latitude":"37.18358190","longitude":"28.48639630"},{"id":2162,"name":"Muş","countryId":225,"countryCode":"TR","countryName":"Turkey","stateCode":"49","type":"province","latitude":"38.94618880","longitude":"41.75389310"},{"id":2196,"name":"Nevşehir","countryId":225,"countryCode":"TR","countryName":"Turkey","stateCode":"50","type":"province","latitude":"38.69393990","longitude":"34.68565090"},{"id":2189,"name":"Niğde","countryId":225,"countryCode":"TR","countryName":"Turkey","stateCode":"51","type":"province","latitude":"38.09930860","longitude":"34.68565090"},{"id":2174,"name":"Ordu","countryId":225,"countryCode":"TR","countryName":"Turkey","stateCode":"52","type":"province","latitude":"40.79905800","longitude":"37.38990050"},{"id":2214,"name":"Osmaniye","countryId":225,"countryCode":"TR","countryName":"Turkey","stateCode":"80","type":"province","latitude":"37.21302580","longitude":"36.17626150"},{"id":2219,"name":"Rize","countryId":225,"countryCode":"TR","countryName":"Turkey","stateCode":"53","type":"province","latitude":"40.95814970","longitude":"40.92269850"},{"id":2150,"name":"Sakarya","countryId":225,"countryCode":"TR","countryName":"Turkey","stateCode":"54","type":"province","latitude":"40.78885500","longitude":"30.40595400"},{"id":2220,"name":"Samsun","countryId":225,"countryCode":"TR","countryName":"Turkey","stateCode":"55","type":"province","latitude":"41.18648590","longitude":"36.13226780"},{"id":2183,"name":"Şanlıurfa","countryId":225,"countryCode":"TR","countryName":"Turkey","stateCode":"63","type":"province","latitude":"37.35691020","longitude":"39.15436770"},{"id":2207,"name":"Siirt","countryId":225,"countryCode":"TR","countryName":"Turkey","stateCode":"56","type":"province","latitude":"37.86588620","longitude":"42.14945230"},{"id":4854,"name":"Sinop","countryId":225,"countryCode":"TR","countryName":"Turkey","stateCode":"57","type":"province","latitude":"41.55947490","longitude":"34.85805320"},{"id":2181,"name":"Sivas","countryId":225,"countryCode":"TR","countryName":"Turkey","stateCode":"58","type":"province","latitude":"39.44880390","longitude":"37.12944970"},{"id":2225,"name":"Şırnak","countryId":225,"countryCode":"TR","countryName":"Turkey","stateCode":"73","type":"province","latitude":"37.41874810","longitude":"42.49183380"},{"id":2167,"name":"Tekirdağ","countryId":225,"countryCode":"TR","countryName":"Turkey","stateCode":"59","type":"province","latitude":"41.11212270","longitude":"27.26761160"},{"id":2199,"name":"Tokat","countryId":225,"countryCode":"TR","countryName":"Turkey","stateCode":"60","type":"province","latitude":"40.39027130","longitude":"36.62518630"},{"id":2206,"name":"Trabzon","countryId":225,"countryCode":"TR","countryName":"Turkey","stateCode":"61","type":"province","latitude":"40.79924100","longitude":"39.58479440"},{"id":2192,"name":"Tunceli","countryId":225,"countryCode":"TR","countryName":"Turkey","stateCode":"62","type":"province","latitude":"39.30735540","longitude":"39.43877780"},{"id":2201,"name":"Uşak","countryId":225,"countryCode":"TR","countryName":"Turkey","stateCode":"64","type":"province","latitude":"38.54313190","longitude":"29.23207840"},{"id":2152,"name":"Van","countryId":225,"countryCode":"TR","countryName":"Turkey","stateCode":"65","type":"province","latitude":"38.36794170","longitude":"43.71827870"},{"id":2218,"name":"Yalova","countryId":225,"countryCode":"TR","countryName":"Turkey","stateCode":"77","type":"province","latitude":"40.57759860","longitude":"29.20883030"},{"id":2188,"name":"Yozgat","countryId":225,"countryCode":"TR","countryName":"Turkey","stateCode":"66","type":"province","latitude":"39.72719790","longitude":"35.10778580"},{"id":2213,"name":"Zonguldak","countryId":225,"countryCode":"TR","countryName":"Turkey","stateCode":"67","type":"province","latitude":"41.31249170","longitude":"31.85982510"}]