[{"id":104154,"name":"Kromberk","stateId":4205,"stateCode":"084","stateName":"Nova Gorica City Municipality","countryId":201,"countryCode":"SI","countryName":"Slovenia","latitude":"45.96083000","longitude":"13.66556000","wikiDataId":"Q2478784"},{"id":104206,"name":"Nova Gorica","stateId":4205,"stateCode":"084","stateName":"Nova Gorica City Municipality","countryId":201,"countryCode":"SI","countryName":"Slovenia","latitude":"45.95604000","longitude":"13.64837000","wikiDataId":"Q1018"},{"id":104237,"name":"Prvačina","stateId":4205,"stateCode":"084","stateName":"Nova Gorica City Municipality","countryId":201,"countryCode":"SI","countryName":"Slovenia","latitude":"45.89000000","longitude":"13.71806000","wikiDataId":"Q600666"},{"id":104342,"name":"Šempas","stateId":4205,"stateCode":"084","stateName":"Nova Gorica City Municipality","countryId":201,"countryCode":"SI","countryName":"Slovenia","latitude":"45.93028000","longitude":"13.74361000","wikiDataId":"Q2418986"},{"id":104276,"name":"Solkan","stateId":4205,"stateCode":"084","stateName":"Nova Gorica City Municipality","countryId":201,"countryCode":"SI","countryName":"Slovenia","latitude":"45.97139000","longitude":"13.64944000","wikiDataId":"Q543631"}]