[{"id":79710,"name":"Bhojpur","stateId":2066,"stateCode":"2","stateName":"Mid-Western Region","countryId":154,"countryCode":"NP","countryName":"Nepal","latitude":"27.93565000","longitude":"81.77555000","wikiDataId":"Q2900702"},{"id":79712,"name":"Birendranagar","stateId":2066,"stateCode":"2","stateName":"Mid-Western Region","countryId":154,"countryCode":"NP","countryName":"Nepal","latitude":"28.60194000","longitude":"81.63389000","wikiDataId":"Q865146"},{"id":79718,"name":"Dailekh","stateId":2066,"stateCode":"2","stateName":"Mid-Western Region","countryId":154,"countryCode":"NP","countryName":"Nepal","latitude":"28.84434000","longitude":"81.71011000","wikiDataId":"Q2073493"},{"id":79727,"name":"Gulariyā","stateId":2066,"stateCode":"2","stateName":"Mid-Western Region","countryId":154,"countryCode":"NP","countryName":"Nepal","latitude":"28.20580000","longitude":"81.34532000","wikiDataId":"Q1765809"},{"id":79734,"name":"Jumla","stateId":2066,"stateCode":"2","stateName":"Mid-Western Region","countryId":154,"countryCode":"NP","countryName":"Nepal","latitude":"29.27472000","longitude":"82.18383000","wikiDataId":"Q2407540"},{"id":79745,"name":"Nepalgunj","stateId":2066,"stateCode":"2","stateName":"Mid-Western Region","countryId":154,"countryCode":"NP","countryName":"Nepal","latitude":"28.05000000","longitude":"81.61667000","wikiDataId":"Q1025462"},{"id":79756,"name":"Tulsīpur","stateId":2066,"stateCode":"2","stateName":"Mid-Western Region","countryId":154,"countryCode":"NP","countryName":"Nepal","latitude":"28.13099000","longitude":"82.29726000","wikiDataId":"Q1766076"}]