[{"id":5134,"name":"Adjuntas","countryId":178,"countryCode":"PR","countryName":"Puerto Rico","stateCode":"001","type":"municipalities","latitude":"18.16348480","longitude":"-66.72315800"},{"id":5135,"name":"Aguada","countryId":178,"countryCode":"PR","countryName":"Puerto Rico","stateCode":"003","type":"municipalities","latitude":"18.38015790","longitude":"-67.18870400"},{"id":5136,"name":"Aguadilla","countryId":178,"countryCode":"PR","countryName":"Puerto Rico","stateCode":"005","type":"municipalities","latitude":"18.42744540","longitude":"-67.15406980"},{"id":5137,"name":"Aguas Buenas","countryId":178,"countryCode":"PR","countryName":"Puerto Rico","stateCode":"007","type":"municipalities","latitude":"18.25689890","longitude":"-66.10294420"},{"id":5138,"name":"Aibonito","countryId":178,"countryCode":"PR","countryName":"Puerto Rico","stateCode":"009","type":"municipalities","latitude":"18.13995940","longitude":"-66.26600160"},{"id":5139,"name":"Añasco","countryId":178,"countryCode":"PR","countryName":"Puerto Rico","stateCode":"011","type":"municipalities","latitude":"18.28544760","longitude":"-67.14029350"},{"id":5140,"name":"Arecibo","countryId":178,"countryCode":"PR","countryName":"Puerto Rico","stateCode":"013","type":"municipalities","latitude":"18.47051370","longitude":"-66.72184720"},{"id":5081,"name":"Arecibo","countryId":178,"countryCode":"PR","countryName":"Puerto Rico","stateCode":"AR","type":"region","latitude":"18.47055556","longitude":"-66.72083333"},{"id":5141,"name":"Arroyo","countryId":178,"countryCode":"PR","countryName":"Puerto Rico","stateCode":"015","type":"municipalities","latitude":"17.99642200","longitude":"-66.09248790"},{"id":5142,"name":"Barceloneta","countryId":178,"countryCode":"PR","countryName":"Puerto Rico","stateCode":"017","type":"municipalities","latitude":"41.38010610","longitude":"2.18969570"},{"id":5143,"name":"Barranquitas","countryId":178,"countryCode":"PR","countryName":"Puerto Rico","stateCode":"019","type":"municipalities","latitude":"18.18662420","longitude":"-66.30628020"},{"id":5076,"name":"Bayamon","countryId":178,"countryCode":"PR","countryName":"Puerto Rico","stateCode":"BY","type":"region","latitude":"18.17777778","longitude":"-66.11333333"},{"id":5144,"name":"Bayamón","countryId":178,"countryCode":"PR","countryName":"Puerto Rico","stateCode":"021","type":"municipalities","latitude":"18.38939600","longitude":"-66.16532240"},{"id":5145,"name":"Cabo Rojo","countryId":178,"countryCode":"PR","countryName":"Puerto Rico","stateCode":"023","type":"municipalities","latitude":"18.08662650","longitude":"-67.14573470"},{"id":5079,"name":"Caguas","countryId":178,"countryCode":"PR","countryName":"Puerto Rico","stateCode":"CG","type":"region","latitude":"18.23333333","longitude":"-66.03333333"},{"id":5146,"name":"Caguas","countryId":178,"countryCode":"PR","countryName":"Puerto Rico","stateCode":"025","type":"municipalities","latitude":"18.23879950","longitude":"-66.03524900"},{"id":5147,"name":"Camuy","countryId":178,"countryCode":"PR","countryName":"Puerto Rico","stateCode":"027","type":"municipalities","latitude":"18.48383300","longitude":"-66.84489940"},{"id":5148,"name":"Canóvanas","countryId":178,"countryCode":"PR","countryName":"Puerto Rico","stateCode":"029","type":"municipalities","latitude":"18.37487480","longitude":"-65.89975330"},{"id":5077,"name":"Carolina","countryId":178,"countryCode":"PR","countryName":"Puerto Rico","stateCode":"CL","type":"region","latitude":"18.38888889","longitude":"-65.96666667"},{"id":5149,"name":"Carolina","countryId":178,"countryCode":"PR","countryName":"Puerto Rico","stateCode":"031","type":"municipalities","latitude":"18.36808770","longitude":"-66.04247340"},{"id":5150,"name":"Cataño","countryId":178,"countryCode":"PR","countryName":"Puerto Rico","stateCode":"033","type":"municipalities","latitude":"18.44653550","longitude":"-66.13557750"},{"id":5151,"name":"Cayey","countryId":178,"countryCode":"PR","countryName":"Puerto Rico","stateCode":"035","type":"municipalities","latitude":"18.11190510","longitude":"-66.16600000"},{"id":5152,"name":"Ceiba","countryId":178,"countryCode":"PR","countryName":"Puerto Rico","stateCode":"037","type":"municipalities","latitude":"18.24751770","longitude":"-65.90849530"},{"id":5153,"name":"Ciales","countryId":178,"countryCode":"PR","countryName":"Puerto Rico","stateCode":"039","type":"municipalities","latitude":"18.33606220","longitude":"-66.46878230"},{"id":5154,"name":"Cidra","countryId":178,"countryCode":"PR","countryName":"Puerto Rico","stateCode":"041","type":"municipalities","latitude":"18.17579140","longitude":"-66.16127790"},{"id":5155,"name":"Coamo","countryId":178,"countryCode":"PR","countryName":"Puerto Rico","stateCode":"043","type":"municipalities","latitude":"18.07996160","longitude":"-66.35794730"},{"id":5156,"name":"Comerío","countryId":178,"countryCode":"PR","countryName":"Puerto Rico","stateCode":"045","type":"municipalities","latitude":"18.21920010","longitude":"-66.22560220"},{"id":5157,"name":"Corozal","countryId":178,"countryCode":"PR","countryName":"Puerto Rico","stateCode":"047","type":"municipalities","latitude":"18.40308020","longitude":"-88.39675360"},{"id":5158,"name":"Culebra","countryId":178,"countryCode":"PR","countryName":"Puerto Rico","stateCode":"049","type":"municipalities","latitude":"18.31039400","longitude":"-65.30307050"},{"id":5159,"name":"Dorado","countryId":178,"countryCode":"PR","countryName":"Puerto Rico","stateCode":"051","type":"municipalities","latitude":"43.14805560","longitude":"-77.57722220"},{"id":5160,"name":"Fajardo","countryId":178,"countryCode":"PR","countryName":"Puerto Rico","stateCode":"053","type":"municipalities","latitude":"18.32521480","longitude":"-65.65393560"},{"id":5161,"name":"Florida","countryId":178,"countryCode":"PR","countryName":"Puerto Rico","stateCode":"054","type":"municipalities","latitude":"27.66482740","longitude":"-81.51575350"},{"id":5162,"name":"Guánica","countryId":178,"countryCode":"PR","countryName":"Puerto Rico","stateCode":"055","type":"municipalities","latitude":"17.97251450","longitude":"-66.90862640"},{"id":5163,"name":"Guayama","countryId":178,"countryCode":"PR","countryName":"Puerto Rico","stateCode":"057","type":"municipalities","latitude":"17.98413280","longitude":"-66.11377670"},{"id":5164,"name":"Guayanilla","countryId":178,"countryCode":"PR","countryName":"Puerto Rico","stateCode":"059","type":"municipalities","latitude":"18.01913140","longitude":"-66.79184200"},{"id":5080,"name":"Guaynabo","countryId":178,"countryCode":"PR","countryName":"Puerto Rico","stateCode":"GN","type":"region","latitude":"18.36666667","longitude":"-66.10000000"},{"id":5165,"name":"Guaynabo","countryId":178,"countryCode":"PR","countryName":"Puerto Rico","stateCode":"061","type":"municipalities","latitude":"18.36129540","longitude":"-66.11029570"},{"id":5166,"name":"Gurabo","countryId":178,"countryCode":"PR","countryName":"Puerto Rico","stateCode":"063","type":"municipalities","latitude":"18.25439870","longitude":"-65.97294210"},{"id":5167,"name":"Hatillo","countryId":178,"countryCode":"PR","countryName":"Puerto Rico","stateCode":"065","type":"municipalities","latitude":"18.42846420","longitude":"-66.78753210"},{"id":5168,"name":"Hormigueros","countryId":178,"countryCode":"PR","countryName":"Puerto Rico","stateCode":"067","type":"municipalities","latitude":"18.13346380","longitude":"-67.11281230"},{"id":5169,"name":"Humacao","countryId":178,"countryCode":"PR","countryName":"Puerto Rico","stateCode":"069","type":"municipalities","latitude":"18.15157360","longitude":"-65.82485290"},{"id":5170,"name":"Isabela","countryId":178,"countryCode":"PR","countryName":"Puerto Rico","stateCode":"071","type":"municipalities","latitude":"16.97537580","longitude":"121.81070790"},{"id":5171,"name":"Jayuya","countryId":178,"countryCode":"PR","countryName":"Puerto Rico","stateCode":"073","type":"municipalities","latitude":"18.21856740","longitude":"-66.59156170"},{"id":5172,"name":"Juana Díaz","countryId":178,"countryCode":"PR","countryName":"Puerto Rico","stateCode":"075","type":"municipalities","latitude":"18.05343720","longitude":"-66.50750790"},{"id":5173,"name":"Juncos","countryId":178,"countryCode":"PR","countryName":"Puerto Rico","stateCode":"077","type":"municipalities","latitude":"18.22745580","longitude":"-65.92099700"},{"id":5174,"name":"Lajas","countryId":178,"countryCode":"PR","countryName":"Puerto Rico","stateCode":"079","type":"municipalities","latitude":"18.04996200","longitude":"-67.05934490"},{"id":5175,"name":"Lares","countryId":178,"countryCode":"PR","countryName":"Puerto Rico","stateCode":"081","type":"municipalities","latitude":"34.02508020","longitude":"-118.45945930"},{"id":5176,"name":"Las Marías","countryId":178,"countryCode":"PR","countryName":"Puerto Rico","stateCode":"083","type":"municipalities","latitude":"35.83822380","longitude":"-78.61035660"},{"id":5177,"name":"Las Piedras","countryId":178,"countryCode":"PR","countryName":"Puerto Rico","stateCode":"085","type":"municipalities","latitude":"18.18557530","longitude":"-65.87362450"},{"id":5178,"name":"Loíza","countryId":178,"countryCode":"PR","countryName":"Puerto Rico","stateCode":"087","type":"municipalities","latitude":"18.43299040","longitude":"-65.87836000"},{"id":5179,"name":"Luquillo","countryId":178,"countryCode":"PR","countryName":"Puerto Rico","stateCode":"089","type":"municipalities","latitude":"18.37245070","longitude":"-65.71655110"},{"id":5180,"name":"Manatí","countryId":178,"countryCode":"PR","countryName":"Puerto Rico","stateCode":"091","type":"municipalities","latitude":"18.41812150","longitude":"-66.52627830"},{"id":5181,"name":"Maricao","countryId":178,"countryCode":"PR","countryName":"Puerto Rico","stateCode":"093","type":"municipalities","latitude":"18.18079020","longitude":"-66.97990010"},{"id":5182,"name":"Maunabo","countryId":178,"countryCode":"PR","countryName":"Puerto Rico","stateCode":"095","type":"municipalities","latitude":"18.00718850","longitude":"-65.89932890"},{"id":5083,"name":"Mayagüez","countryId":178,"countryCode":"PR","countryName":"Puerto Rico","stateCode":"MG","type":"region","latitude":"18.20111111","longitude":"-67.13972222"},{"id":5183,"name":"Mayagüez","countryId":178,"countryCode":"PR","countryName":"Puerto Rico","stateCode":"097","type":"municipalities","latitude":"18.20134520","longitude":"-67.14515490"},{"id":5184,"name":"Moca","countryId":178,"countryCode":"PR","countryName":"Puerto Rico","stateCode":"099","type":"municipalities","latitude":"18.39679290","longitude":"-67.14790350"},{"id":5185,"name":"Morovis","countryId":178,"countryCode":"PR","countryName":"Puerto Rico","stateCode":"101","type":"municipalities","latitude":"18.32578500","longitude":"-66.40655920"},{"id":5186,"name":"Naguabo","countryId":178,"countryCode":"PR","countryName":"Puerto Rico","stateCode":"103","type":"municipalities","latitude":"18.21162470","longitude":"-65.73488410"},{"id":5187,"name":"Naranjito","countryId":178,"countryCode":"PR","countryName":"Puerto Rico","stateCode":"105","type":"municipalities","latitude":"18.30078610","longitude":"-66.24489040"},{"id":5188,"name":"Orocovis","countryId":178,"countryCode":"PR","countryName":"Puerto Rico","stateCode":"107","type":"municipalities","latitude":"18.22692240","longitude":"-66.39116860"},{"id":5189,"name":"Patillas","countryId":178,"countryCode":"PR","countryName":"Puerto Rico","stateCode":"109","type":"municipalities","latitude":"18.00373810","longitude":"-66.01340590"},{"id":5190,"name":"Peñuelas","countryId":178,"countryCode":"PR","countryName":"Puerto Rico","stateCode":"111","type":"municipalities","latitude":"18.06335770","longitude":"-66.72738960"},{"id":5078,"name":"Ponce","countryId":178,"countryCode":"PR","countryName":"Puerto Rico","stateCode":"PO","type":"region","latitude":"18.00000000","longitude":"-66.61666667"},{"id":5191,"name":"Ponce","countryId":178,"countryCode":"PR","countryName":"Puerto Rico","stateCode":"113","type":"municipalities","latitude":"18.01107680","longitude":"-66.61406160"},{"id":5192,"name":"Quebradillas","countryId":178,"countryCode":"PR","countryName":"Puerto Rico","stateCode":"115","type":"municipalities","latitude":"18.47383300","longitude":"-66.93851200"},{"id":5193,"name":"Rincón","countryId":178,"countryCode":"PR","countryName":"Puerto Rico","stateCode":"117","type":"municipalities","latitude":"18.34015140","longitude":"-67.24994590"},{"id":5194,"name":"Río Grande","countryId":178,"countryCode":"PR","countryName":"Puerto Rico","stateCode":"119","type":"municipalities","latitude":"28.81063826","longitude":"-101.83538780"},{"id":5195,"name":"Sabana Grande","countryId":178,"countryCode":"PR","countryName":"Puerto Rico","stateCode":"121","type":"municipalities","latitude":"18.07773920","longitude":"-66.96045490"},{"id":5196,"name":"Salinas","countryId":178,"countryCode":"PR","countryName":"Puerto Rico","stateCode":"123","type":"municipalities","latitude":"36.67773720","longitude":"-121.65550130"},{"id":5197,"name":"San Germán","countryId":178,"countryCode":"PR","countryName":"Puerto Rico","stateCode":"125","type":"municipalities","latitude":"18.08070820","longitude":"-67.04110960"},{"id":5198,"name":"San Juan","countryId":178,"countryCode":"PR","countryName":"Puerto Rico","stateCode":"127","type":"municipalities","latitude":"18.46320300","longitude":"-66.11475710"},{"id":5075,"name":"San Juan","countryId":178,"countryCode":"PR","countryName":"Puerto Rico","stateCode":"SJ","type":"region","latitude":"18.45000000","longitude":"-66.06666667"},{"id":5199,"name":"San Lorenzo","countryId":178,"countryCode":"PR","countryName":"Puerto Rico","stateCode":"129","type":"municipalities","latitude":"18.18869120","longitude":"-65.97658620"},{"id":5200,"name":"San Sebastián","countryId":178,"countryCode":"PR","countryName":"Puerto Rico","stateCode":"131","type":"municipalities","latitude":"43.31833400","longitude":"-1.98123130"},{"id":5201,"name":"Santa Isabel","countryId":178,"countryCode":"PR","countryName":"Puerto Rico","stateCode":"133","type":"municipalities","latitude":"17.96607750","longitude":"-66.40489200"},{"id":5202,"name":"Toa Alta","countryId":178,"countryCode":"PR","countryName":"Puerto Rico","stateCode":"135","type":"municipalities","latitude":"18.38828230","longitude":"-66.24822370"},{"id":5082,"name":"Toa Baja","countryId":178,"countryCode":"PR","countryName":"Puerto Rico","stateCode":"TB","type":"region","latitude":"18.44388900","longitude":"-66.25972200"},{"id":5203,"name":"Toa Baja","countryId":178,"countryCode":"PR","countryName":"Puerto Rico","stateCode":"137","type":"municipalities","latitude":"18.44447090","longitude":"-66.25432930"},{"id":5084,"name":"Trujillo Alto","countryId":178,"countryCode":"PR","countryName":"Puerto Rico","stateCode":"TA","type":"region","latitude":"18.36277800","longitude":"-66.01750000"},{"id":5204,"name":"Trujillo Alto","countryId":178,"countryCode":"PR","countryName":"Puerto Rico","stateCode":"139","type":"municipalities","latitude":"18.35467190","longitude":"-66.00738760"},{"id":5205,"name":"Utuado","countryId":178,"countryCode":"PR","countryName":"Puerto Rico","stateCode":"141","type":"municipalities","latitude":"18.26550950","longitude":"-66.70045190"},{"id":5206,"name":"Vega Alta","countryId":178,"countryCode":"PR","countryName":"Puerto Rico","stateCode":"143","type":"municipalities","latitude":"18.41217030","longitude":"-66.33128050"},{"id":5207,"name":"Vega Baja","countryId":178,"countryCode":"PR","countryName":"Puerto Rico","stateCode":"145","type":"municipalities","latitude":"18.44614590","longitude":"-66.40419670"},{"id":5208,"name":"Vieques","countryId":178,"countryCode":"PR","countryName":"Puerto Rico","stateCode":"147","type":"municipalities","latitude":"18.12628540","longitude":"-65.44009850"},{"id":5209,"name":"Villalba","countryId":178,"countryCode":"PR","countryName":"Puerto Rico","stateCode":"149","type":"municipalities","latitude":"18.12175540","longitude":"-66.49857870"},{"id":5210,"name":"Yabucoa","countryId":178,"countryCode":"PR","countryName":"Puerto Rico","stateCode":"151","type":"municipalities","latitude":"18.05052010","longitude":"-65.87932880"},{"id":5211,"name":"Yauco","countryId":178,"countryCode":"PR","countryName":"Puerto Rico","stateCode":"153","type":"municipalities","latitude":"18.03496400","longitude":"-66.84989830"}]