[{"id":10054,"name":"Abadia dos Dourados","stateId":1998,"stateCode":"MG","stateName":"Minas Gerais","countryId":31,"countryCode":"BR","countryName":"Brazil","latitude":"-18.36347000","longitude":"-47.46997000","wikiDataId":"Q582223"},{"id":10057,"name":"Abaeté","stateId":1998,"stateCode":"MG","stateName":"Minas Gerais","countryId":31,"countryCode":"BR","countryName":"Brazil","latitude":"-19.11099000","longitude":"-45.43051000","wikiDataId":"Q1615444"},{"id":10065,"name":"Abre Campo","stateId":1998,"stateCode":"MG","stateName":"Minas Gerais","countryId":31,"countryCode":"BR","countryName":"Brazil","latitude":"-20.27265000","longitude":"-42.43908000","wikiDataId":"Q1749816"},{"id":10068,"name":"Acaiaca","stateId":1998,"stateCode":"MG","stateName":"Minas Gerais","countryId":31,"countryCode":"BR","countryName":"Brazil","latitude":"-20.40360000","longitude":"-43.10077000","wikiDataId":"Q1784836"},{"id":10465,"name":"Açucena","stateId":1998,"stateCode":"MG","stateName":"Minas Gerais","countryId":31,"countryCode":"BR","countryName":"Brazil","latitude":"-19.07306000","longitude":"-42.54639000","wikiDataId":"Q1791887"},{"id":15650,"name":"Água Boa","stateId":1998,"stateCode":"MG","stateName":"Minas Gerais","countryId":31,"countryCode":"BR","countryName":"Brazil","latitude":"-18.06423000","longitude":"-42.23027000","wikiDataId":"Q1806488"},{"id":15655,"name":"Água Comprida","stateId":1998,"stateCode":"MG","stateName":"Minas Gerais","countryId":31,"countryCode":"BR","countryName":"Brazil","latitude":"-19.99124000","longitude":"-48.11035000","wikiDataId":"Q1796727"},{"id":10095,"name":"Aguanil","stateId":1998,"stateCode":"MG","stateName":"Minas Gerais","countryId":31,"countryCode":"BR","countryName":"Brazil","latitude":"-20.96959000","longitude":"-45.41717000","wikiDataId":"Q1754594"},{"id":15666,"name":"Águas Formosas","stateId":1998,"stateCode":"MG","stateName":"Minas Gerais","countryId":31,"countryCode":"BR","countryName":"Brazil","latitude":"-17.08222000","longitude":"-40.93583000","wikiDataId":"Q1756605"},{"id":15670,"name":"Águas Vermelhas","stateId":1998,"stateCode":"MG","stateName":"Minas Gerais","countryId":31,"countryCode":"BR","countryName":"Brazil","latitude":"-15.74722000","longitude":"-41.46000000","wikiDataId":"Q1756246"},{"id":10102,"name":"Aimorés","stateId":1998,"stateCode":"MG","stateName":"Minas Gerais","countryId":31,"countryCode":"BR","countryName":"Brazil","latitude":"-19.62552000","longitude":"-41.20955000","wikiDataId":"Q1650790"},{"id":10105,"name":"Aiuruoca","stateId":1998,"stateCode":"MG","stateName":"Minas Gerais","countryId":31,"countryCode":"BR","countryName":"Brazil","latitude":"-21.94703000","longitude":"-44.64779000","wikiDataId":"Q641440"},{"id":10107,"name":"Alagoa","stateId":1998,"stateCode":"MG","stateName":"Minas Gerais","countryId":31,"countryCode":"BR","countryName":"Brazil","latitude":"-22.18147000","longitude":"-44.66024000","wikiDataId":"Q678420"},{"id":10115,"name":"Albertina","stateId":1998,"stateCode":"MG","stateName":"Minas Gerais","countryId":31,"countryCode":"BR","countryName":"Brazil","latitude":"-22.19908000","longitude":"-46.62076000","wikiDataId":"Q986243"},{"id":10201,"name":"Além Paraíba","stateId":1998,"stateCode":"MG","stateName":"Minas Gerais","countryId":31,"countryCode":"BR","countryName":"Brazil","latitude":"-21.80936000","longitude":"-42.75740000","wikiDataId":"Q1756032"},{"id":10130,"name":"Alfenas","stateId":1998,"stateCode":"MG","stateName":"Minas Gerais","countryId":31,"countryCode":"BR","countryName":"Brazil","latitude":"-21.39287000","longitude":"-45.99521000","wikiDataId":"Q1755151"},{"id":10133,"name":"Alfredo Vasconcelos","stateId":1998,"stateCode":"MG","stateName":"Minas Gerais","countryId":31,"countryCode":"BR","countryName":"Brazil","latitude":"-21.14240000","longitude":"-43.71114000","wikiDataId":"Q596538"},{"id":10142,"name":"Almenara","stateId":1998,"stateCode":"MG","stateName":"Minas Gerais","countryId":31,"countryCode":"BR","countryName":"Brazil","latitude":"-16.10053000","longitude":"-40.71006000","wikiDataId":"Q979377"},{"id":10147,"name":"Alpercata","stateId":1998,"stateCode":"MG","stateName":"Minas Gerais","countryId":31,"countryCode":"BR","countryName":"Brazil","latitude":"-18.98379000","longitude":"-42.00135000","wikiDataId":"Q988880"},{"id":10149,"name":"Alpinópolis","stateId":1998,"stateCode":"MG","stateName":"Minas Gerais","countryId":31,"countryCode":"BR","countryName":"Brazil","latitude":"-20.81822000","longitude":"-46.37937000","wikiDataId":"Q1757102"},{"id":10157,"name":"Alterosa","stateId":1998,"stateCode":"MG","stateName":"Minas Gerais","countryId":31,"countryCode":"BR","countryName":"Brazil","latitude":"-21.21904000","longitude":"-46.18694000","wikiDataId":"Q1756931"},{"id":10168,"name":"Alto Caparaó","stateId":1998,"stateCode":"MG","stateName":"Minas Gerais","countryId":31,"countryCode":"BR","countryName":"Brazil","latitude":"-20.44669000","longitude":"-41.87096000","wikiDataId":"Q118945"},{"id":10172,"name":"Alto Jequitibá","stateId":1998,"stateCode":"MG","stateName":"Minas Gerais","countryId":31,"countryCode":"BR","countryName":"Brazil","latitude":"-20.43703000","longitude":"-41.95113000","wikiDataId":"Q443518"},{"id":10181,"name":"Alto Rio Doce","stateId":1998,"stateCode":"MG","stateName":"Minas Gerais","countryId":31,"countryCode":"BR","countryName":"Brazil","latitude":"-21.01929000","longitude":"-43.40538000","wikiDataId":"Q1804740"},{"id":10190,"name":"Alvarenga","stateId":1998,"stateCode":"MG","stateName":"Minas Gerais","countryId":31,"countryCode":"BR","countryName":"Brazil","latitude":"-19.39870000","longitude":"-41.68138000","wikiDataId":"Q22062812"},{"id":10193,"name":"Alvinópolis","stateId":1998,"stateCode":"MG","stateName":"Minas Gerais","countryId":31,"countryCode":"BR","countryName":"Brazil","latitude":"-20.12078000","longitude":"-43.15399000","wikiDataId":"Q370048"},{"id":10197,"name":"Alvorada de Minas","stateId":1998,"stateCode":"MG","stateName":"Minas Gerais","countryId":31,"countryCode":"BR","countryName":"Brazil","latitude":"-18.79532000","longitude":"-43.37002000","wikiDataId":"Q449593"},{"id":10220,"name":"Amparo da Serra","stateId":1998,"stateCode":"MG","stateName":"Minas Gerais","countryId":31,"countryCode":"BR","countryName":"Brazil","latitude":"-20.52383000","longitude":"-42.79878000","wikiDataId":"Q2010915"},{"id":10245,"name":"Andradas","stateId":1998,"stateCode":"MG","stateName":"Minas Gerais","countryId":31,"countryCode":"BR","countryName":"Brazil","latitude":"-22.06984000","longitude":"-46.57230000","wikiDataId":"Q1754887"},{"id":10247,"name":"Andrelândia","stateId":1998,"stateCode":"MG","stateName":"Minas Gerais","countryId":31,"countryCode":"BR","countryName":"Brazil","latitude":"-21.71132000","longitude":"-44.27912000","wikiDataId":"Q503236"},{"id":10252,"name":"Angelândia","stateId":1998,"stateCode":"MG","stateName":"Minas Gerais","countryId":31,"countryCode":"BR","countryName":"Brazil","latitude":"-17.72394000","longitude":"-42.26234000","wikiDataId":"Q1756210"},{"id":10273,"name":"Antônio Carlos","stateId":1998,"stateCode":"MG","stateName":"Minas Gerais","countryId":31,"countryCode":"BR","countryName":"Brazil","latitude":"-21.40838000","longitude":"-43.76937000","wikiDataId":"Q22062805"},{"id":10275,"name":"Antônio Dias","stateId":1998,"stateCode":"MG","stateName":"Minas Gerais","countryId":31,"countryCode":"BR","countryName":"Brazil","latitude":"-19.56225000","longitude":"-42.88855000","wikiDataId":"Q611911"},{"id":10281,"name":"Antônio Prado de Minas","stateId":1998,"stateCode":"MG","stateName":"Minas Gerais","countryId":31,"countryCode":"BR","countryName":"Brazil","latitude":"-21.02658000","longitude":"-42.15497000","wikiDataId":"Q1791977"},{"id":10369,"name":"Araçaí","stateId":1998,"stateCode":"MG","stateName":"Minas Gerais","countryId":31,"countryCode":"BR","countryName":"Brazil","latitude":"-19.24200000","longitude":"-44.22429000","wikiDataId":"Q626835"},{"id":10312,"name":"Aracitaba","stateId":1998,"stateCode":"MG","stateName":"Minas Gerais","countryId":31,"countryCode":"BR","countryName":"Brazil","latitude":"-21.35243000","longitude":"-43.40862000","wikiDataId":"Q22063188"},{"id":10373,"name":"Araçuaí","stateId":1998,"stateCode":"MG","stateName":"Minas Gerais","countryId":31,"countryCode":"BR","countryName":"Brazil","latitude":"-16.90822000","longitude":"-41.98596000","wikiDataId":"Q1749750"},{"id":10324,"name":"Araguari","stateId":1998,"stateCode":"MG","stateName":"Minas Gerais","countryId":31,"countryCode":"BR","countryName":"Brazil","latitude":"-18.64722000","longitude":"-48.18722000","wikiDataId":"Q1637522"},{"id":10335,"name":"Arantina","stateId":1998,"stateCode":"MG","stateName":"Minas Gerais","countryId":31,"countryCode":"BR","countryName":"Brazil","latitude":"-21.89632000","longitude":"-44.22633000","wikiDataId":"Q1754457"},{"id":10339,"name":"Araponga","stateId":1998,"stateCode":"MG","stateName":"Minas Gerais","countryId":31,"countryCode":"BR","countryName":"Brazil","latitude":"-20.66607000","longitude":"-42.51113000","wikiDataId":"Q1749824"},{"id":10341,"name":"Araporã","stateId":1998,"stateCode":"MG","stateName":"Minas Gerais","countryId":31,"countryCode":"BR","countryName":"Brazil","latitude":"-18.49061000","longitude":"-49.13761000","wikiDataId":"Q1650073"},{"id":10344,"name":"Arapuá","stateId":1998,"stateCode":"MG","stateName":"Minas Gerais","countryId":31,"countryCode":"BR","countryName":"Brazil","latitude":"-19.03065000","longitude":"-46.09585000","wikiDataId":"Q1650073"},{"id":10375,"name":"Araújos","stateId":1998,"stateCode":"MG","stateName":"Minas Gerais","countryId":31,"countryCode":"BR","countryName":"Brazil","latitude":"-19.87542000","longitude":"-45.15682000","wikiDataId":"Q1749750"},{"id":10365,"name":"Araxá","stateId":1998,"stateCode":"MG","stateName":"Minas Gerais","countryId":31,"countryCode":"BR","countryName":"Brazil","latitude":"-19.59333000","longitude":"-46.94056000","wikiDataId":"Q586057"},{"id":10376,"name":"Arceburgo","stateId":1998,"stateCode":"MG","stateName":"Minas Gerais","countryId":31,"countryCode":"BR","countryName":"Brazil","latitude":"-21.36655000","longitude":"-46.94472000","wikiDataId":"Q1749750"},{"id":10378,"name":"Arcos","stateId":1998,"stateCode":"MG","stateName":"Minas Gerais","countryId":31,"countryCode":"BR","countryName":"Brazil","latitude":"-20.24351000","longitude":"-45.56760000","wikiDataId":"Q22062794"},{"id":10380,"name":"Areado","stateId":1998,"stateCode":"MG","stateName":"Minas Gerais","countryId":31,"countryCode":"BR","countryName":"Brazil","latitude":"-21.33401000","longitude":"-46.16798000","wikiDataId":"Q1756284"},{"id":10392,"name":"Argirita","stateId":1998,"stateCode":"MG","stateName":"Minas Gerais","countryId":31,"countryCode":"BR","countryName":"Brazil","latitude":"-21.63912000","longitude":"-42.82857000","wikiDataId":"Q1806305"},{"id":10393,"name":"Aricanduva","stateId":1998,"stateCode":"MG","stateName":"Minas Gerais","countryId":31,"countryCode":"BR","countryName":"Brazil","latitude":"-17.85789000","longitude":"-42.59791000","wikiDataId":"Q1806305"},{"id":10394,"name":"Arinos","stateId":1998,"stateCode":"MG","stateName":"Minas Gerais","countryId":31,"countryCode":"BR","countryName":"Brazil","latitude":"-15.80332000","longitude":"-45.94198000","wikiDataId":"Q617058"},{"id":10432,"name":"Astolfo Dutra","stateId":1998,"stateCode":"MG","stateName":"Minas Gerais","countryId":31,"countryCode":"BR","countryName":"Brazil","latitude":"-21.30413000","longitude":"-42.88194000","wikiDataId":"Q1756260"},{"id":10438,"name":"Ataléia","stateId":1998,"stateCode":"MG","stateName":"Minas Gerais","countryId":31,"countryCode":"BR","countryName":"Brazil","latitude":"-18.18353000","longitude":"-41.16721000","wikiDataId":"Q1815704"},{"id":10446,"name":"Augusto de Lima","stateId":1998,"stateCode":"MG","stateName":"Minas Gerais","countryId":31,"countryCode":"BR","countryName":"Brazil","latitude":"-18.10720000","longitude":"-44.16792000","wikiDataId":"Q1804338"},{"id":10472,"name":"Baependi","stateId":1998,"stateCode":"MG","stateName":"Minas Gerais","countryId":31,"countryCode":"BR","countryName":"Brazil","latitude":"-21.97623000","longitude":"-44.85558000","wikiDataId":"Q947342"},{"id":10482,"name":"Baldim","stateId":1998,"stateCode":"MG","stateName":"Minas Gerais","countryId":31,"countryCode":"BR","countryName":"Brazil","latitude":"-19.23659000","longitude":"-43.84684000","wikiDataId":"Q804068"},{"id":10493,"name":"Bambuí","stateId":1998,"stateCode":"MG","stateName":"Minas Gerais","countryId":31,"countryCode":"BR","countryName":"Brazil","latitude":"-20.10451000","longitude":"-45.98743000","wikiDataId":"Q1756027"},{"id":10497,"name":"Bandeira","stateId":1998,"stateCode":"MG","stateName":"Minas Gerais","countryId":31,"countryCode":"BR","countryName":"Brazil","latitude":"-15.88042000","longitude":"-40.59969000","wikiDataId":"Q1756019"},{"id":10498,"name":"Bandeira do Sul","stateId":1998,"stateCode":"MG","stateName":"Minas Gerais","countryId":31,"countryCode":"BR","countryName":"Brazil","latitude":"-21.72907000","longitude":"-46.38283000","wikiDataId":"Q1756019"},{"id":10572,"name":"Barão de Cocais","stateId":1998,"stateCode":"MG","stateName":"Minas Gerais","countryId":31,"countryCode":"BR","countryName":"Brazil","latitude":"-19.87980000","longitude":"-43.49476000","wikiDataId":"Q770910"},{"id":10576,"name":"Barão de Monte Alto","stateId":1998,"stateCode":"MG","stateName":"Minas Gerais","countryId":31,"countryCode":"BR","countryName":"Brazil","latitude":"-21.26536000","longitude":"-42.27886000","wikiDataId":"Q1806364"},{"id":10507,"name":"Barbacena","stateId":1998,"stateCode":"MG","stateName":"Minas Gerais","countryId":31,"countryCode":"BR","countryName":"Brazil","latitude":"-21.25031000","longitude":"-43.84171000","wikiDataId":"Q1970827"},{"id":10519,"name":"Barra Longa","stateId":1998,"stateCode":"MG","stateName":"Minas Gerais","countryId":31,"countryCode":"BR","countryName":"Brazil","latitude":"-20.27861000","longitude":"-43.07170000","wikiDataId":"Q1815639"},{"id":10555,"name":"Barreiro do Jaíba","stateId":1998,"stateCode":"MG","stateName":"Minas Gerais","countryId":31,"countryCode":"BR","countryName":"Brazil","latitude":"-15.61532000","longitude":"-43.59187000","wikiDataId":"Q22048258"},{"id":10568,"name":"Barroso","stateId":1998,"stateCode":"MG","stateName":"Minas Gerais","countryId":31,"countryCode":"BR","countryName":"Brazil","latitude":"-21.17886000","longitude":"-43.95708000","wikiDataId":"Q1792962"},{"id":10597,"name":"Bela Vista de Minas","stateId":1998,"stateCode":"MG","stateName":"Minas Gerais","countryId":31,"countryCode":"BR","countryName":"Brazil","latitude":"-19.80136000","longitude":"-43.10273000","wikiDataId":"Q815101"},{"id":10603,"name":"Belmiro Braga","stateId":1998,"stateCode":"MG","stateName":"Minas Gerais","countryId":31,"countryCode":"BR","countryName":"Brazil","latitude":"-21.96440000","longitude":"-43.45933000","wikiDataId":"Q737636"},{"id":10607,"name":"Belo Horizonte","stateId":1998,"stateCode":"MG","stateName":"Minas Gerais","countryId":31,"countryCode":"BR","countryName":"Brazil","latitude":"-19.92083000","longitude":"-43.93778000","wikiDataId":"Q42800"},{"id":10610,"name":"Belo Oriente","stateId":1998,"stateCode":"MG","stateName":"Minas Gerais","countryId":31,"countryCode":"BR","countryName":"Brazil","latitude":"-19.25558000","longitude":"-42.44289000","wikiDataId":"Q816123"},{"id":10611,"name":"Belo Vale","stateId":1998,"stateCode":"MG","stateName":"Minas Gerais","countryId":31,"countryCode":"BR","countryName":"Brazil","latitude":"-20.41584000","longitude":"-44.06470000","wikiDataId":"Q816123"},{"id":10632,"name":"Berilo","stateId":1998,"stateCode":"MG","stateName":"Minas Gerais","countryId":31,"countryCode":"BR","countryName":"Brazil","latitude":"-16.86340000","longitude":"-42.48889000","wikiDataId":"Q2068952"},{"id":10633,"name":"Berizal","stateId":1998,"stateCode":"MG","stateName":"Minas Gerais","countryId":31,"countryCode":"BR","countryName":"Brazil","latitude":"-15.67761000","longitude":"-41.77137000","wikiDataId":"Q2068952"},{"id":10640,"name":"Bertópolis","stateId":1998,"stateCode":"MG","stateName":"Minas Gerais","countryId":31,"countryCode":"BR","countryName":"Brazil","latitude":"-16.95442000","longitude":"-40.56435000","wikiDataId":"Q828319"},{"id":10642,"name":"Betim","stateId":1998,"stateCode":"MG","stateName":"Minas Gerais","countryId":31,"countryCode":"BR","countryName":"Brazil","latitude":"-19.96778000","longitude":"-44.19833000","wikiDataId":"Q737644"},{"id":10646,"name":"Bias Fortes","stateId":1998,"stateCode":"MG","stateName":"Minas Gerais","countryId":31,"countryCode":"BR","countryName":"Brazil","latitude":"-21.63008000","longitude":"-43.75508000","wikiDataId":"Q2011830"},{"id":10647,"name":"Bicas","stateId":1998,"stateCode":"MG","stateName":"Minas Gerais","countryId":31,"countryCode":"BR","countryName":"Brazil","latitude":"-21.73237000","longitude":"-43.10454000","wikiDataId":"Q1792282"},{"id":10650,"name":"Biquinhas","stateId":1998,"stateCode":"MG","stateName":"Minas Gerais","countryId":31,"countryCode":"BR","countryName":"Brazil","latitude":"-18.76231000","longitude":"-45.54853000","wikiDataId":"Q1754582"},{"id":10658,"name":"Boa Esperança","stateId":1998,"stateCode":"MG","stateName":"Minas Gerais","countryId":31,"countryCode":"BR","countryName":"Brazil","latitude":"-21.08132000","longitude":"-45.62433000","wikiDataId":"Q22062767"},{"id":10681,"name":"Bocaina de Minas","stateId":1998,"stateCode":"MG","stateName":"Minas Gerais","countryId":31,"countryCode":"BR","countryName":"Brazil","latitude":"-22.23436000","longitude":"-44.49342000","wikiDataId":"Q1759088"},{"id":10683,"name":"Bocaiúva","stateId":1998,"stateCode":"MG","stateName":"Minas Gerais","countryId":31,"countryCode":"BR","countryName":"Brazil","latitude":"-17.38916000","longitude":"-43.83571000","wikiDataId":"Q1756928"},{"id":10691,"name":"Bom Despacho","stateId":1998,"stateCode":"MG","stateName":"Minas Gerais","countryId":31,"countryCode":"BR","countryName":"Brazil","latitude":"-19.69145000","longitude":"-45.25297000","wikiDataId":"Q891713"},{"id":10697,"name":"Bom Jardim de Minas","stateId":1998,"stateCode":"MG","stateName":"Minas Gerais","countryId":31,"countryCode":"BR","countryName":"Brazil","latitude":"-21.94390000","longitude":"-44.12193000","wikiDataId":"Q2279959"},{"id":10704,"name":"Bom Jesus da Penha","stateId":1998,"stateCode":"MG","stateName":"Minas Gerais","countryId":31,"countryCode":"BR","countryName":"Brazil","latitude":"-20.99902000","longitude":"-46.54769000","wikiDataId":"Q891727"},{"id":10708,"name":"Bom Jesus do Amparo","stateId":1998,"stateCode":"MG","stateName":"Minas Gerais","countryId":31,"countryCode":"BR","countryName":"Brazil","latitude":"-19.71668000","longitude":"-43.46840000","wikiDataId":"Q891727"},{"id":10710,"name":"Bom Jesus do Galho","stateId":1998,"stateCode":"MG","stateName":"Minas Gerais","countryId":31,"countryCode":"BR","countryName":"Brazil","latitude":"-19.71687000","longitude":"-42.37558000","wikiDataId":"Q891733"},{"id":10722,"name":"Bom Repouso","stateId":1998,"stateCode":"MG","stateName":"Minas Gerais","countryId":31,"countryCode":"BR","countryName":"Brazil","latitude":"-22.44963000","longitude":"-46.18632000","wikiDataId":"Q1648506"},{"id":10726,"name":"Bom Sucesso","stateId":1998,"stateCode":"MG","stateName":"Minas Gerais","countryId":31,"countryCode":"BR","countryName":"Brazil","latitude":"-21.03029000","longitude":"-44.79501000","wikiDataId":"Q1805732"},{"id":10731,"name":"Bonfim","stateId":1998,"stateCode":"MG","stateName":"Minas Gerais","countryId":31,"countryCode":"BR","countryName":"Brazil","latitude":"-20.31591000","longitude":"-44.20740000","wikiDataId":"Q22062759"},{"id":10734,"name":"Bonfinópolis de Minas","stateId":1998,"stateCode":"MG","stateName":"Minas Gerais","countryId":31,"countryCode":"BR","countryName":"Brazil","latitude":"-16.54416000","longitude":"-46.13266000","wikiDataId":"Q2089257"},{"id":10740,"name":"Bonito de Minas","stateId":1998,"stateCode":"MG","stateName":"Minas Gerais","countryId":31,"countryCode":"BR","countryName":"Brazil","latitude":"-14.91015000","longitude":"-44.88471000","wikiDataId":"Q1808128"},{"id":10752,"name":"Borda da Mata","stateId":1998,"stateCode":"MG","stateName":"Minas Gerais","countryId":31,"countryCode":"BR","countryName":"Brazil","latitude":"-22.25106000","longitude":"-46.16707000","wikiDataId":"Q1792820"},{"id":10757,"name":"Botelhos","stateId":1998,"stateCode":"MG","stateName":"Minas Gerais","countryId":31,"countryCode":"BR","countryName":"Brazil","latitude":"-21.64903000","longitude":"-46.42831000","wikiDataId":"Q1756413"},{"id":10759,"name":"Botumirim","stateId":1998,"stateCode":"MG","stateName":"Minas Gerais","countryId":31,"countryCode":"BR","countryName":"Brazil","latitude":"-16.90950000","longitude":"-43.00848000","wikiDataId":"Q1625598"},{"id":10813,"name":"Brás Pires","stateId":1998,"stateCode":"MG","stateName":"Minas Gerais","countryId":31,"countryCode":"BR","countryName":"Brazil","latitude":"-20.87837000","longitude":"-43.22442000","wikiDataId":"Q329488"},{"id":10771,"name":"Brasilândia de Minas","stateId":1998,"stateCode":"MG","stateName":"Minas Gerais","countryId":31,"countryCode":"BR","countryName":"Brazil","latitude":"-16.93061000","longitude":"-45.96385000","wikiDataId":"Q2329749"},{"id":10777,"name":"Brasília de Minas","stateId":1998,"stateCode":"MG","stateName":"Minas Gerais","countryId":31,"countryCode":"BR","countryName":"Brazil","latitude":"-16.25246000","longitude":"-44.45712000","wikiDataId":"Q22062752"},{"id":10783,"name":"Braúnas","stateId":1998,"stateCode":"MG","stateName":"Minas Gerais","countryId":31,"countryCode":"BR","countryName":"Brazil","latitude":"-19.02181000","longitude":"-42.71399000","wikiDataId":"Q903373"},{"id":10779,"name":"Brazópolis","stateId":1998,"stateCode":"MG","stateName":"Minas Gerais","countryId":31,"countryCode":"BR","countryName":"Brazil","latitude":"-22.48169000","longitude":"-45.62802000","wikiDataId":"Q22062752"},{"id":10809,"name":"Brumadinho","stateId":1998,"stateCode":"MG","stateName":"Minas Gerais","countryId":31,"countryCode":"BR","countryName":"Brazil","latitude":"-20.20447000","longitude":"-44.15388000","wikiDataId":"Q1751212"},{"id":10814,"name":"Bueno Brandão","stateId":1998,"stateCode":"MG","stateName":"Minas Gerais","countryId":31,"countryCode":"BR","countryName":"Brazil","latitude":"-22.50459000","longitude":"-46.35271000","wikiDataId":"Q1792008"},{"id":10816,"name":"Buenópolis","stateId":1998,"stateCode":"MG","stateName":"Minas Gerais","countryId":31,"countryCode":"BR","countryName":"Brazil","latitude":"-17.87455000","longitude":"-44.02374000","wikiDataId":"Q2101554"},{"id":10818,"name":"Bugre","stateId":1998,"stateCode":"MG","stateName":"Minas Gerais","countryId":31,"countryCode":"BR","countryName":"Brazil","latitude":"-19.36701000","longitude":"-42.30815000","wikiDataId":"Q1793226"},{"id":10835,"name":"Buritis","stateId":1998,"stateCode":"MG","stateName":"Minas Gerais","countryId":31,"countryCode":"BR","countryName":"Brazil","latitude":"-15.41389000","longitude":"-46.55470000","wikiDataId":"Q1792148"},{"id":10837,"name":"Buritizeiro","stateId":1998,"stateCode":"MG","stateName":"Minas Gerais","countryId":31,"countryCode":"BR","countryName":"Brazil","latitude":"-17.40582000","longitude":"-45.30446000","wikiDataId":"Q1792028"},{"id":10847,"name":"Cabeceira Grande","stateId":1998,"stateCode":"MG","stateName":"Minas Gerais","countryId":31,"countryCode":"BR","countryName":"Brazil","latitude":"-16.06178000","longitude":"-47.17573000","wikiDataId":"Q279492"},{"id":10854,"name":"Cabo Verde","stateId":1998,"stateCode":"MG","stateName":"Minas Gerais","countryId":31,"countryCode":"BR","countryName":"Brazil","latitude":"-21.48702000","longitude":"-46.37999000","wikiDataId":"Q22062741"},{"id":10867,"name":"Cachoeira da Prata","stateId":1998,"stateCode":"MG","stateName":"Minas Gerais","countryId":31,"countryCode":"BR","countryName":"Brazil","latitude":"-19.51865000","longitude":"-44.46250000","wikiDataId":"Q1760112"},{"id":10869,"name":"Cachoeira de Minas","stateId":1998,"stateCode":"MG","stateName":"Minas Gerais","countryId":31,"countryCode":"BR","countryName":"Brazil","latitude":"-22.35563000","longitude":"-45.79447000","wikiDataId":"Q1760112"},{"id":10870,"name":"Cachoeira de Pajeú","stateId":1998,"stateCode":"MG","stateName":"Minas Gerais","countryId":31,"countryCode":"BR","countryName":"Brazil","latitude":"-15.97163000","longitude":"-41.49303000","wikiDataId":"Q1760112"},{"id":10863,"name":"Cachoeira Dourada","stateId":1998,"stateCode":"MG","stateName":"Minas Gerais","countryId":31,"countryCode":"BR","countryName":"Brazil","latitude":"-18.59094000","longitude":"-49.47013000","wikiDataId":"Q22062738"},{"id":10889,"name":"Caetanópolis","stateId":1998,"stateCode":"MG","stateName":"Minas Gerais","countryId":31,"countryCode":"BR","countryName":"Brazil","latitude":"-19.33473000","longitude":"-44.41002000","wikiDataId":"Q1792016"},{"id":10891,"name":"Caeté","stateId":1998,"stateCode":"MG","stateName":"Minas Gerais","countryId":31,"countryCode":"BR","countryName":"Brazil","latitude":"-19.87017000","longitude":"-43.65060000","wikiDataId":"Q1755373"},{"id":10899,"name":"Caiana","stateId":1998,"stateCode":"MG","stateName":"Minas Gerais","countryId":31,"countryCode":"BR","countryName":"Brazil","latitude":"-20.73080000","longitude":"-41.90016000","wikiDataId":"Q2040790"},{"id":10921,"name":"Cajuri","stateId":1998,"stateCode":"MG","stateName":"Minas Gerais","countryId":31,"countryCode":"BR","countryName":"Brazil","latitude":"-20.78744000","longitude":"-42.76259000","wikiDataId":"Q22023546"},{"id":10923,"name":"Caldas","stateId":1998,"stateCode":"MG","stateName":"Minas Gerais","countryId":31,"countryCode":"BR","countryName":"Brazil","latitude":"-21.88671000","longitude":"-46.35924000","wikiDataId":"Q22062733"},{"id":10935,"name":"Camacho","stateId":1998,"stateCode":"MG","stateName":"Minas Gerais","countryId":31,"countryCode":"BR","countryName":"Brazil","latitude":"-20.64216000","longitude":"-45.14334000","wikiDataId":"Q1756303"},{"id":10938,"name":"Camanducaia","stateId":1998,"stateCode":"MG","stateName":"Minas Gerais","countryId":31,"countryCode":"BR","countryName":"Brazil","latitude":"-22.75528000","longitude":"-46.14472000","wikiDataId":"Q1754774"},{"id":10950,"name":"Cambuí","stateId":1998,"stateCode":"MG","stateName":"Minas Gerais","countryId":31,"countryCode":"BR","countryName":"Brazil","latitude":"-22.58243000","longitude":"-46.06121000","wikiDataId":"Q1756818"},{"id":10949,"name":"Cambuquira","stateId":1998,"stateCode":"MG","stateName":"Minas Gerais","countryId":31,"countryCode":"BR","countryName":"Brazil","latitude":"-21.85379000","longitude":"-45.27170000","wikiDataId":"Q1754942"},{"id":10956,"name":"Campanário","stateId":1998,"stateCode":"MG","stateName":"Minas Gerais","countryId":31,"countryCode":"BR","countryName":"Brazil","latitude":"-18.27490000","longitude":"-41.73907000","wikiDataId":"Q22062728"},{"id":10955,"name":"Campanha","stateId":1998,"stateCode":"MG","stateName":"Minas Gerais","countryId":31,"countryCode":"BR","countryName":"Brazil","latitude":"-21.81412000","longitude":"-45.39753000","wikiDataId":"Q1780173"},{"id":10958,"name":"Campestre","stateId":1998,"stateCode":"MG","stateName":"Minas Gerais","countryId":31,"countryCode":"BR","countryName":"Brazil","latitude":"-21.73436000","longitude":"-46.22571000","wikiDataId":"Q22062719"},{"id":10964,"name":"Campina Verde","stateId":1998,"stateCode":"MG","stateName":"Minas Gerais","countryId":31,"countryCode":"BR","countryName":"Brazil","latitude":"-19.46113000","longitude":"-49.73967000","wikiDataId":"Q1756064"},{"id":10981,"name":"Campo Azul","stateId":1998,"stateCode":"MG","stateName":"Minas Gerais","countryId":31,"countryCode":"BR","countryName":"Brazil","latitude":"-16.52161000","longitude":"-44.80679000","wikiDataId":"Q1792812"},{"id":10982,"name":"Campo Belo","stateId":1998,"stateCode":"MG","stateName":"Minas Gerais","countryId":31,"countryCode":"BR","countryName":"Brazil","latitude":"-20.89722000","longitude":"-45.27722000","wikiDataId":"Q595804"},{"id":11006,"name":"Campo do Meio","stateId":1998,"stateCode":"MG","stateName":"Minas Gerais","countryId":31,"countryCode":"BR","countryName":"Brazil","latitude":"-21.12604000","longitude":"-45.79572000","wikiDataId":"Q1801972"},{"id":10987,"name":"Campo Florido","stateId":1998,"stateCode":"MG","stateName":"Minas Gerais","countryId":31,"countryCode":"BR","countryName":"Brazil","latitude":"-19.69262000","longitude":"-48.65664000","wikiDataId":"Q1757768"},{"id":11008,"name":"Campos Altos","stateId":1998,"stateCode":"MG","stateName":"Minas Gerais","countryId":31,"countryCode":"BR","countryName":"Brazil","latitude":"-19.63694000","longitude":"-46.19815000","wikiDataId":"Q585412"},{"id":11011,"name":"Campos Gerais","stateId":1998,"stateCode":"MG","stateName":"Minas Gerais","countryId":31,"countryCode":"BR","countryName":"Brazil","latitude":"-21.23500000","longitude":"-45.75861000","wikiDataId":"Q1791960"},{"id":11021,"name":"Cana Verde","stateId":1998,"stateCode":"MG","stateName":"Minas Gerais","countryId":31,"countryCode":"BR","countryName":"Brazil","latitude":"-21.02062000","longitude":"-45.18335000","wikiDataId":"Q22047120"},{"id":11030,"name":"Canaã","stateId":1998,"stateCode":"MG","stateName":"Minas Gerais","countryId":31,"countryCode":"BR","countryName":"Brazil","latitude":"-20.66128000","longitude":"-42.63787000","wikiDataId":"Q610966"},{"id":11061,"name":"Canápolis","stateId":1998,"stateCode":"MG","stateName":"Minas Gerais","countryId":31,"countryCode":"BR","countryName":"Brazil","latitude":"-18.77777000","longitude":"-49.27579000","wikiDataId":"Q22062710"},{"id":11034,"name":"Candeias","stateId":1998,"stateCode":"MG","stateName":"Minas Gerais","countryId":31,"countryCode":"BR","countryName":"Brazil","latitude":"-20.73894000","longitude":"-45.28719000","wikiDataId":"Q1906206"},{"id":11053,"name":"Cantagalo","stateId":1998,"stateCode":"MG","stateName":"Minas Gerais","countryId":31,"countryCode":"BR","countryName":"Brazil","latitude":"-18.51033000","longitude":"-42.64980000","wikiDataId":"Q22062707"},{"id":11064,"name":"Caparaó","stateId":1998,"stateCode":"MG","stateName":"Minas Gerais","countryId":31,"countryCode":"BR","countryName":"Brazil","latitude":"-20.52613000","longitude":"-41.90220000","wikiDataId":"Q742409"},{"id":11067,"name":"Capela Nova","stateId":1998,"stateCode":"MG","stateName":"Minas Gerais","countryId":31,"countryCode":"BR","countryName":"Brazil","latitude":"-20.91843000","longitude":"-43.61587000","wikiDataId":"Q1955261"},{"id":11071,"name":"Capelinha","stateId":1998,"stateCode":"MG","stateName":"Minas Gerais","countryId":31,"countryCode":"BR","countryName":"Brazil","latitude":"-17.69167000","longitude":"-42.50214000","wikiDataId":"Q1756225"},{"id":11072,"name":"Capetinga","stateId":1998,"stateCode":"MG","stateName":"Minas Gerais","countryId":31,"countryCode":"BR","countryName":"Brazil","latitude":"-20.65301000","longitude":"-47.01826000","wikiDataId":"Q1756225"},{"id":11074,"name":"Capim Branco","stateId":1998,"stateCode":"MG","stateName":"Minas Gerais","countryId":31,"countryCode":"BR","countryName":"Brazil","latitude":"-19.57826000","longitude":"-44.16662000","wikiDataId":"Q1792057"},{"id":11078,"name":"Capinópolis","stateId":1998,"stateCode":"MG","stateName":"Minas Gerais","countryId":31,"countryCode":"BR","countryName":"Brazil","latitude":"-18.69222000","longitude":"-49.57943000","wikiDataId":"Q1791729"},{"id":11081,"name":"Capitão Andrade","stateId":1998,"stateCode":"MG","stateName":"Minas Gerais","countryId":31,"countryCode":"BR","countryName":"Brazil","latitude":"-19.04293000","longitude":"-41.82608000","wikiDataId":"Q1791913"},{"id":11082,"name":"Capitão Enéas","stateId":1998,"stateCode":"MG","stateName":"Minas Gerais","countryId":31,"countryCode":"BR","countryName":"Brazil","latitude":"-16.05629000","longitude":"-43.67470000","wikiDataId":"Q1791913"},{"id":11087,"name":"Capitólio","stateId":1998,"stateCode":"MG","stateName":"Minas Gerais","countryId":31,"countryCode":"BR","countryName":"Brazil","latitude":"-20.61528000","longitude":"-46.05000000","wikiDataId":"Q1257195"},{"id":11093,"name":"Caputira","stateId":1998,"stateCode":"MG","stateName":"Minas Gerais","countryId":31,"countryCode":"BR","countryName":"Brazil","latitude":"-20.18512000","longitude":"-42.25284000","wikiDataId":"Q2064882"},{"id":11115,"name":"Caraí","stateId":1998,"stateCode":"MG","stateName":"Minas Gerais","countryId":31,"countryCode":"BR","countryName":"Brazil","latitude":"-17.18089000","longitude":"-41.54964000","wikiDataId":"Q584168"},{"id":11105,"name":"Caranaíba","stateId":1998,"stateCode":"MG","stateName":"Minas Gerais","countryId":31,"countryCode":"BR","countryName":"Brazil","latitude":"-20.88526000","longitude":"-43.71231000","wikiDataId":"Q1803923"},{"id":11106,"name":"Carandaí","stateId":1998,"stateCode":"MG","stateName":"Minas Gerais","countryId":31,"countryCode":"BR","countryName":"Brazil","latitude":"-20.98840000","longitude":"-43.83413000","wikiDataId":"Q1792927"},{"id":11107,"name":"Carangola","stateId":1998,"stateCode":"MG","stateName":"Minas Gerais","countryId":31,"countryCode":"BR","countryName":"Brazil","latitude":"-20.70784000","longitude":"-42.10486000","wikiDataId":"Q1793063"},{"id":11110,"name":"Caratinga","stateId":1998,"stateCode":"MG","stateName":"Minas Gerais","countryId":31,"countryCode":"BR","countryName":"Brazil","latitude":"-19.68877000","longitude":"-41.88778000","wikiDataId":"Q905175"},{"id":11120,"name":"Carbonita","stateId":1998,"stateCode":"MG","stateName":"Minas Gerais","countryId":31,"countryCode":"BR","countryName":"Brazil","latitude":"-17.47884000","longitude":"-43.04885000","wikiDataId":"Q2078721"},{"id":11124,"name":"Careaçu","stateId":1998,"stateCode":"MG","stateName":"Minas Gerais","countryId":31,"countryCode":"BR","countryName":"Brazil","latitude":"-22.07964000","longitude":"-45.66541000","wikiDataId":"Q1649954"},{"id":11139,"name":"Carlos Chagas","stateId":1998,"stateCode":"MG","stateName":"Minas Gerais","countryId":31,"countryCode":"BR","countryName":"Brazil","latitude":"-17.67817000","longitude":"-40.88519000","wikiDataId":"Q1650857"},{"id":11151,"name":"Carmésia","stateId":1998,"stateCode":"MG","stateName":"Minas Gerais","countryId":31,"countryCode":"BR","countryName":"Brazil","latitude":"-19.06534000","longitude":"-43.18402000","wikiDataId":"Q1805778"},{"id":11143,"name":"Carmo da Cachoeira","stateId":1998,"stateCode":"MG","stateName":"Minas Gerais","countryId":31,"countryCode":"BR","countryName":"Brazil","latitude":"-21.43323000","longitude":"-45.18036000","wikiDataId":"Q1765089"},{"id":11144,"name":"Carmo da Mata","stateId":1998,"stateCode":"MG","stateName":"Minas Gerais","countryId":31,"countryCode":"BR","countryName":"Brazil","latitude":"-20.56847000","longitude":"-44.88516000","wikiDataId":"Q1765089"},{"id":11145,"name":"Carmo de Minas","stateId":1998,"stateCode":"MG","stateName":"Minas Gerais","countryId":31,"countryCode":"BR","countryName":"Brazil","latitude":"-22.08863000","longitude":"-45.14949000","wikiDataId":"Q1765089"},{"id":11146,"name":"Carmo do Cajuru","stateId":1998,"stateCode":"MG","stateName":"Minas Gerais","countryId":31,"countryCode":"BR","countryName":"Brazil","latitude":"-20.18782000","longitude":"-44.71399000","wikiDataId":"Q22062685"},{"id":11147,"name":"Carmo do Paranaíba","stateId":1998,"stateCode":"MG","stateName":"Minas Gerais","countryId":31,"countryCode":"BR","countryName":"Brazil","latitude":"-18.87335000","longitude":"-46.14425000","wikiDataId":"Q1792297"},{"id":11148,"name":"Carmo do Rio Claro","stateId":1998,"stateCode":"MG","stateName":"Minas Gerais","countryId":31,"countryCode":"BR","countryName":"Brazil","latitude":"-20.97974000","longitude":"-46.10445000","wikiDataId":"Q1756452"},{"id":11153,"name":"Carmópolis de Minas","stateId":1998,"stateCode":"MG","stateName":"Minas Gerais","countryId":31,"countryCode":"BR","countryName":"Brazil","latitude":"-20.54914000","longitude":"-44.64527000","wikiDataId":"Q1805778"},{"id":11159,"name":"Carneirinho","stateId":1998,"stateCode":"MG","stateName":"Minas Gerais","countryId":31,"countryCode":"BR","countryName":"Brazil","latitude":"-19.71424000","longitude":"-50.80874000","wikiDataId":"Q22024027"},{"id":11163,"name":"Carrancas","stateId":1998,"stateCode":"MG","stateName":"Minas Gerais","countryId":31,"countryCode":"BR","countryName":"Brazil","latitude":"-21.49589000","longitude":"-44.61042000","wikiDataId":"Q1756048"},{"id":11169,"name":"Carvalhópolis","stateId":1998,"stateCode":"MG","stateName":"Minas Gerais","countryId":31,"countryCode":"BR","countryName":"Brazil","latitude":"-21.77488000","longitude":"-45.82688000","wikiDataId":"Q741443"},{"id":11168,"name":"Carvalhos","stateId":1998,"stateCode":"MG","stateName":"Minas Gerais","countryId":31,"countryCode":"BR","countryName":"Brazil","latitude":"-22.03096000","longitude":"-44.47544000","wikiDataId":"Q741443"},{"id":11172,"name":"Casa Grande","stateId":1998,"stateCode":"MG","stateName":"Minas Gerais","countryId":31,"countryCode":"BR","countryName":"Brazil","latitude":"-20.84072000","longitude":"-43.93951000","wikiDataId":"Q1074537"},{"id":11175,"name":"Cascalho Rico","stateId":1998,"stateCode":"MG","stateName":"Minas Gerais","countryId":31,"countryCode":"BR","countryName":"Brazil","latitude":"-18.54617000","longitude":"-47.85132000","wikiDataId":"Q1786658"},{"id":11543,"name":"Cássia","stateId":1998,"stateCode":"MG","stateName":"Minas Gerais","countryId":31,"countryCode":"BR","countryName":"Brazil","latitude":"-20.59294000","longitude":"-46.91761000","wikiDataId":"Q1793175"},{"id":11193,"name":"Cataguases","stateId":1998,"stateCode":"MG","stateName":"Minas Gerais","countryId":31,"countryCode":"BR","countryName":"Brazil","latitude":"-21.34548000","longitude":"-42.64976000","wikiDataId":"Q1749746"},{"id":11199,"name":"Catas Altas","stateId":1998,"stateCode":"MG","stateName":"Minas Gerais","countryId":31,"countryCode":"BR","countryName":"Brazil","latitude":"-20.07049000","longitude":"-43.42197000","wikiDataId":"Q22059576"},{"id":11200,"name":"Catas Altas da Noruega","stateId":1998,"stateCode":"MG","stateName":"Minas Gerais","countryId":31,"countryCode":"BR","countryName":"Brazil","latitude":"-20.68094000","longitude":"-43.49780000","wikiDataId":"Q22059576"},{"id":11207,"name":"Catuji","stateId":1998,"stateCode":"MG","stateName":"Minas Gerais","countryId":31,"countryCode":"BR","countryName":"Brazil","latitude":"-17.36328000","longitude":"-41.48183000","wikiDataId":"Q1762371"},{"id":11212,"name":"Catuti","stateId":1998,"stateCode":"MG","stateName":"Minas Gerais","countryId":31,"countryCode":"BR","countryName":"Brazil","latitude":"-15.32360000","longitude":"-43.11391000","wikiDataId":"Q22059575"},{"id":11216,"name":"Caxambu","stateId":1998,"stateCode":"MG","stateName":"Minas Gerais","countryId":31,"countryCode":"BR","countryName":"Brazil","latitude":"-21.97722000","longitude":"-44.93250000","wikiDataId":"Q829417"},{"id":11233,"name":"Cedro do Abaeté","stateId":1998,"stateCode":"MG","stateName":"Minas Gerais","countryId":31,"countryCode":"BR","countryName":"Brazil","latitude":"-19.11465000","longitude":"-45.70070000","wikiDataId":"Q2027857"},{"id":11239,"name":"Central de Minas","stateId":1998,"stateCode":"MG","stateName":"Minas Gerais","countryId":31,"countryCode":"BR","countryName":"Brazil","latitude":"-18.76784000","longitude":"-41.28963000","wikiDataId":"Q2021433"},{"id":11241,"name":"Centralina","stateId":1998,"stateCode":"MG","stateName":"Minas Gerais","countryId":31,"countryCode":"BR","countryName":"Brazil","latitude":"-18.60922000","longitude":"-49.16062000","wikiDataId":"Q1792154"},{"id":11285,"name":"Chácara","stateId":1998,"stateCode":"MG","stateName":"Minas Gerais","countryId":31,"countryCode":"BR","countryName":"Brazil","latitude":"-21.67919000","longitude":"-43.21835000","wikiDataId":"Q665968"},{"id":11258,"name":"Chalé","stateId":1998,"stateCode":"MG","stateName":"Minas Gerais","countryId":31,"countryCode":"BR","countryName":"Brazil","latitude":"-20.03354000","longitude":"-41.67809000","wikiDataId":"Q1786013"},{"id":11263,"name":"Chapada do Norte","stateId":1998,"stateCode":"MG","stateName":"Minas Gerais","countryId":31,"countryCode":"BR","countryName":"Brazil","latitude":"-17.16293000","longitude":"-42.37718000","wikiDataId":"Q1758303"},{"id":11260,"name":"Chapada Gaúcha","stateId":1998,"stateCode":"MG","stateName":"Minas Gerais","countryId":31,"countryCode":"BR","countryName":"Brazil","latitude":"-15.57934000","longitude":"-45.41242000","wikiDataId":"Q1758303"},{"id":11276,"name":"Chiador","stateId":1998,"stateCode":"MG","stateName":"Minas Gerais","countryId":31,"countryCode":"BR","countryName":"Brazil","latitude":"-21.97253000","longitude":"-43.00735000","wikiDataId":"Q1795758"},{"id":11294,"name":"Cipotânea","stateId":1998,"stateCode":"MG","stateName":"Minas Gerais","countryId":31,"countryCode":"BR","countryName":"Brazil","latitude":"-20.93027000","longitude":"-43.36547000","wikiDataId":"Q1749883"},{"id":11297,"name":"Claraval","stateId":1998,"stateCode":"MG","stateName":"Minas Gerais","countryId":31,"countryCode":"BR","countryName":"Brazil","latitude":"-20.35681000","longitude":"-47.25241000","wikiDataId":"Q1762353"},{"id":11298,"name":"Claro dos Poções","stateId":1998,"stateCode":"MG","stateName":"Minas Gerais","countryId":31,"countryCode":"BR","countryName":"Brazil","latitude":"-17.09679000","longitude":"-44.23300000","wikiDataId":"Q1762353"},{"id":11302,"name":"Cláudio","stateId":1998,"stateCode":"MG","stateName":"Minas Gerais","countryId":31,"countryCode":"BR","countryName":"Brazil","latitude":"-20.39006000","longitude":"-44.79135000","wikiDataId":"Q22062655"},{"id":11316,"name":"Coimbra","stateId":1998,"stateCode":"MG","stateName":"Minas Gerais","countryId":31,"countryCode":"BR","countryName":"Brazil","latitude":"-20.84494000","longitude":"-42.79834000","wikiDataId":"Q22062654"},{"id":11332,"name":"Coluna","stateId":1998,"stateCode":"MG","stateName":"Minas Gerais","countryId":31,"countryCode":"BR","countryName":"Brazil","latitude":"-18.26842000","longitude":"-42.82813000","wikiDataId":"Q1780178"},{"id":11340,"name":"Comendador Gomes","stateId":1998,"stateCode":"MG","stateName":"Minas Gerais","countryId":31,"countryCode":"BR","countryName":"Brazil","latitude":"-19.65330000","longitude":"-49.08738000","wikiDataId":"Q2066010"},{"id":11342,"name":"Comercinho","stateId":1998,"stateCode":"MG","stateName":"Minas Gerais","countryId":31,"countryCode":"BR","countryName":"Brazil","latitude":"-16.28896000","longitude":"-41.77346000","wikiDataId":"Q2066010"},{"id":11345,"name":"Conceição da Aparecida","stateId":1998,"stateCode":"MG","stateName":"Minas Gerais","countryId":31,"countryCode":"BR","countryName":"Brazil","latitude":"-21.10120000","longitude":"-46.22626000","wikiDataId":"Q1221976"},{"id":11347,"name":"Conceição da Barra de Minas","stateId":1998,"stateCode":"MG","stateName":"Minas Gerais","countryId":31,"countryCode":"BR","countryName":"Brazil","latitude":"-21.14228000","longitude":"-44.48863000","wikiDataId":"Q1998957"},{"id":11349,"name":"Conceição das Alagoas","stateId":1998,"stateCode":"MG","stateName":"Minas Gerais","countryId":31,"countryCode":"BR","countryName":"Brazil","latitude":"-19.95627000","longitude":"-48.30510000","wikiDataId":"Q745089"},{"id":11350,"name":"Conceição das Pedras","stateId":1998,"stateCode":"MG","stateName":"Minas Gerais","countryId":31,"countryCode":"BR","countryName":"Brazil","latitude":"-22.13866000","longitude":"-45.42694000","wikiDataId":"Q745089"},{"id":11351,"name":"Conceição de Ipanema","stateId":1998,"stateCode":"MG","stateName":"Minas Gerais","countryId":31,"countryCode":"BR","countryName":"Brazil","latitude":"-19.91781000","longitude":"-41.70024000","wikiDataId":"Q745089"},{"id":11360,"name":"Conceição do Mato Dentro","stateId":1998,"stateCode":"MG","stateName":"Minas Gerais","countryId":31,"countryCode":"BR","countryName":"Brazil","latitude":"-18.90010000","longitude":"-43.50229000","wikiDataId":"Q1792783"},{"id":11361,"name":"Conceição do Pará","stateId":1998,"stateCode":"MG","stateName":"Minas Gerais","countryId":31,"countryCode":"BR","countryName":"Brazil","latitude":"-19.78550000","longitude":"-44.87016000","wikiDataId":"Q1792783"},{"id":11362,"name":"Conceição do Rio Verde","stateId":1998,"stateCode":"MG","stateName":"Minas Gerais","countryId":31,"countryCode":"BR","countryName":"Brazil","latitude":"-21.90132000","longitude":"-45.07975000","wikiDataId":"Q1756600"},{"id":11364,"name":"Conceição dos Ouros","stateId":1998,"stateCode":"MG","stateName":"Minas Gerais","countryId":31,"countryCode":"BR","countryName":"Brazil","latitude":"-22.45037000","longitude":"-45.77976000","wikiDataId":"Q1756600"},{"id":11558,"name":"Cônego Marinho","stateId":1998,"stateCode":"MG","stateName":"Minas Gerais","countryId":31,"countryCode":"BR","countryName":"Brazil","latitude":"-14.98755000","longitude":"-44.60965000","wikiDataId":"Q1791989"},{"id":11375,"name":"Confins","stateId":1998,"stateCode":"MG","stateName":"Minas Gerais","countryId":31,"countryCode":"BR","countryName":"Brazil","latitude":"-19.65686000","longitude":"-43.98131000","wikiDataId":"Q1003399"},{"id":11378,"name":"Congonhal","stateId":1998,"stateCode":"MG","stateName":"Minas Gerais","countryId":31,"countryCode":"BR","countryName":"Brazil","latitude":"-22.13543000","longitude":"-46.03992000","wikiDataId":"Q2009615"},{"id":11379,"name":"Congonhas","stateId":1998,"stateCode":"MG","stateName":"Minas Gerais","countryId":31,"countryCode":"BR","countryName":"Brazil","latitude":"-20.50525000","longitude":"-43.85880000","wikiDataId":"Q275654"},{"id":11380,"name":"Congonhas do Norte","stateId":1998,"stateCode":"MG","stateName":"Minas Gerais","countryId":31,"countryCode":"BR","countryName":"Brazil","latitude":"-18.88604000","longitude":"-43.69620000","wikiDataId":"Q275654"},{"id":11382,"name":"Conquista","stateId":1998,"stateCode":"MG","stateName":"Minas Gerais","countryId":31,"countryCode":"BR","countryName":"Brazil","latitude":"-19.86841000","longitude":"-47.63352000","wikiDataId":"Q275654"},{"id":11384,"name":"Conselheiro Lafaiete","stateId":1998,"stateCode":"MG","stateName":"Minas Gerais","countryId":31,"countryCode":"BR","countryName":"Brazil","latitude":"-20.66028000","longitude":"-43.78611000","wikiDataId":"Q570312"},{"id":11386,"name":"Conselheiro Pena","stateId":1998,"stateCode":"MG","stateName":"Minas Gerais","countryId":31,"countryCode":"BR","countryName":"Brazil","latitude":"-19.17411000","longitude":"-41.45800000","wikiDataId":"Q1792851"},{"id":11387,"name":"Consolação","stateId":1998,"stateCode":"MG","stateName":"Minas Gerais","countryId":31,"countryCode":"BR","countryName":"Brazil","latitude":"-22.54002000","longitude":"-45.90414000","wikiDataId":"Q1805751"},{"id":11389,"name":"Contagem","stateId":1998,"stateCode":"MG","stateName":"Minas Gerais","countryId":31,"countryCode":"BR","countryName":"Brazil","latitude":"-19.93167000","longitude":"-44.05361000","wikiDataId":"Q271333"},{"id":11392,"name":"Coqueiral","stateId":1998,"stateCode":"MG","stateName":"Minas Gerais","countryId":31,"countryCode":"BR","countryName":"Brazil","latitude":"-21.17947000","longitude":"-45.43619000","wikiDataId":"Q271333"},{"id":11396,"name":"Coração de Jesus","stateId":1998,"stateCode":"MG","stateName":"Minas Gerais","countryId":31,"countryCode":"BR","countryName":"Brazil","latitude":"-16.68619000","longitude":"-44.36279000","wikiDataId":"Q1779901"},{"id":11403,"name":"Cordisburgo","stateId":1998,"stateCode":"MG","stateName":"Minas Gerais","countryId":31,"countryCode":"BR","countryName":"Brazil","latitude":"-19.09925000","longitude":"-44.16458000","wikiDataId":"Q1750107"},{"id":11404,"name":"Cordislândia","stateId":1998,"stateCode":"MG","stateName":"Minas Gerais","countryId":31,"countryCode":"BR","countryName":"Brazil","latitude":"-21.78750000","longitude":"-45.67156000","wikiDataId":"Q1750107"},{"id":11409,"name":"Corinto","stateId":1998,"stateCode":"MG","stateName":"Minas Gerais","countryId":31,"countryCode":"BR","countryName":"Brazil","latitude":"-18.35246000","longitude":"-44.60589000","wikiDataId":"Q22062630"},{"id":11411,"name":"Coroaci","stateId":1998,"stateCode":"MG","stateName":"Minas Gerais","countryId":31,"countryCode":"BR","countryName":"Brazil","latitude":"-18.61187000","longitude":"-42.25835000","wikiDataId":"Q2007572"},{"id":11414,"name":"Coromandel","stateId":1998,"stateCode":"MG","stateName":"Minas Gerais","countryId":31,"countryCode":"BR","countryName":"Brazil","latitude":"-18.40456000","longitude":"-47.15161000","wikiDataId":"Q22062628"},{"id":11419,"name":"Coronel Fabriciano","stateId":1998,"stateCode":"MG","stateName":"Minas Gerais","countryId":31,"countryCode":"BR","countryName":"Brazil","latitude":"-19.51861000","longitude":"-42.62889000","wikiDataId":"Q80004"},{"id":11426,"name":"Coronel Murta","stateId":1998,"stateCode":"MG","stateName":"Minas Gerais","countryId":31,"countryCode":"BR","countryName":"Brazil","latitude":"-16.58925000","longitude":"-42.19742000","wikiDataId":"Q80004"},{"id":11427,"name":"Coronel Pacheco","stateId":1998,"stateCode":"MG","stateName":"Minas Gerais","countryId":31,"countryCode":"BR","countryName":"Brazil","latitude":"-21.60865000","longitude":"-43.29006000","wikiDataId":"Q80004"},{"id":11431,"name":"Coronel Xavier Chaves","stateId":1998,"stateCode":"MG","stateName":"Minas Gerais","countryId":31,"countryCode":"BR","countryName":"Brazil","latitude":"-21.02869000","longitude":"-44.20221000","wikiDataId":"Q1803573"},{"id":11553,"name":"Córrego Danta","stateId":1998,"stateCode":"MG","stateName":"Minas Gerais","countryId":31,"countryCode":"BR","countryName":"Brazil","latitude":"-19.81349000","longitude":"-45.96149000","wikiDataId":"Q1756093"},{"id":11556,"name":"Córrego do Bom Jesus","stateId":1998,"stateCode":"MG","stateName":"Minas Gerais","countryId":31,"countryCode":"BR","countryName":"Brazil","latitude":"-22.62998000","longitude":"-45.99681000","wikiDataId":"Q1791989"},{"id":11554,"name":"Córrego Fundo","stateId":1998,"stateCode":"MG","stateName":"Minas Gerais","countryId":31,"countryCode":"BR","countryName":"Brazil","latitude":"-20.45029000","longitude":"-45.53592000","wikiDataId":"Q1756378"},{"id":11555,"name":"Córrego Novo","stateId":1998,"stateCode":"MG","stateName":"Minas Gerais","countryId":31,"countryCode":"BR","countryName":"Brazil","latitude":"-19.82874000","longitude":"-42.44214000","wikiDataId":"Q1791989"},{"id":11456,"name":"Couto de Magalhães de Minas","stateId":1998,"stateCode":"MG","stateName":"Minas Gerais","countryId":31,"countryCode":"BR","countryName":"Brazil","latitude":"-18.11856000","longitude":"-43.41813000","wikiDataId":"Q2013031"},{"id":11481,"name":"Crisólita","stateId":1998,"stateCode":"MG","stateName":"Minas Gerais","countryId":31,"countryCode":"BR","countryName":"Brazil","latitude":"-17.24147000","longitude":"-40.97498000","wikiDataId":"Q1761896"},{"id":11467,"name":"Cristais","stateId":1998,"stateCode":"MG","stateName":"Minas Gerais","countryId":31,"countryCode":"BR","countryName":"Brazil","latitude":"-20.80957000","longitude":"-45.52448000","wikiDataId":"Q1439157"},{"id":11479,"name":"Cristália","stateId":1998,"stateCode":"MG","stateName":"Minas Gerais","countryId":31,"countryCode":"BR","countryName":"Brazil","latitude":"-16.72547000","longitude":"-42.81870000","wikiDataId":"Q1802492"},{"id":11474,"name":"Cristiano Otoni","stateId":1998,"stateCode":"MG","stateName":"Minas Gerais","countryId":31,"countryCode":"BR","countryName":"Brazil","latitude":"-20.83688000","longitude":"-43.82931000","wikiDataId":"Q1012541"},{"id":11476,"name":"Cristina","stateId":1998,"stateCode":"MG","stateName":"Minas Gerais","countryId":31,"countryCode":"BR","countryName":"Brazil","latitude":"-22.21592000","longitude":"-45.28820000","wikiDataId":"Q1796446"},{"id":11487,"name":"Crucilândia","stateId":1998,"stateCode":"MG","stateName":"Minas Gerais","countryId":31,"countryCode":"BR","countryName":"Brazil","latitude":"-20.40660000","longitude":"-44.35991000","wikiDataId":"Q177030"},{"id":11495,"name":"Cruzeiro da Fortaleza","stateId":1998,"stateCode":"MG","stateName":"Minas Gerais","countryId":31,"countryCode":"BR","countryName":"Brazil","latitude":"-18.96712000","longitude":"-46.65779000","wikiDataId":"Q1003429"},{"id":11504,"name":"Cruzília","stateId":1998,"stateCode":"MG","stateName":"Minas Gerais","countryId":31,"countryCode":"BR","countryName":"Brazil","latitude":"-21.73596000","longitude":"-44.79827000","wikiDataId":"Q1756446"},{"id":11519,"name":"Cuparaque","stateId":1998,"stateCode":"MG","stateName":"Minas Gerais","countryId":31,"countryCode":"BR","countryName":"Brazil","latitude":"-18.99664000","longitude":"-41.13368000","wikiDataId":"Q1759005"},{"id":11532,"name":"Curral de Dentro","stateId":1998,"stateCode":"MG","stateName":"Minas Gerais","countryId":31,"countryCode":"BR","countryName":"Brazil","latitude":"-15.84632000","longitude":"-41.75405000","wikiDataId":"Q2010383"},{"id":11538,"name":"Curvelo","stateId":1998,"stateCode":"MG","stateName":"Minas Gerais","countryId":31,"countryCode":"BR","countryName":"Brazil","latitude":"-18.78525000","longitude":"-44.41599000","wikiDataId":"Q1749748"},{"id":11563,"name":"Datas","stateId":1998,"stateCode":"MG","stateName":"Minas Gerais","countryId":31,"countryCode":"BR","countryName":"Brazil","latitude":"-18.48073000","longitude":"-43.65216000","wikiDataId":"Q663661"},{"id":11567,"name":"Delfim Moreira","stateId":1998,"stateCode":"MG","stateName":"Minas Gerais","countryId":31,"countryCode":"BR","countryName":"Brazil","latitude":"-22.51165000","longitude":"-45.28972000","wikiDataId":"Q1780238"},{"id":11568,"name":"Delfinópolis","stateId":1998,"stateCode":"MG","stateName":"Minas Gerais","countryId":31,"countryCode":"BR","countryName":"Brazil","latitude":"-20.34248000","longitude":"-46.83952000","wikiDataId":"Q1780238"},{"id":11570,"name":"Delta","stateId":1998,"stateCode":"MG","stateName":"Minas Gerais","countryId":31,"countryCode":"BR","countryName":"Brazil","latitude":"-19.93414000","longitude":"-47.80435000","wikiDataId":"Q22062605"},{"id":11578,"name":"Descoberto","stateId":1998,"stateCode":"MG","stateName":"Minas Gerais","countryId":31,"countryCode":"BR","countryName":"Brazil","latitude":"-21.45167000","longitude":"-42.97128000","wikiDataId":"Q1792077"},{"id":11580,"name":"Desterro de Entre Rios","stateId":1998,"stateCode":"MG","stateName":"Minas Gerais","countryId":31,"countryCode":"BR","countryName":"Brazil","latitude":"-20.64186000","longitude":"-44.28135000","wikiDataId":"Q2009945"},{"id":11581,"name":"Desterro do Melo","stateId":1998,"stateCode":"MG","stateName":"Minas Gerais","countryId":31,"countryCode":"BR","countryName":"Brazil","latitude":"-21.14290000","longitude":"-43.52011000","wikiDataId":"Q2009945"},{"id":11588,"name":"Diamantina","stateId":1998,"stateCode":"MG","stateName":"Minas Gerais","countryId":31,"countryCode":"BR","countryName":"Brazil","latitude":"-17.97795000","longitude":"-43.60415000","wikiDataId":"Q34028"},{"id":11593,"name":"Diogo de Vasconcelos","stateId":1998,"stateCode":"MG","stateName":"Minas Gerais","countryId":31,"countryCode":"BR","countryName":"Brazil","latitude":"-20.47593000","longitude":"-43.19094000","wikiDataId":"Q2296402"},{"id":11594,"name":"Dionísio","stateId":1998,"stateCode":"MG","stateName":"Minas Gerais","countryId":31,"countryCode":"BR","countryName":"Brazil","latitude":"-19.83679000","longitude":"-42.68817000","wikiDataId":"Q2296402"},{"id":11605,"name":"Divinésia","stateId":1998,"stateCode":"MG","stateName":"Minas Gerais","countryId":31,"countryCode":"BR","countryName":"Brazil","latitude":"-20.99465000","longitude":"-42.99513000","wikiDataId":"Q1791982"},{"id":11600,"name":"Divino","stateId":1998,"stateCode":"MG","stateName":"Minas Gerais","countryId":31,"countryCode":"BR","countryName":"Brazil","latitude":"-20.58996000","longitude":"-42.17550000","wikiDataId":"Q2296402"},{"id":11601,"name":"Divino das Laranjeiras","stateId":1998,"stateCode":"MG","stateName":"Minas Gerais","countryId":31,"countryCode":"BR","countryName":"Brazil","latitude":"-18.77778000","longitude":"-41.47972000","wikiDataId":"Q1791982"},{"id":11604,"name":"Divinolândia de Minas","stateId":1998,"stateCode":"MG","stateName":"Minas Gerais","countryId":31,"countryCode":"BR","countryName":"Brazil","latitude":"-18.77559000","longitude":"-42.57075000","wikiDataId":"Q1791982"},{"id":11606,"name":"Divinópolis","stateId":1998,"stateCode":"MG","stateName":"Minas Gerais","countryId":31,"countryCode":"BR","countryName":"Brazil","latitude":"-20.14355000","longitude":"-44.89065000","wikiDataId":"Q926606"},{"id":11609,"name":"Divisa Alegre","stateId":1998,"stateCode":"MG","stateName":"Minas Gerais","countryId":31,"countryCode":"BR","countryName":"Brazil","latitude":"-15.69447000","longitude":"-41.39107000","wikiDataId":"Q926606"},{"id":11610,"name":"Divisa Nova","stateId":1998,"stateCode":"MG","stateName":"Minas Gerais","countryId":31,"countryCode":"BR","countryName":"Brazil","latitude":"-21.52382000","longitude":"-46.24417000","wikiDataId":"Q926606"},{"id":11611,"name":"Divisópolis","stateId":1998,"stateCode":"MG","stateName":"Minas Gerais","countryId":31,"countryCode":"BR","countryName":"Brazil","latitude":"-15.76740000","longitude":"-40.92393000","wikiDataId":"Q926606"},{"id":11624,"name":"Dom Bosco","stateId":1998,"stateCode":"MG","stateName":"Minas Gerais","countryId":31,"countryCode":"BR","countryName":"Brazil","latitude":"-16.81133000","longitude":"-46.28457000","wikiDataId":"Q1803648"},{"id":11625,"name":"Dom Cavati","stateId":1998,"stateCode":"MG","stateName":"Minas Gerais","countryId":31,"countryCode":"BR","countryName":"Brazil","latitude":"-19.38835000","longitude":"-42.09365000","wikiDataId":"Q1755986"},{"id":11630,"name":"Dom Joaquim","stateId":1998,"stateCode":"MG","stateName":"Minas Gerais","countryId":31,"countryCode":"BR","countryName":"Brazil","latitude":"-18.92927000","longitude":"-43.26602000","wikiDataId":"Q1755986"},{"id":11635,"name":"Dom Silvério","stateId":1998,"stateCode":"MG","stateName":"Minas Gerais","countryId":31,"countryCode":"BR","countryName":"Brazil","latitude":"-20.12728000","longitude":"-42.94651000","wikiDataId":"Q1823871"},{"id":11636,"name":"Dom Viçoso","stateId":1998,"stateCode":"MG","stateName":"Minas Gerais","countryId":31,"countryCode":"BR","countryName":"Brazil","latitude":"-22.23185000","longitude":"-45.14880000","wikiDataId":"Q1823871"},{"id":11640,"name":"Dona Eusébia","stateId":1998,"stateCode":"MG","stateName":"Minas Gerais","countryId":31,"countryCode":"BR","countryName":"Brazil","latitude":"-21.32337000","longitude":"-42.80829000","wikiDataId":"Q1756805"},{"id":11643,"name":"Dores de Campos","stateId":1998,"stateCode":"MG","stateName":"Minas Gerais","countryId":31,"countryCode":"BR","countryName":"Brazil","latitude":"-21.11373000","longitude":"-43.99358000","wikiDataId":"Q1814531"},{"id":11644,"name":"Dores de Guanhães","stateId":1998,"stateCode":"MG","stateName":"Minas Gerais","countryId":31,"countryCode":"BR","countryName":"Brazil","latitude":"-19.04398000","longitude":"-42.92816000","wikiDataId":"Q1790727"},{"id":11645,"name":"Dores do Indaiá","stateId":1998,"stateCode":"MG","stateName":"Minas Gerais","countryId":31,"countryCode":"BR","countryName":"Brazil","latitude":"-19.47427000","longitude":"-45.54046000","wikiDataId":"Q1757114"},{"id":11647,"name":"Dores do Turvo","stateId":1998,"stateCode":"MG","stateName":"Minas Gerais","countryId":31,"countryCode":"BR","countryName":"Brazil","latitude":"-21.02779000","longitude":"-43.16365000","wikiDataId":"Q1757114"},{"id":11648,"name":"Doresópolis","stateId":1998,"stateCode":"MG","stateName":"Minas Gerais","countryId":31,"countryCode":"BR","countryName":"Brazil","latitude":"-20.29693000","longitude":"-45.86864000","wikiDataId":"Q1756593"},{"id":11653,"name":"Douradoquara","stateId":1998,"stateCode":"MG","stateName":"Minas Gerais","countryId":31,"countryCode":"BR","countryName":"Brazil","latitude":"-18.44204000","longitude":"-47.61478000","wikiDataId":"Q1805588"},{"id":11670,"name":"Durandé","stateId":1998,"stateCode":"MG","stateName":"Minas Gerais","countryId":31,"countryCode":"BR","countryName":"Brazil","latitude":"-20.15179000","longitude":"-41.78240000","wikiDataId":"Q1756936"},{"id":11686,"name":"Elói Mendes","stateId":1998,"stateCode":"MG","stateName":"Minas Gerais","countryId":31,"countryCode":"BR","countryName":"Brazil","latitude":"-21.60067000","longitude":"-45.59466000","wikiDataId":"Q939717"},{"id":11699,"name":"Engenheiro Caldas","stateId":1998,"stateCode":"MG","stateName":"Minas Gerais","countryId":31,"countryCode":"BR","countryName":"Brazil","latitude":"-19.11350000","longitude":"-42.01786000","wikiDataId":"Q1803653"},{"id":11701,"name":"Engenheiro Navarro","stateId":1998,"stateCode":"MG","stateName":"Minas Gerais","countryId":31,"countryCode":"BR","countryName":"Brazil","latitude":"-17.30933000","longitude":"-44.03465000","wikiDataId":"Q1803653"},{"id":11704,"name":"Entre Folhas","stateId":1998,"stateCode":"MG","stateName":"Minas Gerais","countryId":31,"countryCode":"BR","countryName":"Brazil","latitude":"-19.65964000","longitude":"-42.24102000","wikiDataId":"Q1791121"},{"id":11707,"name":"Entre Rios de Minas","stateId":1998,"stateCode":"MG","stateName":"Minas Gerais","countryId":31,"countryCode":"BR","countryName":"Brazil","latitude":"-20.70275000","longitude":"-44.10687000","wikiDataId":"Q1815627"},{"id":11723,"name":"Ervália","stateId":1998,"stateCode":"MG","stateName":"Minas Gerais","countryId":31,"countryCode":"BR","countryName":"Brazil","latitude":"-20.84684000","longitude":"-42.61968000","wikiDataId":"Q174286"},{"id":11726,"name":"Esmeraldas","stateId":1998,"stateCode":"MG","stateName":"Minas Gerais","countryId":31,"countryCode":"BR","countryName":"Brazil","latitude":"-19.76250000","longitude":"-44.31389000","wikiDataId":"Q22044873"},{"id":11727,"name":"Espera Feliz","stateId":1998,"stateCode":"MG","stateName":"Minas Gerais","countryId":31,"countryCode":"BR","countryName":"Brazil","latitude":"-20.59349000","longitude":"-41.91981000","wikiDataId":"Q1790572"},{"id":11736,"name":"Espinosa","stateId":1998,"stateCode":"MG","stateName":"Minas Gerais","countryId":31,"countryCode":"BR","countryName":"Brazil","latitude":"-14.85978000","longitude":"-42.99177000","wikiDataId":"Q22062572"},{"id":11740,"name":"Espírito Santo do Dourado","stateId":1998,"stateCode":"MG","stateName":"Minas Gerais","countryId":31,"countryCode":"BR","countryName":"Brazil","latitude":"-22.00600000","longitude":"-45.99000000","wikiDataId":"Q2064219"},{"id":11745,"name":"Estiva","stateId":1998,"stateCode":"MG","stateName":"Minas Gerais","countryId":31,"countryCode":"BR","countryName":"Brazil","latitude":"-22.45283000","longitude":"-46.02238000","wikiDataId":"Q1790777"},{"id":11749,"name":"Estrela Dalva","stateId":1998,"stateCode":"MG","stateName":"Minas Gerais","countryId":31,"countryCode":"BR","countryName":"Brazil","latitude":"-21.69328000","longitude":"-42.46834000","wikiDataId":"Q22044973"},{"id":11753,"name":"Estrela do Indaiá","stateId":1998,"stateCode":"MG","stateName":"Minas Gerais","countryId":31,"countryCode":"BR","countryName":"Brazil","latitude":"-19.58083000","longitude":"-45.81189000","wikiDataId":"Q1648136"},{"id":11756,"name":"Estrela do Sul","stateId":1998,"stateCode":"MG","stateName":"Minas Gerais","countryId":31,"countryCode":"BR","countryName":"Brazil","latitude":"-18.72229000","longitude":"-47.69732000","wikiDataId":"Q1795726"},{"id":11761,"name":"Eugenópolis","stateId":1998,"stateCode":"MG","stateName":"Minas Gerais","countryId":31,"countryCode":"BR","countryName":"Brazil","latitude":"-20.99897000","longitude":"-42.24618000","wikiDataId":"Q2013802"},{"id":11765,"name":"Ewbank da Câmara","stateId":1998,"stateCode":"MG","stateName":"Minas Gerais","countryId":31,"countryCode":"BR","countryName":"Brazil","latitude":"-21.57233000","longitude":"-43.55342000","wikiDataId":"Q2027112"},{"id":11767,"name":"Extrema","stateId":1998,"stateCode":"MG","stateName":"Minas Gerais","countryId":31,"countryCode":"BR","countryName":"Brazil","latitude":"-22.82650000","longitude":"-46.28351000","wikiDataId":"Q2008030"},{"id":11773,"name":"Fama","stateId":1998,"stateCode":"MG","stateName":"Minas Gerais","countryId":31,"countryCode":"BR","countryName":"Brazil","latitude":"-21.46845000","longitude":"-45.82005000","wikiDataId":"Q22062565"},{"id":11774,"name":"Faria Lemos","stateId":1998,"stateCode":"MG","stateName":"Minas Gerais","countryId":31,"countryCode":"BR","countryName":"Brazil","latitude":"-20.78262000","longitude":"-42.02787000","wikiDataId":"Q22062565"},{"id":11801,"name":"Felício dos Santos","stateId":1998,"stateCode":"MG","stateName":"Minas Gerais","countryId":31,"countryCode":"BR","countryName":"Brazil","latitude":"-18.15506000","longitude":"-43.24046000","wikiDataId":"Q194343"},{"id":11796,"name":"Felisburgo","stateId":1998,"stateCode":"MG","stateName":"Minas Gerais","countryId":31,"countryCode":"BR","countryName":"Brazil","latitude":"-16.66153000","longitude":"-40.71814000","wikiDataId":"Q194343"},{"id":11797,"name":"Felixlândia","stateId":1998,"stateCode":"MG","stateName":"Minas Gerais","countryId":31,"countryCode":"BR","countryName":"Brazil","latitude":"-18.69406000","longitude":"-44.91938000","wikiDataId":"Q194343"},{"id":11803,"name":"Fernandes Tourinho","stateId":1998,"stateCode":"MG","stateName":"Minas Gerais","countryId":31,"countryCode":"BR","countryName":"Brazil","latitude":"-19.10298000","longitude":"-42.09459000","wikiDataId":"Q194343"},{"id":11814,"name":"Ferros","stateId":1998,"stateCode":"MG","stateName":"Minas Gerais","countryId":31,"countryCode":"BR","countryName":"Brazil","latitude":"-19.23796000","longitude":"-42.97023000","wikiDataId":"Q1791559"},{"id":11815,"name":"Fervedouro","stateId":1998,"stateCode":"MG","stateName":"Minas Gerais","countryId":31,"countryCode":"BR","countryName":"Brazil","latitude":"-20.68788000","longitude":"-42.34214000","wikiDataId":"Q1791559"},{"id":11839,"name":"Florestal","stateId":1998,"stateCode":"MG","stateName":"Minas Gerais","countryId":31,"countryCode":"BR","countryName":"Brazil","latitude":"-19.86521000","longitude":"-44.44251000","wikiDataId":"Q2464842"},{"id":11850,"name":"Formiga","stateId":1998,"stateCode":"MG","stateName":"Minas Gerais","countryId":31,"countryCode":"BR","countryName":"Brazil","latitude":"-20.46444000","longitude":"-45.42639000","wikiDataId":"Q1791720"},{"id":11857,"name":"Formoso","stateId":1998,"stateCode":"MG","stateName":"Minas Gerais","countryId":31,"countryCode":"BR","countryName":"Brazil","latitude":"-15.14747000","longitude":"-46.09371000","wikiDataId":"Q1762128"},{"id":11864,"name":"Fortaleza de Minas","stateId":1998,"stateCode":"MG","stateName":"Minas Gerais","countryId":31,"countryCode":"BR","countryName":"Brazil","latitude":"-20.88169000","longitude":"-46.77437000","wikiDataId":"Q43463"},{"id":11870,"name":"Fortuna de Minas","stateId":1998,"stateCode":"MG","stateName":"Minas Gerais","countryId":31,"countryCode":"BR","countryName":"Brazil","latitude":"-19.54845000","longitude":"-44.50230000","wikiDataId":"Q2034097"},{"id":11878,"name":"Francisco Badaró","stateId":1998,"stateCode":"MG","stateName":"Minas Gerais","countryId":31,"countryCode":"BR","countryName":"Brazil","latitude":"-16.95297000","longitude":"-42.28055000","wikiDataId":"Q504587"},{"id":11881,"name":"Francisco Dumont","stateId":1998,"stateCode":"MG","stateName":"Minas Gerais","countryId":31,"countryCode":"BR","countryName":"Brazil","latitude":"-17.39766000","longitude":"-44.21775000","wikiDataId":"Q985577"},{"id":11885,"name":"Francisco Sá","stateId":1998,"stateCode":"MG","stateName":"Minas Gerais","countryId":31,"countryCode":"BR","countryName":"Brazil","latitude":"-16.47583000","longitude":"-43.48833000","wikiDataId":"Q936907"},{"id":11886,"name":"Franciscópolis","stateId":1998,"stateCode":"MG","stateName":"Minas Gerais","countryId":31,"countryCode":"BR","countryName":"Brazil","latitude":"-18.00982000","longitude":"-41.98437000","wikiDataId":"Q936907"},{"id":11891,"name":"Frei Gaspar","stateId":1998,"stateCode":"MG","stateName":"Minas Gerais","countryId":31,"countryCode":"BR","countryName":"Brazil","latitude":"-18.14006000","longitude":"-41.49292000","wikiDataId":"Q375650"},{"id":11892,"name":"Frei Inocêncio","stateId":1998,"stateCode":"MG","stateName":"Minas Gerais","countryId":31,"countryCode":"BR","countryName":"Brazil","latitude":"-18.51403000","longitude":"-41.87101000","wikiDataId":"Q375650"},{"id":11893,"name":"Frei Lagonegro","stateId":1998,"stateCode":"MG","stateName":"Minas Gerais","countryId":31,"countryCode":"BR","countryName":"Brazil","latitude":"-18.14293000","longitude":"-42.76064000","wikiDataId":"Q1790769"},{"id":11898,"name":"Fronteira","stateId":1998,"stateCode":"MG","stateName":"Minas Gerais","countryId":31,"countryCode":"BR","countryName":"Brazil","latitude":"-20.22276000","longitude":"-49.17640000","wikiDataId":"Q588822"},{"id":11899,"name":"Fronteira dos Vales","stateId":1998,"stateCode":"MG","stateName":"Minas Gerais","countryId":31,"countryCode":"BR","countryName":"Brazil","latitude":"-16.89172000","longitude":"-40.83008000","wikiDataId":"Q588822"},{"id":11901,"name":"Fruta de Leite","stateId":1998,"stateCode":"MG","stateName":"Minas Gerais","countryId":31,"countryCode":"BR","countryName":"Brazil","latitude":"-16.16212000","longitude":"-42.52859000","wikiDataId":"Q588822"},{"id":11902,"name":"Frutal","stateId":1998,"stateCode":"MG","stateName":"Minas Gerais","countryId":31,"countryCode":"BR","countryName":"Brazil","latitude":"-20.02472000","longitude":"-48.94056000","wikiDataId":"Q1790819"},{"id":11905,"name":"Funilândia","stateId":1998,"stateCode":"MG","stateName":"Minas Gerais","countryId":31,"countryCode":"BR","countryName":"Brazil","latitude":"-19.35187000","longitude":"-44.08205000","wikiDataId":"Q593133"},{"id":11912,"name":"Galiléia","stateId":1998,"stateCode":"MG","stateName":"Minas Gerais","countryId":31,"countryCode":"BR","countryName":"Brazil","latitude":"-18.86897000","longitude":"-41.52503000","wikiDataId":"Q593133"},{"id":11917,"name":"Gameleiras","stateId":1998,"stateCode":"MG","stateName":"Minas Gerais","countryId":31,"countryCode":"BR","countryName":"Brazil","latitude":"-14.97096000","longitude":"-43.30610000","wikiDataId":"Q301331"},{"id":11947,"name":"Glaucilândia","stateId":1998,"stateCode":"MG","stateName":"Minas Gerais","countryId":31,"countryCode":"BR","countryName":"Brazil","latitude":"-16.89532000","longitude":"-43.66081000","wikiDataId":"Q1785990"},{"id":11956,"name":"Goiabeira","stateId":1998,"stateCode":"MG","stateName":"Minas Gerais","countryId":31,"countryCode":"BR","countryName":"Brazil","latitude":"-19.02964000","longitude":"-41.22725000","wikiDataId":"Q1805781"},{"id":11962,"name":"Goianá","stateId":1998,"stateCode":"MG","stateName":"Minas Gerais","countryId":31,"countryCode":"BR","countryName":"Brazil","latitude":"-21.56063000","longitude":"-43.18511000","wikiDataId":"Q2007679"},{"id":11974,"name":"Gonçalves","stateId":1998,"stateCode":"MG","stateName":"Minas Gerais","countryId":31,"countryCode":"BR","countryName":"Brazil","latitude":"-22.67479000","longitude":"-45.83780000","wikiDataId":"Q745774"},{"id":11973,"name":"Gonzaga","stateId":1998,"stateCode":"MG","stateName":"Minas Gerais","countryId":31,"countryCode":"BR","countryName":"Brazil","latitude":"-18.87874000","longitude":"-42.49507000","wikiDataId":"Q745774"},{"id":11976,"name":"Gouveia","stateId":1998,"stateCode":"MG","stateName":"Minas Gerais","countryId":31,"countryCode":"BR","countryName":"Brazil","latitude":"-18.53580000","longitude":"-43.85363000","wikiDataId":"Q22066972"},{"id":11990,"name":"Governador Valadares","stateId":1998,"stateCode":"MG","stateName":"Minas Gerais","countryId":31,"countryCode":"BR","countryName":"Brazil","latitude":"-18.85111000","longitude":"-41.94944000","wikiDataId":"Q462218"},{"id":12008,"name":"Grão Mogol","stateId":1998,"stateCode":"MG","stateName":"Minas Gerais","countryId":31,"countryCode":"BR","countryName":"Brazil","latitude":"-16.49009000","longitude":"-42.96535000","wikiDataId":"Q2082297"},{"id":12007,"name":"Grupiara","stateId":1998,"stateCode":"MG","stateName":"Minas Gerais","countryId":31,"countryCode":"BR","countryName":"Brazil","latitude":"-18.47962000","longitude":"-47.77141000","wikiDataId":"Q2082297"},{"id":12025,"name":"Guanhães","stateId":1998,"stateCode":"MG","stateName":"Minas Gerais","countryId":31,"countryCode":"BR","countryName":"Brazil","latitude":"-18.85705000","longitude":"-42.80520000","wikiDataId":"Q1756864"},{"id":12032,"name":"Guapé","stateId":1998,"stateCode":"MG","stateName":"Minas Gerais","countryId":31,"countryCode":"BR","countryName":"Brazil","latitude":"-20.77404000","longitude":"-45.89935000","wikiDataId":"Q1758136"},{"id":12037,"name":"Guaraciaba","stateId":1998,"stateCode":"MG","stateName":"Minas Gerais","countryId":31,"countryCode":"BR","countryName":"Brazil","latitude":"-20.56919000","longitude":"-43.01146000","wikiDataId":"Q2008016"},{"id":12040,"name":"Guaraciama","stateId":1998,"stateCode":"MG","stateName":"Minas Gerais","countryId":31,"countryCode":"BR","countryName":"Brazil","latitude":"-17.08074000","longitude":"-43.60308000","wikiDataId":"Q2027331"},{"id":12050,"name":"Guaranésia","stateId":1998,"stateCode":"MG","stateName":"Minas Gerais","countryId":31,"countryCode":"BR","countryName":"Brazil","latitude":"-21.28820000","longitude":"-46.82229000","wikiDataId":"Q1790645"},{"id":12043,"name":"Guarani","stateId":1998,"stateCode":"MG","stateName":"Minas Gerais","countryId":31,"countryCode":"BR","countryName":"Brazil","latitude":"-21.35038000","longitude":"-43.05888000","wikiDataId":"Q1998473"},{"id":12056,"name":"Guarará","stateId":1998,"stateCode":"MG","stateName":"Minas Gerais","countryId":31,"countryCode":"BR","countryName":"Brazil","latitude":"-21.75802000","longitude":"-43.02469000","wikiDataId":"Q404820"},{"id":12063,"name":"Guarda-Mor","stateId":1998,"stateCode":"MG","stateName":"Minas Gerais","countryId":31,"countryCode":"BR","countryName":"Brazil","latitude":"-17.76393000","longitude":"-47.14784000","wikiDataId":"Q1790555"},{"id":12074,"name":"Guaxupé","stateId":1998,"stateCode":"MG","stateName":"Minas Gerais","countryId":31,"countryCode":"BR","countryName":"Brazil","latitude":"-21.29181000","longitude":"-46.68110000","wikiDataId":"Q1791417"},{"id":12080,"name":"Guidoval","stateId":1998,"stateCode":"MG","stateName":"Minas Gerais","countryId":31,"countryCode":"BR","countryName":"Brazil","latitude":"-21.17678000","longitude":"-42.79015000","wikiDataId":"Q1793002"},{"id":12081,"name":"Guimarânia","stateId":1998,"stateCode":"MG","stateName":"Minas Gerais","countryId":31,"countryCode":"BR","countryName":"Brazil","latitude":"-18.81689000","longitude":"-46.73553000","wikiDataId":"Q1793002"},{"id":12084,"name":"Guiricema","stateId":1998,"stateCode":"MG","stateName":"Minas Gerais","countryId":31,"countryCode":"BR","countryName":"Brazil","latitude":"-21.01294000","longitude":"-42.69893000","wikiDataId":"Q2011948"},{"id":12085,"name":"Gurinhatã","stateId":1998,"stateCode":"MG","stateName":"Minas Gerais","countryId":31,"countryCode":"BR","countryName":"Brazil","latitude":"-19.06643000","longitude":"-49.86875000","wikiDataId":"Q2011948"},{"id":12094,"name":"Heliodora","stateId":1998,"stateCode":"MG","stateName":"Minas Gerais","countryId":31,"countryCode":"BR","countryName":"Brazil","latitude":"-22.04159000","longitude":"-45.54430000","wikiDataId":"Q2007752"},{"id":12116,"name":"Iapu","stateId":1998,"stateCode":"MG","stateName":"Minas Gerais","countryId":31,"countryCode":"BR","countryName":"Brazil","latitude":"-19.35090000","longitude":"-42.23727000","wikiDataId":"Q1806877"},{"id":12127,"name":"Ibertioga","stateId":1998,"stateCode":"MG","stateName":"Minas Gerais","countryId":31,"countryCode":"BR","countryName":"Brazil","latitude":"-21.45140000","longitude":"-43.94316000","wikiDataId":"Q1760989"},{"id":12164,"name":"Ibiá","stateId":1998,"stateCode":"MG","stateName":"Minas Gerais","countryId":31,"countryCode":"BR","countryName":"Brazil","latitude":"-19.54368000","longitude":"-46.61732000","wikiDataId":"Q1756458"},{"id":12133,"name":"Ibiaí","stateId":1998,"stateCode":"MG","stateName":"Minas Gerais","countryId":31,"countryCode":"BR","countryName":"Brazil","latitude":"-16.81004000","longitude":"-44.79235000","wikiDataId":"Q2028027"},{"id":12144,"name":"Ibiracatu","stateId":1998,"stateCode":"MG","stateName":"Minas Gerais","countryId":31,"countryCode":"BR","countryName":"Brazil","latitude":"-15.66695000","longitude":"-44.13281000","wikiDataId":"Q2006392"},{"id":12145,"name":"Ibiraci","stateId":1998,"stateCode":"MG","stateName":"Minas Gerais","countryId":31,"countryCode":"BR","countryName":"Brazil","latitude":"-20.40137000","longitude":"-47.14267000","wikiDataId":"Q2006392"},{"id":12155,"name":"Ibirité","stateId":1998,"stateCode":"MG","stateName":"Minas Gerais","countryId":31,"countryCode":"BR","countryName":"Brazil","latitude":"-20.02194000","longitude":"-44.05889000","wikiDataId":"Q1751207"},{"id":12162,"name":"Ibitiúra de Minas","stateId":1998,"stateCode":"MG","stateName":"Minas Gerais","countryId":31,"countryCode":"BR","countryName":"Brazil","latitude":"-22.06721000","longitude":"-46.40735000","wikiDataId":"Q1807726"},{"id":12163,"name":"Ibituruna","stateId":1998,"stateCode":"MG","stateName":"Minas Gerais","countryId":31,"countryCode":"BR","countryName":"Brazil","latitude":"-21.16363000","longitude":"-44.77552000","wikiDataId":"Q1807726"},{"id":12168,"name":"Icaraí de Minas","stateId":1998,"stateCode":"MG","stateName":"Minas Gerais","countryId":31,"countryCode":"BR","countryName":"Brazil","latitude":"-16.22108000","longitude":"-44.85922000","wikiDataId":"Q1761863"},{"id":12181,"name":"Igarapé","stateId":1998,"stateCode":"MG","stateName":"Minas Gerais","countryId":31,"countryCode":"BR","countryName":"Brazil","latitude":"-20.05423000","longitude":"-44.31636000","wikiDataId":"Q22062513"},{"id":12189,"name":"Igaratinga","stateId":1998,"stateCode":"MG","stateName":"Minas Gerais","countryId":31,"countryCode":"BR","countryName":"Brazil","latitude":"-19.96011000","longitude":"-44.72106000","wikiDataId":"Q1787619"},{"id":12199,"name":"Iguatama","stateId":1998,"stateCode":"MG","stateName":"Minas Gerais","countryId":31,"countryCode":"BR","countryName":"Brazil","latitude":"-20.14528000","longitude":"-45.74194000","wikiDataId":"Q1646941"},{"id":12204,"name":"Ijaci","stateId":1998,"stateCode":"MG","stateName":"Minas Gerais","countryId":31,"countryCode":"BR","countryName":"Brazil","latitude":"-21.18351000","longitude":"-44.92240000","wikiDataId":"Q1762385"},{"id":12215,"name":"Ilicínea","stateId":1998,"stateCode":"MG","stateName":"Minas Gerais","countryId":31,"countryCode":"BR","countryName":"Brazil","latitude":"-20.93023000","longitude":"-45.81821000","wikiDataId":"Q373705"},{"id":12224,"name":"Imbé de Minas","stateId":1998,"stateCode":"MG","stateName":"Minas Gerais","countryId":31,"countryCode":"BR","countryName":"Brazil","latitude":"-19.61863000","longitude":"-41.96773000","wikiDataId":"Q2004428"},{"id":12230,"name":"Inconfidentes","stateId":1998,"stateCode":"MG","stateName":"Minas Gerais","countryId":31,"countryCode":"BR","countryName":"Brazil","latitude":"-22.34042000","longitude":"-46.28495000","wikiDataId":"Q504755"},{"id":12231,"name":"Indaiabira","stateId":1998,"stateCode":"MG","stateName":"Minas Gerais","countryId":31,"countryCode":"BR","countryName":"Brazil","latitude":"-15.57633000","longitude":"-42.15728000","wikiDataId":"Q504755"},{"id":12237,"name":"Indianópolis","stateId":1998,"stateCode":"MG","stateName":"Minas Gerais","countryId":31,"countryCode":"BR","countryName":"Brazil","latitude":"-18.97216000","longitude":"-47.88555000","wikiDataId":"Q22062505"},{"id":12244,"name":"Ingaí","stateId":1998,"stateCode":"MG","stateName":"Minas Gerais","countryId":31,"countryCode":"BR","countryName":"Brazil","latitude":"-21.41317000","longitude":"-44.93685000","wikiDataId":"Q2013163"},{"id":12250,"name":"Inhapim","stateId":1998,"stateCode":"MG","stateName":"Minas Gerais","countryId":31,"countryCode":"BR","countryName":"Brazil","latitude":"-19.48349000","longitude":"-42.10953000","wikiDataId":"Q1791428"},{"id":12251,"name":"Inhaúma","stateId":1998,"stateCode":"MG","stateName":"Minas Gerais","countryId":31,"countryCode":"BR","countryName":"Brazil","latitude":"-19.49972000","longitude":"-44.42415000","wikiDataId":"Q1791428"},{"id":12254,"name":"Inimutaba","stateId":1998,"stateCode":"MG","stateName":"Minas Gerais","countryId":31,"countryCode":"BR","countryName":"Brazil","latitude":"-18.71149000","longitude":"-44.27571000","wikiDataId":"Q986245"},{"id":12259,"name":"Ipaba","stateId":1998,"stateCode":"MG","stateName":"Minas Gerais","countryId":31,"countryCode":"BR","countryName":"Brazil","latitude":"-19.40560000","longitude":"-42.36072000","wikiDataId":"Q1791330"},{"id":12261,"name":"Ipanema","stateId":1998,"stateCode":"MG","stateName":"Minas Gerais","countryId":31,"countryCode":"BR","countryName":"Brazil","latitude":"-19.75724000","longitude":"-41.76801000","wikiDataId":"Q782347"},{"id":12264,"name":"Ipatinga","stateId":1998,"stateCode":"MG","stateName":"Minas Gerais","countryId":31,"countryCode":"BR","countryName":"Brazil","latitude":"-19.46833000","longitude":"-42.53667000","wikiDataId":"Q318314"},{"id":12271,"name":"Ipiaçu","stateId":1998,"stateCode":"MG","stateName":"Minas Gerais","countryId":31,"countryCode":"BR","countryName":"Brazil","latitude":"-18.70679000","longitude":"-49.91749000","wikiDataId":"Q1760282"},{"id":12295,"name":"Ipuiúna","stateId":1998,"stateCode":"MG","stateName":"Minas Gerais","countryId":31,"countryCode":"BR","countryName":"Brazil","latitude":"-22.00732000","longitude":"-46.12468000","wikiDataId":"Q946408"},{"id":12316,"name":"Iraí de Minas","stateId":1998,"stateCode":"MG","stateName":"Minas Gerais","countryId":31,"countryCode":"BR","countryName":"Brazil","latitude":"-19.06330000","longitude":"-47.43698000","wikiDataId":"Q2028660"},{"id":12333,"name":"Itabira","stateId":1998,"stateCode":"MG","stateName":"Minas Gerais","countryId":31,"countryCode":"BR","countryName":"Brazil","latitude":"-19.61917000","longitude":"-43.22694000","wikiDataId":"Q1638413"},{"id":12334,"name":"Itabirinha","stateId":1998,"stateCode":"MG","stateName":"Minas Gerais","countryId":31,"countryCode":"BR","countryName":"Brazil","latitude":"-18.52982000","longitude":"-41.25370000","wikiDataId":"Q1638413"},{"id":12335,"name":"Itabirito","stateId":1998,"stateCode":"MG","stateName":"Minas Gerais","countryId":31,"countryCode":"BR","countryName":"Brazil","latitude":"-20.23843000","longitude":"-43.78016000","wikiDataId":"Q527003"},{"id":12339,"name":"Itacambira","stateId":1998,"stateCode":"MG","stateName":"Minas Gerais","countryId":31,"countryCode":"BR","countryName":"Brazil","latitude":"-16.88654000","longitude":"-43.30766000","wikiDataId":"Q460750"},{"id":12340,"name":"Itacarambi","stateId":1998,"stateCode":"MG","stateName":"Minas Gerais","countryId":31,"countryCode":"BR","countryName":"Brazil","latitude":"-15.10222000","longitude":"-44.09194000","wikiDataId":"Q1790600"},{"id":12351,"name":"Itaguara","stateId":1998,"stateCode":"MG","stateName":"Minas Gerais","countryId":31,"countryCode":"BR","countryName":"Brazil","latitude":"-20.37868000","longitude":"-44.54609000","wikiDataId":"Q782196"},{"id":12361,"name":"Itaipé","stateId":1998,"stateCode":"MG","stateName":"Minas Gerais","countryId":31,"countryCode":"BR","countryName":"Brazil","latitude":"-17.42738000","longitude":"-41.65509000","wikiDataId":"Q662237"},{"id":12370,"name":"Itajubá","stateId":1998,"stateCode":"MG","stateName":"Minas Gerais","countryId":31,"countryCode":"BR","countryName":"Brazil","latitude":"-22.42051000","longitude":"-45.42137000","wikiDataId":"Q985585"},{"id":12377,"name":"Itamarandiba","stateId":1998,"stateCode":"MG","stateName":"Minas Gerais","countryId":31,"countryCode":"BR","countryName":"Brazil","latitude":"-17.85429000","longitude":"-42.89409000","wikiDataId":"Q1756622"},{"id":12379,"name":"Itamarati de Minas","stateId":1998,"stateCode":"MG","stateName":"Minas Gerais","countryId":31,"countryCode":"BR","countryName":"Brazil","latitude":"-21.41883000","longitude":"-42.83387000","wikiDataId":"Q1756622"},{"id":12381,"name":"Itambacuri","stateId":1998,"stateCode":"MG","stateName":"Minas Gerais","countryId":31,"countryCode":"BR","countryName":"Brazil","latitude":"-18.18510000","longitude":"-41.88894000","wikiDataId":"Q1754657"},{"id":12386,"name":"Itambé do Mato Dentro","stateId":1998,"stateCode":"MG","stateName":"Minas Gerais","countryId":31,"countryCode":"BR","countryName":"Brazil","latitude":"-19.40318000","longitude":"-43.34103000","wikiDataId":"Q2283708"},{"id":12387,"name":"Itamogi","stateId":1998,"stateCode":"MG","stateName":"Minas Gerais","countryId":31,"countryCode":"BR","countryName":"Brazil","latitude":"-21.08608000","longitude":"-47.05061000","wikiDataId":"Q2283708"},{"id":12388,"name":"Itamonte","stateId":1998,"stateCode":"MG","stateName":"Minas Gerais","countryId":31,"countryCode":"BR","countryName":"Brazil","latitude":"-22.28733000","longitude":"-44.75274000","wikiDataId":"Q2283708"},{"id":12390,"name":"Itanhandu","stateId":1998,"stateCode":"MG","stateName":"Minas Gerais","countryId":31,"countryCode":"BR","countryName":"Brazil","latitude":"-22.29583000","longitude":"-44.93472000","wikiDataId":"Q585119"},{"id":12393,"name":"Itanhomi","stateId":1998,"stateCode":"MG","stateName":"Minas Gerais","countryId":31,"countryCode":"BR","countryName":"Brazil","latitude":"-19.15484000","longitude":"-41.83333000","wikiDataId":"Q983491"},{"id":12395,"name":"Itaobim","stateId":1998,"stateCode":"MG","stateName":"Minas Gerais","countryId":31,"countryCode":"BR","countryName":"Brazil","latitude":"-16.56326000","longitude":"-41.53486000","wikiDataId":"Q1795733"},{"id":12399,"name":"Itapagipe","stateId":1998,"stateCode":"MG","stateName":"Minas Gerais","countryId":31,"countryCode":"BR","countryName":"Brazil","latitude":"-19.75086000","longitude":"-49.42853000","wikiDataId":"Q1806982"},{"id":12404,"name":"Itapecerica","stateId":1998,"stateCode":"MG","stateName":"Minas Gerais","countryId":31,"countryCode":"BR","countryName":"Brazil","latitude":"-20.45398000","longitude":"-45.08814000","wikiDataId":"Q509584"},{"id":12415,"name":"Itapeva","stateId":1998,"stateCode":"MG","stateName":"Minas Gerais","countryId":31,"countryCode":"BR","countryName":"Brazil","latitude":"-22.69829000","longitude":"-46.21291000","wikiDataId":"Q22062477"},{"id":12455,"name":"Itatiaiuçu","stateId":1998,"stateCode":"MG","stateName":"Minas Gerais","countryId":31,"countryCode":"BR","countryName":"Brazil","latitude":"-20.22155000","longitude":"-44.46588000","wikiDataId":"Q817223"},{"id":12469,"name":"Itaú de Minas","stateId":1998,"stateCode":"MG","stateName":"Minas Gerais","countryId":31,"countryCode":"BR","countryName":"Brazil","latitude":"-20.71790000","longitude":"-46.77932000","wikiDataId":"Q1756039"},{"id":12471,"name":"Itaúna","stateId":1998,"stateCode":"MG","stateName":"Minas Gerais","countryId":31,"countryCode":"BR","countryName":"Brazil","latitude":"-20.07440000","longitude":"-44.58626000","wikiDataId":"Q628877"},{"id":12465,"name":"Itaverava","stateId":1998,"stateCode":"MG","stateName":"Minas Gerais","countryId":31,"countryCode":"BR","countryName":"Brazil","latitude":"-20.70813000","longitude":"-43.59276000","wikiDataId":"Q2079025"},{"id":12473,"name":"Itinga","stateId":1998,"stateCode":"MG","stateName":"Minas Gerais","countryId":31,"countryCode":"BR","countryName":"Brazil","latitude":"-16.60721000","longitude":"-41.83181000","wikiDataId":"Q934924"},{"id":12485,"name":"Itueta","stateId":1998,"stateCode":"MG","stateName":"Minas Gerais","countryId":31,"countryCode":"BR","countryName":"Brazil","latitude":"-19.37775000","longitude":"-41.09757000","wikiDataId":"Q1795108"},{"id":12486,"name":"Ituiutaba","stateId":1998,"stateCode":"MG","stateName":"Minas Gerais","countryId":31,"countryCode":"BR","countryName":"Brazil","latitude":"-19.01507000","longitude":"-49.55042000","wikiDataId":"Q1756328"},{"id":12488,"name":"Itumirim","stateId":1998,"stateCode":"MG","stateName":"Minas Gerais","countryId":31,"countryCode":"BR","countryName":"Brazil","latitude":"-21.28468000","longitude":"-44.83316000","wikiDataId":"Q193350"},{"id":12492,"name":"Iturama","stateId":1998,"stateCode":"MG","stateName":"Minas Gerais","countryId":31,"countryCode":"BR","countryName":"Brazil","latitude":"-19.69460000","longitude":"-50.38219000","wikiDataId":"Q1780277"},{"id":12493,"name":"Itutinga","stateId":1998,"stateCode":"MG","stateName":"Minas Gerais","countryId":31,"countryCode":"BR","countryName":"Brazil","latitude":"-21.34817000","longitude":"-44.72387000","wikiDataId":"Q1780277"},{"id":12516,"name":"Jaboticatubas","stateId":1998,"stateCode":"MG","stateName":"Minas Gerais","countryId":31,"countryCode":"BR","countryName":"Brazil","latitude":"-19.41909000","longitude":"-43.74554000","wikiDataId":"Q938162"},{"id":12525,"name":"Jacinto","stateId":1998,"stateCode":"MG","stateName":"Minas Gerais","countryId":31,"countryCode":"BR","countryName":"Brazil","latitude":"-16.19209000","longitude":"-40.33175000","wikiDataId":"Q1791600"},{"id":12534,"name":"Jacuí","stateId":1998,"stateCode":"MG","stateName":"Minas Gerais","countryId":31,"countryCode":"BR","countryName":"Brazil","latitude":"-21.01103000","longitude":"-46.71842000","wikiDataId":"Q1804332"},{"id":12533,"name":"Jacutinga","stateId":1998,"stateCode":"MG","stateName":"Minas Gerais","countryId":31,"countryCode":"BR","countryName":"Brazil","latitude":"-22.29632000","longitude":"-46.61044000","wikiDataId":"Q1804332"},{"id":12539,"name":"Jaguaraçu","stateId":1998,"stateCode":"MG","stateName":"Minas Gerais","countryId":31,"countryCode":"BR","countryName":"Brazil","latitude":"-19.63591000","longitude":"-42.71705000","wikiDataId":"Q1070926"},{"id":12608,"name":"Jaíba","stateId":1998,"stateCode":"MG","stateName":"Minas Gerais","countryId":31,"countryCode":"BR","countryName":"Brazil","latitude":"-15.21645000","longitude":"-43.67032000","wikiDataId":"Q2472554"},{"id":12554,"name":"Jampruca","stateId":1998,"stateCode":"MG","stateName":"Minas Gerais","countryId":31,"countryCode":"BR","countryName":"Brazil","latitude":"-18.47226000","longitude":"-41.75735000","wikiDataId":"Q1791230"},{"id":12555,"name":"Janaúba","stateId":1998,"stateCode":"MG","stateName":"Minas Gerais","countryId":31,"countryCode":"BR","countryName":"Brazil","latitude":"-15.77877000","longitude":"-43.36757000","wikiDataId":"Q1791340"},{"id":12564,"name":"Januária","stateId":1998,"stateCode":"MG","stateName":"Minas Gerais","countryId":31,"countryCode":"BR","countryName":"Brazil","latitude":"-15.32133000","longitude":"-45.20135000","wikiDataId":"Q22062457"},{"id":12568,"name":"Japaraíba","stateId":1998,"stateCode":"MG","stateName":"Minas Gerais","countryId":31,"countryCode":"BR","countryName":"Brazil","latitude":"-20.12931000","longitude":"-45.53733000","wikiDataId":"Q1755923"},{"id":12573,"name":"Japonvar","stateId":1998,"stateCode":"MG","stateName":"Minas Gerais","countryId":31,"countryCode":"BR","countryName":"Brazil","latitude":"-15.94720000","longitude":"-44.34835000","wikiDataId":"Q1112881"},{"id":12611,"name":"Jeceaba","stateId":1998,"stateCode":"MG","stateName":"Minas Gerais","countryId":31,"countryCode":"BR","countryName":"Brazil","latitude":"-20.55578000","longitude":"-44.03107000","wikiDataId":"Q1759235"},{"id":12612,"name":"Jenipapo de Minas","stateId":1998,"stateCode":"MG","stateName":"Minas Gerais","countryId":31,"countryCode":"BR","countryName":"Brazil","latitude":"-17.18727000","longitude":"-42.21222000","wikiDataId":"Q1759235"},{"id":12614,"name":"Jequeri","stateId":1998,"stateCode":"MG","stateName":"Minas Gerais","countryId":31,"countryCode":"BR","countryName":"Brazil","latitude":"-20.48079000","longitude":"-42.61567000","wikiDataId":"Q1759235"},{"id":12615,"name":"Jequitaí","stateId":1998,"stateCode":"MG","stateName":"Minas Gerais","countryId":31,"countryCode":"BR","countryName":"Brazil","latitude":"-17.16894000","longitude":"-44.46191000","wikiDataId":"Q1759235"},{"id":12616,"name":"Jequitibá","stateId":1998,"stateCode":"MG","stateName":"Minas Gerais","countryId":31,"countryCode":"BR","countryName":"Brazil","latitude":"-19.21472000","longitude":"-44.03049000","wikiDataId":"Q1759235"},{"id":12617,"name":"Jequitinhonha","stateId":1998,"stateCode":"MG","stateName":"Minas Gerais","countryId":31,"countryCode":"BR","countryName":"Brazil","latitude":"-16.40683000","longitude":"-41.05778000","wikiDataId":"Q580753"},{"id":12625,"name":"Jesuânia","stateId":1998,"stateCode":"MG","stateName":"Minas Gerais","countryId":31,"countryCode":"BR","countryName":"Brazil","latitude":"-22.00846000","longitude":"-45.28235000","wikiDataId":"Q1806739"},{"id":12642,"name":"Joaíma","stateId":1998,"stateCode":"MG","stateName":"Minas Gerais","countryId":31,"countryCode":"BR","countryName":"Brazil","latitude":"-16.80375000","longitude":"-41.01105000","wikiDataId":"Q1756235"},{"id":12634,"name":"Joanésia","stateId":1998,"stateCode":"MG","stateName":"Minas Gerais","countryId":31,"countryCode":"BR","countryName":"Brazil","latitude":"-19.20319000","longitude":"-42.70665000","wikiDataId":"Q1798820"},{"id":12663,"name":"João Monlevade","stateId":1998,"stateCode":"MG","stateName":"Minas Gerais","countryId":31,"countryCode":"BR","countryName":"Brazil","latitude":"-19.83861000","longitude":"-43.15561000","wikiDataId":"Q985508"},{"id":12666,"name":"João Pinheiro","stateId":1998,"stateCode":"MG","stateName":"Minas Gerais","countryId":31,"countryCode":"BR","countryName":"Brazil","latitude":"-17.55732000","longitude":"-45.97307000","wikiDataId":"Q675677"},{"id":12636,"name":"Joaquim Felício","stateId":1998,"stateCode":"MG","stateName":"Minas Gerais","countryId":31,"countryCode":"BR","countryName":"Brazil","latitude":"-17.62324000","longitude":"-44.09366000","wikiDataId":"Q1760327"},{"id":12646,"name":"Jordânia","stateId":1998,"stateCode":"MG","stateName":"Minas Gerais","countryId":31,"countryCode":"BR","countryName":"Brazil","latitude":"-15.87487000","longitude":"-40.30532000","wikiDataId":"Q1754836"},{"id":12652,"name":"José Gonçalves de Minas","stateId":1998,"stateCode":"MG","stateName":"Minas Gerais","countryId":31,"countryCode":"BR","countryName":"Brazil","latitude":"-16.90496000","longitude":"-42.66905000","wikiDataId":"Q595976"},{"id":12653,"name":"José Raydan","stateId":1998,"stateCode":"MG","stateName":"Minas Gerais","countryId":31,"countryCode":"BR","countryName":"Brazil","latitude":"-18.26371000","longitude":"-42.46528000","wikiDataId":"Q595976"},{"id":12649,"name":"Josenópolis","stateId":1998,"stateCode":"MG","stateName":"Minas Gerais","countryId":31,"countryCode":"BR","countryName":"Brazil","latitude":"-16.55307000","longitude":"-42.51701000","wikiDataId":"Q1800793"},{"id":12671,"name":"Juatuba","stateId":1998,"stateCode":"MG","stateName":"Minas Gerais","countryId":31,"countryCode":"BR","countryName":"Brazil","latitude":"-19.95194000","longitude":"-44.34278000","wikiDataId":"Q1790670"},{"id":12680,"name":"Juiz de Fora","stateId":1998,"stateCode":"MG","stateName":"Minas Gerais","countryId":31,"countryCode":"BR","countryName":"Brazil","latitude":"-21.76417000","longitude":"-43.35028000","wikiDataId":"Q193019"},{"id":12694,"name":"Juramento","stateId":1998,"stateCode":"MG","stateName":"Minas Gerais","countryId":31,"countryCode":"BR","countryName":"Brazil","latitude":"-16.83343000","longitude":"-43.58833000","wikiDataId":"Q1790506"},{"id":12700,"name":"Juruaia","stateId":1998,"stateCode":"MG","stateName":"Minas Gerais","countryId":31,"countryCode":"BR","countryName":"Brazil","latitude":"-21.22649000","longitude":"-46.51449000","wikiDataId":"Q1790502"},{"id":12712,"name":"Juvenília","stateId":1998,"stateCode":"MG","stateName":"Minas Gerais","countryId":31,"countryCode":"BR","countryName":"Brazil","latitude":"-14.39930000","longitude":"-43.95055000","wikiDataId":"Q991137"},{"id":12722,"name":"Ladainha","stateId":1998,"stateCode":"MG","stateName":"Minas Gerais","countryId":31,"countryCode":"BR","countryName":"Brazil","latitude":"-17.64365000","longitude":"-41.83262000","wikiDataId":"Q1754330"},{"id":12725,"name":"Lagamar","stateId":1998,"stateCode":"MG","stateName":"Minas Gerais","countryId":31,"countryCode":"BR","countryName":"Brazil","latitude":"-17.97706000","longitude":"-46.70095000","wikiDataId":"Q1790657"},{"id":12751,"name":"Lagoa da Prata","stateId":1998,"stateCode":"MG","stateName":"Minas Gerais","countryId":31,"countryCode":"BR","countryName":"Brazil","latitude":"-19.99802000","longitude":"-45.49952000","wikiDataId":"Q1749899"},{"id":12766,"name":"Lagoa dos Patos","stateId":1998,"stateCode":"MG","stateName":"Minas Gerais","countryId":31,"countryCode":"BR","countryName":"Brazil","latitude":"-17.01433000","longitude":"-44.66633000","wikiDataId":"Q22062428"},{"id":12736,"name":"Lagoa Dourada","stateId":1998,"stateCode":"MG","stateName":"Minas Gerais","countryId":31,"countryCode":"BR","countryName":"Brazil","latitude":"-20.91034000","longitude":"-44.06512000","wikiDataId":"Q1790717"},{"id":12737,"name":"Lagoa Formosa","stateId":1998,"stateCode":"MG","stateName":"Minas Gerais","countryId":31,"countryCode":"BR","countryName":"Brazil","latitude":"-18.76494000","longitude":"-46.29006000","wikiDataId":"Q1791516"},{"id":12739,"name":"Lagoa Grande","stateId":1998,"stateCode":"MG","stateName":"Minas Gerais","countryId":31,"countryCode":"BR","countryName":"Brazil","latitude":"-17.74523000","longitude":"-46.53558000","wikiDataId":"Q22062425"},{"id":12744,"name":"Lagoa Santa","stateId":1998,"stateCode":"MG","stateName":"Minas Gerais","countryId":31,"countryCode":"BR","countryName":"Brazil","latitude":"-19.62683000","longitude":"-43.87993000","wikiDataId":"Q178667"},{"id":12786,"name":"Lajinha","stateId":1998,"stateCode":"MG","stateName":"Minas Gerais","countryId":31,"countryCode":"BR","countryName":"Brazil","latitude":"-20.12411000","longitude":"-41.61531000","wikiDataId":"Q641281"},{"id":12788,"name":"Lambari","stateId":1998,"stateCode":"MG","stateName":"Minas Gerais","countryId":31,"countryCode":"BR","countryName":"Brazil","latitude":"-21.98590000","longitude":"-45.35167000","wikiDataId":"Q1780214"},{"id":12790,"name":"Lamim","stateId":1998,"stateCode":"MG","stateName":"Minas Gerais","countryId":31,"countryCode":"BR","countryName":"Brazil","latitude":"-20.77481000","longitude":"-43.48487000","wikiDataId":"Q1871942"},{"id":12795,"name":"Laranjal","stateId":1998,"stateCode":"MG","stateName":"Minas Gerais","countryId":31,"countryCode":"BR","countryName":"Brazil","latitude":"-21.35920000","longitude":"-42.45663000","wikiDataId":"Q979042"},{"id":12801,"name":"Lassance","stateId":1998,"stateCode":"MG","stateName":"Minas Gerais","countryId":31,"countryCode":"BR","countryName":"Brazil","latitude":"-17.91014000","longitude":"-44.70859000","wikiDataId":"Q1803900"},{"id":12808,"name":"Lavras","stateId":1998,"stateCode":"MG","stateName":"Minas Gerais","countryId":31,"countryCode":"BR","countryName":"Brazil","latitude":"-21.26738000","longitude":"-45.04190000","wikiDataId":"Q1638425"},{"id":12813,"name":"Leandro Ferreira","stateId":1998,"stateCode":"MG","stateName":"Minas Gerais","countryId":31,"countryCode":"BR","countryName":"Brazil","latitude":"-19.67492000","longitude":"-45.06134000","wikiDataId":"Q1750149"},{"id":12816,"name":"Leme do Prado","stateId":1998,"stateCode":"MG","stateName":"Minas Gerais","countryId":31,"countryCode":"BR","countryName":"Brazil","latitude":"-17.05253000","longitude":"-42.74591000","wikiDataId":"Q582880"},{"id":12820,"name":"Leopoldina","stateId":1998,"stateCode":"MG","stateName":"Minas Gerais","countryId":31,"countryCode":"BR","countryName":"Brazil","latitude":"-21.53489000","longitude":"-42.64473000","wikiDataId":"Q1805359"},{"id":12824,"name":"Liberdade","stateId":1998,"stateCode":"MG","stateName":"Minas Gerais","countryId":31,"countryCode":"BR","countryName":"Brazil","latitude":"-22.01634000","longitude":"-44.34756000","wikiDataId":"Q22062417"},