[{"id":97585,"name":"Aleutskiy Rayon","stateId":1865,"stateCode":"KAM","stateName":"Kamchatka Krai","countryId":182,"countryCode":"RU","countryName":"Russia","latitude":"55.21667000","longitude":"165.98333000","wikiDataId":"Q621449"},{"id":97715,"name":"Atlasovo","stateId":1865,"stateCode":"KAM","stateName":"Kamchatka Krai","countryId":182,"countryCode":"RU","countryName":"Russia","latitude":"55.60650000","longitude":"159.64266000","wikiDataId":"Q4072157"},{"id":98100,"name":"Bystrinskiy Rayon","stateId":1865,"stateCode":"KAM","stateName":"Kamchatka Krai","countryId":182,"countryCode":"RU","countryName":"Russia","latitude":"56.00000000","longitude":"158.50000000","wikiDataId":"Q542009"},{"id":98404,"name":"Esso","stateId":1865,"stateCode":"KAM","stateName":"Kamchatka Krai","countryId":182,"countryCode":"RU","countryName":"Russia","latitude":"55.92738000","longitude":"158.70708000","wikiDataId":"Q846720"},{"id":98863,"name":"Karaginsky District","stateId":1865,"stateCode":"KAM","stateName":"Kamchatka Krai","countryId":182,"countryCode":"RU","countryName":"Russia","latitude":"58.00000000","longitude":"159.83333000","wikiDataId":"Q1042648"},{"id":99112,"name":"Klyuchi","stateId":1865,"stateCode":"KAM","stateName":"Kamchatka Krai","countryId":182,"countryCode":"RU","countryName":"Russia","latitude":"56.32035000","longitude":"160.84541000","wikiDataId":"Q1373959"},{"id":99270,"name":"Kozyrëvsk","stateId":1865,"stateCode":"KAM","stateName":"Kamchatka Krai","countryId":182,"countryCode":"RU","countryName":"Russia","latitude":"56.04860000","longitude":"159.87150000","wikiDataId":"Q2627366"},{"id":99914,"name":"Mil’kovo","stateId":1865,"stateCode":"KAM","stateName":"Kamchatka Krai","countryId":182,"countryCode":"RU","countryName":"Russia","latitude":"54.69610000","longitude":"158.62067000","wikiDataId":"Q2217075"},{"id":99915,"name":"Mil’kovskiy Rayon","stateId":1865,"stateCode":"KAM","stateName":"Kamchatka Krai","countryId":182,"countryCode":"RU","countryName":"Russia","latitude":"55.00000000","longitude":"159.00000000","wikiDataId":"Q539619"},{"id":100430,"name":"Olyutorskiy Rayon","stateId":1865,"stateCode":"KAM","stateName":"Kamchatka Krai","countryId":182,"countryCode":"RU","countryName":"Russia","latitude":"61.00000000","longitude":"169.00000000","wikiDataId":"Q690756"},{"id":100489,"name":"Ossora","stateId":1865,"stateCode":"KAM","stateName":"Kamchatka Krai","countryId":182,"countryCode":"RU","countryName":"Russia","latitude":"59.24781000","longitude":"163.07034000","wikiDataId":"Q984860"},{"id":100518,"name":"Ozernovskiy","stateId":1865,"stateCode":"KAM","stateName":"Kamchatka Krai","countryId":182,"countryCode":"RU","countryName":"Russia","latitude":"51.49604000","longitude":"156.50102000","wikiDataId":"Q987246"},{"id":100527,"name":"Palana","stateId":1865,"stateCode":"KAM","stateName":"Kamchatka Krai","countryId":182,"countryCode":"RU","countryName":"Russia","latitude":"59.08384000","longitude":"159.95630000","wikiDataId":"Q695360"},{"id":100543,"name":"Paratunka","stateId":1865,"stateCode":"KAM","stateName":"Kamchatka Krai","countryId":182,"countryCode":"RU","countryName":"Russia","latitude":"52.96202000","longitude":"158.25723000","wikiDataId":"Q37964514"},{"id":100596,"name":"Penzhinskiy Rayon","stateId":1865,"stateCode":"KAM","stateName":"Kamchatka Krai","countryId":182,"countryCode":"RU","countryName":"Russia","latitude":"63.00000000","longitude":"167.00000000","wikiDataId":"Q747718"},{"id":100652,"name":"Petropavlovsk-Kamchatsky","stateId":1865,"stateCode":"KAM","stateName":"Kamchatka Krai","countryId":182,"countryCode":"RU","countryName":"Russia","latitude":"53.04444000","longitude":"158.65076000","wikiDataId":"Q7951"},{"id":101428,"name":"Sobolevskiy Rayon","stateId":1865,"stateCode":"KAM","stateName":"Kamchatka Krai","countryId":182,"countryCode":"RU","countryName":"Russia","latitude":"54.58333000","longitude":"156.50000000","wikiDataId":"Q918203"},{"id":101849,"name":"Tigil’","stateId":1865,"stateCode":"KAM","stateName":"Kamchatka Krai","countryId":182,"countryCode":"RU","countryName":"Russia","latitude":"57.75979000","longitude":"158.68161000","wikiDataId":"Q1006070"},{"id":101850,"name":"Tigil’skiy Rayon","stateId":1865,"stateCode":"KAM","stateName":"Kamchatka Krai","countryId":182,"countryCode":"RU","countryName":"Russia","latitude":"57.76046000","longitude":"158.68687000","wikiDataId":"Q1042950"},{"id":101856,"name":"Tilichiki","stateId":1865,"stateCode":"KAM","stateName":"Kamchatka Krai","countryId":182,"countryCode":"RU","countryName":"Russia","latitude":"60.42795000","longitude":"166.05764000","wikiDataId":"Q1002621"},{"id":102116,"name":"Ust’-Bol’sheretskiy Rayon","stateId":1865,"stateCode":"KAM","stateName":"Kamchatka Krai","countryId":182,"countryCode":"RU","countryName":"Russia","latitude":"52.66667000","longitude":"157.00000000","wikiDataId":"Q766227"},{"id":102125,"name":"Ust’-Kamchatsk Staryy","stateId":1865,"stateCode":"KAM","stateName":"Kamchatka Krai","countryId":182,"countryCode":"RU","countryName":"Russia","latitude":"56.22778000","longitude":"162.47778000","wikiDataId":"Q4478415"},{"id":102126,"name":"Ust’-Kamchatskiy Rayon","stateId":1865,"stateCode":"KAM","stateName":"Kamchatka Krai","countryId":182,"countryCode":"RU","countryName":"Russia","latitude":"56.00000000","longitude":"161.00000000","wikiDataId":"Q263933"},{"id":102308,"name":"Vilyuchinsk","stateId":1865,"stateCode":"KAM","stateName":"Kamchatka Krai","countryId":182,"countryCode":"RU","countryName":"Russia","latitude":"52.93110000","longitude":"158.40469000","wikiDataId":"Q133093"},{"id":102544,"name":"Yelizovo","stateId":1865,"stateCode":"KAM","stateName":"Kamchatka Krai","countryId":182,"countryCode":"RU","countryName":"Russia","latitude":"53.18909000","longitude":"158.38135000","wikiDataId":"Q135657"},{"id":102545,"name":"Yelizovskiy Rayon","stateId":1865,"stateCode":"KAM","stateName":"Kamchatka Krai","countryId":182,"countryCode":"RU","countryName":"Russia","latitude":"53.66667000","longitude":"159.00000000","wikiDataId":"Q1042558"}]