[{"id":105088,"name":"Hlatikulu","stateId":971,"stateCode":"SH","stateName":"Shiselweni District","countryId":212,"countryCode":"SZ","countryName":"Swaziland","latitude":"-26.97917000","longitude":"31.32444000","wikiDataId":"Q3235603"},{"id":105089,"name":"Hluti","stateId":971,"stateCode":"SH","stateName":"Shiselweni District","countryId":212,"countryCode":"SZ","countryName":"Swaziland","latitude":"-27.21667000","longitude":"31.61667000","wikiDataId":"Q3235603"},{"id":105090,"name":"Kubuta","stateId":971,"stateCode":"SH","stateName":"Shiselweni District","countryId":212,"countryCode":"SZ","countryName":"Swaziland","latitude":"-26.88333000","longitude":"31.48333000","wikiDataId":"Q3432356"},{"id":105092,"name":"Lavumisa","stateId":971,"stateCode":"SH","stateName":"Shiselweni District","countryId":212,"countryCode":"SZ","countryName":"Swaziland","latitude":"-27.31005000","longitude":"31.89198000","wikiDataId":"Q3312840"},{"id":105098,"name":"Matsanjeni","stateId":971,"stateCode":"SH","stateName":"Shiselweni District","countryId":212,"countryCode":"SZ","countryName":"Swaziland","latitude":"-27.21585000","longitude":"31.72309000","wikiDataId":"Q3798867"},{"id":105102,"name":"Ngudzeni","stateId":971,"stateCode":"SH","stateName":"Shiselweni District","countryId":212,"countryCode":"SZ","countryName":"Swaziland","latitude":"-27.03583000","longitude":"31.55111000","wikiDataId":"Q2560293"},{"id":105104,"name":"Nhlangano","stateId":971,"stateCode":"SH","stateName":"Shiselweni District","countryId":212,"countryCode":"SZ","countryName":"Swaziland","latitude":"-27.11222000","longitude":"31.19833000","wikiDataId":"Q2029702"},{"id":105106,"name":"Nkwene","stateId":971,"stateCode":"SH","stateName":"Shiselweni District","countryId":212,"countryCode":"SZ","countryName":"Swaziland","latitude":"-26.89778000","longitude":"31.24972000","wikiDataId":"Q3432321"},{"id":105111,"name":"Sigwe Inkhundla","stateId":971,"stateCode":"SH","stateName":"Shiselweni District","countryId":212,"countryCode":"SZ","countryName":"Swaziland","latitude":"-27.05821000","longitude":"31.64543000","wikiDataId":"Q7509511"},{"id":105115,"name":"Zombodze Ikhundla","stateId":971,"stateCode":"SH","stateName":"Shiselweni District","countryId":212,"countryCode":"SZ","countryName":"Swaziland","latitude":"-27.22746000","longitude":"31.33799000","wikiDataId":"Q2300140"}]