[{"id":4699,"name":"Blagoevgrad Province","countryId":34,"countryCode":"BG","countryName":"Bulgaria","stateCode":"01","type":null,"latitude":"42.02086140","longitude":"23.09433560"},{"id":4715,"name":"Burgas Province","countryId":34,"countryCode":"BG","countryName":"Bulgaria","stateCode":"02","type":null,"latitude":"42.50480000","longitude":"27.46260790"},{"id":4718,"name":"Dobrich Province","countryId":34,"countryCode":"BG","countryName":"Bulgaria","stateCode":"08","type":null,"latitude":"43.57278600","longitude":"27.82728020"},{"id":4693,"name":"Gabrovo Province","countryId":34,"countryCode":"BG","countryName":"Bulgaria","stateCode":"07","type":null,"latitude":"42.86847000","longitude":"25.31688900"},{"id":4704,"name":"Haskovo Province","countryId":34,"countryCode":"BG","countryName":"Bulgaria","stateCode":"26","type":null,"latitude":"41.93441780","longitude":"25.55546720"},{"id":4702,"name":"Kardzhali Province","countryId":34,"countryCode":"BG","countryName":"Bulgaria","stateCode":"09","type":null,"latitude":"41.63384160","longitude":"25.37766870"},{"id":4703,"name":"Kyustendil Province","countryId":34,"countryCode":"BG","countryName":"Bulgaria","stateCode":"10","type":null,"latitude":"42.28687990","longitude":"22.69396350"},{"id":4710,"name":"Lovech Province","countryId":34,"countryCode":"BG","countryName":"Bulgaria","stateCode":"11","type":null,"latitude":"43.13677980","longitude":"24.71393350"},{"id":4696,"name":"Montana Province","countryId":34,"countryCode":"BG","countryName":"Bulgaria","stateCode":"12","type":null,"latitude":"43.40851480","longitude":"23.22575890"},{"id":4712,"name":"Pazardzhik Province","countryId":34,"countryCode":"BG","countryName":"Bulgaria","stateCode":"13","type":null,"latitude":"42.19275670","longitude":"24.33362260"},{"id":4695,"name":"Pernik Province","countryId":34,"countryCode":"BG","countryName":"Bulgaria","stateCode":"14","type":null,"latitude":"42.60519900","longitude":"23.03779160"},{"id":4706,"name":"Pleven Province","countryId":34,"countryCode":"BG","countryName":"Bulgaria","stateCode":"15","type":null,"latitude":"43.41701690","longitude":"24.60667080"},{"id":4701,"name":"Plovdiv Province","countryId":34,"countryCode":"BG","countryName":"Bulgaria","stateCode":"16","type":null,"latitude":"42.13540790","longitude":"24.74529040"},{"id":4698,"name":"Razgrad Province","countryId":34,"countryCode":"BG","countryName":"Bulgaria","stateCode":"17","type":null,"latitude":"43.52717050","longitude":"26.52412280"},{"id":4713,"name":"Ruse Province","countryId":34,"countryCode":"BG","countryName":"Bulgaria","stateCode":"18","type":null,"latitude":"43.83559640","longitude":"25.96561440"},{"id":4882,"name":"Shumen","countryId":34,"countryCode":"BG","countryName":"Bulgaria","stateCode":"27","type":null,"latitude":"43.27123980","longitude":"26.93612860"},{"id":4708,"name":"Silistra Province","countryId":34,"countryCode":"BG","countryName":"Bulgaria","stateCode":"19","type":null,"latitude":"44.11471010","longitude":"27.26714540"},{"id":4700,"name":"Sliven Province","countryId":34,"countryCode":"BG","countryName":"Bulgaria","stateCode":"20","type":null,"latitude":"42.68167020","longitude":"26.32285690"},{"id":4694,"name":"Smolyan Province","countryId":34,"countryCode":"BG","countryName":"Bulgaria","stateCode":"21","type":null,"latitude":"41.57741480","longitude":"24.70108710"},{"id":4705,"name":"Sofia City Province","countryId":34,"countryCode":"BG","countryName":"Bulgaria","stateCode":"22","type":null,"latitude":"42.75701090","longitude":"23.45046830"},{"id":4719,"name":"Sofia Province","countryId":34,"countryCode":"BG","countryName":"Bulgaria","stateCode":"23","type":null,"latitude":"42.67344000","longitude":"23.83349370"},{"id":4707,"name":"Stara Zagora Province","countryId":34,"countryCode":"BG","countryName":"Bulgaria","stateCode":"24","type":null,"latitude":"42.42577090","longitude":"25.63448550"},{"id":4714,"name":"Targovishte Province","countryId":34,"countryCode":"BG","countryName":"Bulgaria","stateCode":"25","type":null,"latitude":"43.24623490","longitude":"26.56912510"},{"id":4717,"name":"Varna Province","countryId":34,"countryCode":"BG","countryName":"Bulgaria","stateCode":"03","type":null,"latitude":"43.20464770","longitude":"27.91054880"},{"id":4709,"name":"Veliko Tarnovo Province","countryId":34,"countryCode":"BG","countryName":"Bulgaria","stateCode":"04","type":null,"latitude":"43.07565390","longitude":"25.61715000"},{"id":4697,"name":"Vidin Province","countryId":34,"countryCode":"BG","countryName":"Bulgaria","stateCode":"05","type":null,"latitude":"43.99617390","longitude":"22.86795150"},{"id":4711,"name":"Vratsa Province","countryId":34,"countryCode":"BG","countryName":"Bulgaria","stateCode":"06","type":null,"latitude":"43.21018060","longitude":"23.55292100"},{"id":4716,"name":"Yambol Province","countryId":34,"countryCode":"BG","countryName":"Bulgaria","stateCode":"28","type":null,"latitude":"42.48414940","longitude":"26.50352960"}]