[{"id":19448,"name":"Delingha","stateId":2270,"stateCode":"QH","stateName":"Qinghai","countryId":45,"countryCode":"CN","countryName":"China","latitude":"37.37600000","longitude":"97.37457000","wikiDataId":"Q1025031"},{"id":19554,"name":"Golmud","stateId":2270,"stateCode":"QH","stateName":"Qinghai","countryId":45,"countryCode":"CN","countryName":"China","latitude":"36.40672000","longitude":"94.90061000","wikiDataId":"Q858250"},{"id":19555,"name":"Golog Tibetan Autonomous Prefecture","stateId":2270,"stateCode":"QH","stateName":"Qinghai","countryId":45,"countryCode":"CN","countryName":"China","latitude":"34.08595000","longitude":"99.55181000","wikiDataId":"Q115594"},{"id":19582,"name":"Haibei Tibetan Autonomous Prefecture","stateId":2270,"stateCode":"QH","stateName":"Qinghai","countryId":45,"countryCode":"CN","countryName":"China","latitude":"37.71919000","longitude":"100.45656000","wikiDataId":"Q508594"},{"id":19652,"name":"Huangnan Zangzu Zizhizhou","stateId":2270,"stateCode":"QH","stateName":"Qinghai","countryId":45,"countryCode":"CN","countryName":"China","latitude":"35.06316000","longitude":"101.65149000","wikiDataId":"Q130023"},{"id":20300,"name":"Xining","stateId":2270,"stateCode":"QH","stateName":"Qinghai","countryId":45,"countryCode":"CN","countryName":"China","latitude":"36.62554000","longitude":"101.75739000","wikiDataId":"Q69060"},{"id":20320,"name":"Xireg","stateId":2270,"stateCode":"QH","stateName":"Qinghai","countryId":45,"countryCode":"CN","countryName":"China","latitude":"36.91866000","longitude":"98.44463000","wikiDataId":"Q8044760"},{"id":20407,"name":"Yushu Zangzu Zizhizhou","stateId":2270,"stateCode":"QH","stateName":"Qinghai","countryId":45,"countryCode":"CN","countryName":"China","latitude":"34.39802000","longitude":"94.19021000","wikiDataId":"Q1026088"}]