[{"id":104370,"name":"Banská Bystrica","stateId":4352,"stateCode":"BC","stateName":"Banská Bystrica Region","countryId":200,"countryCode":"SK","countryName":"Slovakia","latitude":"48.73946000","longitude":"19.15349000","wikiDataId":"Q144983"},{"id":104371,"name":"Banská Štiavnica","stateId":4352,"stateCode":"BC","stateName":"Banská Bystrica Region","countryId":200,"countryCode":"SK","countryName":"Slovakia","latitude":"48.44858000","longitude":"18.91003000","wikiDataId":"Q208110"},{"id":104376,"name":"Brezno","stateId":4352,"stateCode":"BC","stateName":"Banská Bystrica Region","countryId":200,"countryCode":"SK","countryName":"Slovakia","latitude":"48.80431000","longitude":"19.63631000","wikiDataId":"Q465312"},{"id":104589,"name":"Čierny Balog","stateId":4352,"stateCode":"BC","stateName":"Banská Bystrica Region","countryId":200,"countryCode":"SK","countryName":"Slovakia","latitude":"48.74722000","longitude":"19.65125000","wikiDataId":"Q341490"},{"id":104381,"name":"Detva","stateId":4352,"stateCode":"BC","stateName":"Banská Bystrica Region","countryId":200,"countryCode":"SK","countryName":"Slovakia","latitude":"48.56082000","longitude":"19.41954000","wikiDataId":"Q11857"},{"id":104385,"name":"Dudince","stateId":4352,"stateCode":"BC","stateName":"Banská Bystrica Region","countryId":200,"countryCode":"SK","countryName":"Slovakia","latitude":"48.17135000","longitude":"18.88782000","wikiDataId":"Q531445"},{"id":104388,"name":"Fiľakovo","stateId":4352,"stateCode":"BC","stateName":"Banská Bystrica Region","countryId":200,"countryCode":"SK","countryName":"Slovakia","latitude":"48.26757000","longitude":"19.82473000","wikiDataId":"Q247620"},{"id":104397,"name":"Hriňová","stateId":4352,"stateCode":"BC","stateName":"Banská Bystrica Region","countryId":200,"countryCode":"SK","countryName":"Slovakia","latitude":"48.57787000","longitude":"19.52574000","wikiDataId":"Q846431"},{"id":104398,"name":"HrochoťSlovakia","stateId":4352,"stateCode":"BC","stateName":"Banská Bystrica Region","countryId":200,"countryCode":"SK","countryName":"Slovakia","latitude":"48.65567000","longitude":"19.31284000","wikiDataId":"Q1020068"},{"id":104408,"name":"Kováčová","stateId":4352,"stateCode":"BC","stateName":"Banská Bystrica Region","countryId":200,"countryCode":"SK","countryName":"Slovakia","latitude":"48.60148000","longitude":"19.10252000","wikiDataId":"Q262165"},{"id":104415,"name":"Kremnica","stateId":4352,"stateCode":"BC","stateName":"Banská Bystrica Region","countryId":200,"countryCode":"SK","countryName":"Slovakia","latitude":"48.70519000","longitude":"18.91834000","wikiDataId":"Q754776"},{"id":104417,"name":"Krupina","stateId":4352,"stateCode":"BC","stateName":"Banská Bystrica Region","countryId":200,"countryCode":"SK","countryName":"Slovakia","latitude":"48.35540000","longitude":"19.06474000","wikiDataId":"Q756667"},{"id":104426,"name":"Lučenec","stateId":4352,"stateCode":"BC","stateName":"Banská Bystrica Region","countryId":200,"countryCode":"SK","countryName":"Slovakia","latitude":"48.33249000","longitude":"19.66708000","wikiDataId":"Q728965"},{"id":104440,"name":"Nová Baňa","stateId":4352,"stateCode":"BC","stateName":"Banská Bystrica Region","countryId":200,"countryCode":"SK","countryName":"Slovakia","latitude":"48.42305000","longitude":"18.64037000","wikiDataId":"Q268463"},{"id":104447,"name":"Okres Banská Bystrica","stateId":4352,"stateCode":"BC","stateName":"Banská Bystrica Region","countryId":200,"countryCode":"SK","countryName":"Slovakia","latitude":"48.73333000","longitude":"19.15000000","wikiDataId":"Q539934"},{"id":104448,"name":"Okres Banská Štiavnica","stateId":4352,"stateCode":"BC","stateName":"Banská Bystrica Region","countryId":200,"countryCode":"SK","countryName":"Slovakia","latitude":"48.44961000","longitude":"18.90820000","wikiDataId":"Q836179"},{"id":104455,"name":"Okres Brezno","stateId":4352,"stateCode":"BC","stateName":"Banská Bystrica Region","countryId":200,"countryCode":"SK","countryName":"Slovakia","latitude":"48.80000000","longitude":"19.75000000","wikiDataId":"Q784394"},{"id":104458,"name":"Okres Detva","stateId":4352,"stateCode":"BC","stateName":"Banská Bystrica Region","countryId":200,"countryCode":"SK","countryName":"Slovakia","latitude":"48.55985000","longitude":"19.42044000","wikiDataId":"Q532137"},{"id":104469,"name":"Okres Krupina","stateId":4352,"stateCode":"BC","stateName":"Banská Bystrica Region","countryId":200,"countryCode":"SK","countryName":"Slovakia","latitude":"48.35736000","longitude":"19.06334000","wikiDataId":"Q756660"},{"id":104474,"name":"Okres Lučenec","stateId":4352,"stateCode":"BC","stateName":"Banská Bystrica Region","countryId":200,"countryCode":"SK","countryName":"Slovakia","latitude":"48.33333000","longitude":"19.66667000","wikiDataId":"Q836205"},{"id":104487,"name":"Okres Poltár","stateId":4352,"stateCode":"BC","stateName":"Banská Bystrica Region","countryId":200,"countryCode":"SK","countryName":"Slovakia","latitude":"48.42895000","longitude":"19.79488000","wikiDataId":"Q256846"},{"id":104493,"name":"Okres Revúca","stateId":4352,"stateCode":"BC","stateName":"Banská Bystrica Region","countryId":200,"countryCode":"SK","countryName":"Slovakia","latitude":"48.68300000","longitude":"20.11568000","wikiDataId":"Q651878"},{"id":104512,"name":"Okres Veľký Krtíš","stateId":4352,"stateCode":"BC","stateName":"Banská Bystrica Region","countryId":200,"countryCode":"SK","countryName":"Slovakia","latitude":"48.20000000","longitude":"19.35000000","wikiDataId":"Q546630"},{"id":104518,"name":"Okres Žarnovica","stateId":4352,"stateCode":"BC","stateName":"Banská Bystrica Region","countryId":200,"countryCode":"SK","countryName":"Slovakia","latitude":"48.48438000","longitude":"18.72076000","wikiDataId":"Q633617"},{"id":104519,"name":"Okres Žiar nad Hronom","stateId":4352,"stateCode":"BC","stateName":"Banská Bystrica Region","countryId":200,"countryCode":"SK","countryName":"Slovakia","latitude":"48.58333000","longitude":"18.86667000","wikiDataId":"Q836194"},{"id":104515,"name":"Okres Zvolen","stateId":4352,"stateCode":"BC","stateName":"Banská Bystrica Region","countryId":200,"countryCode":"SK","countryName":"Slovakia","latitude":"48.58333000","longitude":"19.13333000","wikiDataId":"Q370161"},{"id":104527,"name":"Poltár","stateId":4352,"stateCode":"BC","stateName":"Banská Bystrica Region","countryId":200,"countryCode":"SK","countryName":"Slovakia","latitude":"48.43094000","longitude":"19.79408000","wikiDataId":"Q259694"},{"id":104535,"name":"Revúca","stateId":4352,"stateCode":"BC","stateName":"Banská Bystrica Region","countryId":200,"countryCode":"SK","countryName":"Slovakia","latitude":"48.68346000","longitude":"20.11734000","wikiDataId":"Q847213"},{"id":104536,"name":"Rimavská Sobota","stateId":4352,"stateCode":"BC","stateName":"Banská Bystrica Region","countryId":200,"countryCode":"SK","countryName":"Slovakia","latitude":"48.38284000","longitude":"20.02239000","wikiDataId":"Q829812"},{"id":104559,"name":"Svätý Anton","stateId":4352,"stateCode":"BC","stateName":"Banská Bystrica Region","countryId":200,"countryCode":"SK","countryName":"Slovakia","latitude":"48.41923000","longitude":"18.94010000","wikiDataId":"Q249613"},{"id":104562,"name":"Tisovec","stateId":4352,"stateCode":"BC","stateName":"Banská Bystrica Region","countryId":200,"countryCode":"SK","countryName":"Slovakia","latitude":"48.67738000","longitude":"19.94364000","wikiDataId":"Q370445"},{"id":104573,"name":"Veľký Krtíš","stateId":4352,"stateCode":"BC","stateName":"Banská Bystrica Region","countryId":200,"countryCode":"SK","countryName":"Slovakia","latitude":"48.21059000","longitude":"19.35043000","wikiDataId":"Q673741"},{"id":104597,"name":"Žarnovica","stateId":4352,"stateCode":"BC","stateName":"Banská Bystrica Region","countryId":200,"countryCode":"SK","countryName":"Slovakia","latitude":"48.48123000","longitude":"18.71565000","wikiDataId":"Q393421"},{"id":104601,"name":"Žiar nad Hronom","stateId":4352,"stateCode":"BC","stateName":"Banská Bystrica Region","countryId":200,"countryCode":"SK","countryName":"Slovakia","latitude":"48.59184000","longitude":"18.84958000","wikiDataId":"Q393925"},{"id":104585,"name":"Zvolen","stateId":4352,"stateCode":"BC","stateName":"Banská Bystrica Region","countryId":200,"countryCode":"SK","countryName":"Slovakia","latitude":"48.57442000","longitude":"19.15324000","wikiDataId":"Q207226"},{"id":104374,"name":"Bratislava","stateId":4356,"stateCode":"BL","stateName":"Bratislava Region","countryId":200,"countryCode":"SK","countryName":"Slovakia","latitude":"48.14816000","longitude":"17.10674000","wikiDataId":"Q1780"},{"id":104375,"name":"Bratislava - Vajnory","stateId":4356,"stateCode":"BL","stateName":"Bratislava Region","countryId":200,"countryCode":"SK","countryName":"Slovakia","latitude":"48.20563000","longitude":"17.20759000","wikiDataId":"Q1091778"},{"id":104386,"name":"Dunajská Lužná","stateId":4356,"stateCode":"BL","stateName":"Bratislava Region","countryId":200,"countryCode":"SK","countryName":"Slovakia","latitude":"48.08347000","longitude":"17.26072000","wikiDataId":"Q911359"},{"id":104403,"name":"Ivanka pri Dunaji","stateId":4356,"stateCode":"BL","stateName":"Bratislava Region","countryId":200,"countryCode":"SK","countryName":"Slovakia","latitude":"48.18675000","longitude":"17.25540000","wikiDataId":"Q302787"},{"id":104428,"name":"Malacky","stateId":4356,"stateCode":"BL","stateName":"Bratislava Region","countryId":200,"countryCode":"SK","countryName":"Slovakia","latitude":"48.43604000","longitude":"17.02188000","wikiDataId":"Q837464"},{"id":104429,"name":"Marianka","stateId":4356,"stateCode":"BL","stateName":"Bratislava Region","countryId":200,"countryCode":"SK","countryName":"Slovakia","latitude":"48.24903000","longitude":"17.06400000","wikiDataId":"Q266939"},{"id":104434,"name":"Modra","stateId":4356,"stateCode":"BL","stateName":"Bratislava Region","countryId":200,"countryCode":"SK","countryName":"Slovakia","latitude":"48.33397000","longitude":"17.30711000","wikiDataId":"Q596044"},{"id":104450,"name":"Okres Bratislava I","stateId":4356,"stateCode":"BL","stateName":"Bratislava Region","countryId":200,"countryCode":"SK","countryName":"Slovakia","latitude":"48.14653000","longitude":"17.10584000","wikiDataId":"Q737665"},{"id":104451,"name":"Okres Bratislava II","stateId":4356,"stateCode":"BL","stateName":"Bratislava Region","countryId":200,"countryCode":"SK","countryName":"Slovakia","latitude":"48.15280000","longitude":"17.17764000","wikiDataId":"Q539732"},{"id":104452,"name":"Okres Bratislava III","stateId":4356,"stateCode":"BL","stateName":"Bratislava Region","countryId":200,"countryCode":"SK","countryName":"Slovakia","latitude":"48.18543000","longitude":"17.13790000","wikiDataId":"Q750419"},{"id":104453,"name":"Okres Bratislava IV","stateId":4356,"stateCode":"BL","stateName":"Bratislava Region","countryId":200,"countryCode":"SK","countryName":"Slovakia","latitude":"48.22787000","longitude":"16.99722000","wikiDataId":"Q750416"},{"id":104454,"name":"Okres Bratislava V","stateId":4356,"stateCode":"BL","stateName":"Bratislava Region","countryId":200,"countryCode":"SK","countryName":"Slovakia","latitude":"48.11122000","longitude":"17.09444000","wikiDataId":"Q750439"},{"id":104475,"name":"Okres Malacky","stateId":4356,"stateCode":"BL","stateName":"Bratislava Region","countryId":200,"countryCode":"SK","countryName":"Slovakia","latitude":"48.43458000","longitude":"17.02166000","wikiDataId":"Q590660"},{"id":104485,"name":"Okres Pezinok","stateId":4356,"stateCode":"BL","stateName":"Bratislava Region","countryId":200,"countryCode":"SK","countryName":"Slovakia","latitude":"48.28785000","longitude":"17.26799000","wikiDataId":"Q791591"},{"id":104497,"name":"Okres Senec","stateId":4356,"stateCode":"BL","stateName":"Bratislava Region","countryId":200,"countryCode":"SK","countryName":"Slovakia","latitude":"48.22187000","longitude":"17.40328000","wikiDataId":"Q513989"},{"id":104524,"name":"Pezinok","stateId":4356,"stateCode":"BL","stateName":"Bratislava Region","countryId":200,"countryCode":"SK","countryName":"Slovakia","latitude":"48.28986000","longitude":"17.26664000","wikiDataId":"Q659424"},{"id":104540,"name":"Senec","stateId":4356,"stateCode":"BL","stateName":"Bratislava Region","countryId":200,"countryCode":"SK","countryName":"Slovakia","latitude":"48.21951000","longitude":"17.40043000","wikiDataId":"Q754790"},{"id":104555,"name":"Stupava","stateId":4356,"stateCode":"BL","stateName":"Bratislava Region","countryId":200,"countryCode":"SK","countryName":"Slovakia","latitude":"48.27474000","longitude":"17.03173000","wikiDataId":"Q782928"},{"id":104560,"name":"Svätý Jur","stateId":4356,"stateCode":"BL","stateName":"Bratislava Region","countryId":200,"countryCode":"SK","countryName":"Slovakia","latitude":"48.25216000","longitude":"17.21539000","wikiDataId":"Q247240"},{"id":104576,"name":"Vinosady","stateId":4356,"stateCode":"BL","stateName":"Bratislava Region","countryId":200,"countryCode":"SK","countryName":"Slovakia","latitude":"48.31142000","longitude":"17.29042000","wikiDataId":"Q1187936"},{"id":104588,"name":"Čierna nad Tisou","stateId":4353,"stateCode":"KI","stateName":"Košice Region","countryId":200,"countryCode":"SK","countryName":"Slovakia","latitude":"48.41704000","longitude":"22.08865000","wikiDataId":"Q1192851"},{"id":104382,"name":"Dobšiná","stateId":4353,"stateCode":"KI","stateName":"Košice Region","countryId":200,"countryCode":"SK","countryName":"Slovakia","latitude":"48.82073000","longitude":"20.36988000","wikiDataId":"Q279005"},{"id":104392,"name":"Gelnica","stateId":4353,"stateCode":"KI","stateName":"Košice Region","countryId":200,"countryCode":"SK","countryName":"Slovakia","latitude":"48.85584000","longitude":"20.93713000","wikiDataId":"Q842028"},{"id":104404,"name":"Kavečany","stateId":4353,"stateCode":"KI","stateName":"Košice Region","countryId":200,"countryCode":"SK","countryName":"Slovakia","latitude":"48.77592000","longitude":"21.20587000","wikiDataId":"Q572748"},{"id":104409,"name":"Košice","stateId":4353,"stateCode":"KI","stateName":"Košice Region","countryId":200,"countryCode":"SK","countryName":"Slovakia","latitude":"48.71395000","longitude":"21.25808000","wikiDataId":"Q25409"},{"id":104410,"name":"Košice I","stateId":4353,"stateCode":"KI","stateName":"Košice Region","countryId":200,"countryCode":"SK","countryName":"Slovakia","latitude":"48.72914000","longitude":"21.25004000","wikiDataId":"Q830995"},{"id":104411,"name":"Košice II","stateId":4353,"stateCode":"KI","stateName":"Košice Region","countryId":200,"countryCode":"SK","countryName":"Slovakia","latitude":"48.69753000","longitude":"21.22273000","wikiDataId":"Q280424"},{"id":104412,"name":"Košice III","stateId":4353,"stateCode":"KI","stateName":"Košice Region","countryId":200,"countryCode":"SK","countryName":"Slovakia","latitude":"48.73242000","longitude":"21.29047000","wikiDataId":"Q548619"},{"id":104413,"name":"Košice IV","stateId":4353,"stateCode":"KI","stateName":"Košice Region","countryId":200,"countryCode":"SK","countryName":"Slovakia","latitude":"48.68691000","longitude":"21.26570000","wikiDataId":"Q650575"},{"id":104416,"name":"Krompachy","stateId":4353,"stateCode":"KI","stateName":"Košice Region","countryId":200,"countryCode":"SK","countryName":"Slovakia","latitude":"48.91447000","longitude":"20.87514000","wikiDataId":"Q842018"},{"id":104431,"name":"Medzev","stateId":4353,"stateCode":"KI","stateName":"Košice Region","countryId":200,"countryCode":"SK","countryName":"Slovakia","latitude":"48.70041000","longitude":"20.89367000","wikiDataId":"Q135727"},{"id":104433,"name":"Michalovce","stateId":4353,"stateCode":"KI","stateName":"Košice Region","countryId":200,"countryCode":"SK","countryName":"Slovakia","latitude":"48.75434000","longitude":"21.91950000","wikiDataId":"Q460925"},{"id":104435,"name":"Moldava nad Bodvou","stateId":4353,"stateCode":"KI","stateName":"Košice Region","countryId":200,"countryCode":"SK","countryName":"Slovakia","latitude":"48.61428000","longitude":"20.99957000","wikiDataId":"Q846440"},{"id":104462,"name":"Okres Gelnica","stateId":4353,"stateCode":"KI","stateName":"Košice Region","countryId":200,"countryCode":"SK","countryName":"Slovakia","latitude":"48.85207000","longitude":"20.93385000","wikiDataId":"Q220968"},{"id":104468,"name":"Okres Kosice-okolie","stateId":4353,"stateCode":"KI","stateName":"Košice Region","countryId":200,"countryCode":"SK","countryName":"Slovakia","latitude":"48.77897000","longitude":"21.41373000","wikiDataId":"Q539979"},{"id":104478,"name":"Okres Michalovce","stateId":4353,"stateCode":"KI","stateName":"Košice Region","countryId":200,"countryCode":"SK","countryName":"Slovakia","latitude":"48.75000000","longitude":"21.93333000","wikiDataId":"Q379320"},{"id":104494,"name":"Okres Rožňava","stateId":4353,"stateCode":"KI","stateName":"Košice Region","countryId":200,"countryCode":"SK","countryName":"Slovakia","latitude":"48.66667000","longitude":"20.53333000","wikiDataId":"Q756075"},{"id":104501,"name":"Okres Sobrance","stateId":4353,"stateCode":"KI","stateName":"Košice Region","countryId":200,"countryCode":"SK","countryName":"Slovakia","latitude":"48.74247000","longitude":"22.18197000","wikiDataId":"Q830991"},{"id":104502,"name":"Okres Spišská Nová Ves","stateId":4353,"stateCode":"KI","stateName":"Košice Region","countryId":200,"countryCode":"SK","countryName":"Slovakia","latitude":"48.95000000","longitude":"20.56667000","wikiDataId":"Q756077"},{"id":104507,"name":"Okres Trebišov","stateId":4353,"stateCode":"KI","stateName":"Košice Region","countryId":200,"countryCode":"SK","countryName":"Slovakia","latitude":"48.63333000","longitude":"21.71667000","wikiDataId":"Q301318"},{"id":104537,"name":"Rožňava","stateId":4353,"stateCode":"KI","stateName":"Košice Region","countryId":200,"countryCode":"SK","countryName":"Slovakia","latitude":"48.66009000","longitude":"20.53758000","wikiDataId":"Q267888"},{"id":104542,"name":"Sečovce","stateId":4353,"stateCode":"KI","stateName":"Košice Region","countryId":200,"countryCode":"SK","countryName":"Slovakia","latitude":"48.70074000","longitude":"21.66104000","wikiDataId":"Q847336"},{"id":104547,"name":"Sobrance","stateId":4353,"stateCode":"KI","stateName":"Košice Region","countryId":200,"countryCode":"SK","countryName":"Slovakia","latitude":"48.74455000","longitude":"22.18136000","wikiDataId":"Q241125"},{"id":104549,"name":"Spišská Nová Ves","stateId":4353,"stateCode":"KI","stateName":"Košice Region","countryId":200,"countryCode":"SK","countryName":"Slovakia","latitude":"48.94464000","longitude":"20.56153000","wikiDataId":"Q462840"},{"id":104554,"name":"Strážske","stateId":4353,"stateCode":"KI","stateName":"Košice Region","countryId":200,"countryCode":"SK","countryName":"Slovakia","latitude":"48.87350000","longitude":"21.83668000","wikiDataId":"Q846434"},{"id":104565,"name":"Trebišov","stateId":4353,"stateCode":"KI","stateName":"Košice Region","countryId":200,"countryCode":"SK","countryName":"Slovakia","latitude":"48.62858000","longitude":"21.71954000","wikiDataId":"Q256301"},{"id":104575,"name":"Vinné","stateId":4353,"stateCode":"KI","stateName":"Košice Region","countryId":200,"countryCode":"SK","countryName":"Slovakia","latitude":"48.80965000","longitude":"21.96757000","wikiDataId":"Q1187936"},{"id":104599,"name":"Žehra","stateId":4353,"stateCode":"KI","stateName":"Košice Region","countryId":200,"countryCode":"SK","countryName":"Slovakia","latitude":"48.97960000","longitude":"20.79170000","wikiDataId":"Q393479"},{"id":104400,"name":"Hurbanovo","stateId":4357,"stateCode":"NI","stateName":"Nitra Region","countryId":200,"countryCode":"SK","countryName":"Slovakia","latitude":"47.86984000","longitude":"18.19233000","wikiDataId":"Q856402"},{"id":104406,"name":"Kolárovo","stateId":4357,"stateCode":"NI","stateName":"Nitra Region","countryId":200,"countryCode":"SK","countryName":"Slovakia","latitude":"47.92294000","longitude":"17.98467000","wikiDataId":"Q374095"},{"id":104407,"name":"Komárno","stateId":4357,"stateCode":"NI","stateName":"Nitra Region","countryId":200,"countryCode":"SK","countryName":"Slovakia","latitude":"47.76356000","longitude":"18.12263000","wikiDataId":"Q210796"},{"id":104421,"name":"Levice","stateId":4357,"stateCode":"NI","stateName":"Nitra Region","countryId":200,"countryCode":"SK","countryName":"Slovakia","latitude":"48.21563000","longitude":"18.60705000","wikiDataId":"Q506693"},{"id":104438,"name":"Nitra","stateId":4357,"stateCode":"NI","stateName":"Nitra Region","countryId":200,"countryCode":"SK","countryName":"Slovakia","latitude":"48.30763000","longitude":"18.08453000","wikiDataId":"Q26397"},{"id":104445,"name":"Nové Zámky","stateId":4357,"stateCode":"NI","stateName":"Nitra Region","countryId":200,"countryCode":"SK","countryName":"Slovakia","latitude":"47.98544000","longitude":"18.16195000","wikiDataId":"Q376987"},{"id":104467,"name":"Okres Komárno","stateId":4357,"stateCode":"NI","stateName":"Nitra Region","countryId":200,"countryCode":"SK","countryName":"Slovakia","latitude":"47.76667000","longitude":"18.13333000","wikiDataId":"Q586056"},{"id":104471,"name":"Okres Levice","stateId":4357,"stateCode":"NI","stateName":"Nitra Region","countryId":200,"countryCode":"SK","countryName":"Slovakia","latitude":"48.21667000","longitude":"18.60000000","wikiDataId":"Q777394"},{"id":104481,"name":"Okres Nitra","stateId":4357,"stateCode":"NI","stateName":"Nitra Region","countryId":200,"countryCode":"SK","countryName":"Slovakia","latitude":"48.31667000","longitude":"18.08333000","wikiDataId":"Q761574"},{"id":104483,"name":"Okres Nové Zámky","stateId":4357,"stateCode":"NI","stateName":"Nitra Region","countryId":200,"countryCode":"SK","countryName":"Slovakia","latitude":"47.98333000","longitude":"18.16667000","wikiDataId":"Q276362"},{"id":104517,"name":"Okres Šaľa","stateId":4357,"stateCode":"NI","stateName":"Nitra Region","countryId":200,"countryCode":"SK","countryName":"Slovakia","latitude":"48.14770000","longitude":"17.87306000","wikiDataId":"Q687009"},{"id":104506,"name":"Okres Topoľčany","stateId":4357,"stateCode":"NI","stateName":"Nitra Region","countryId":200,"countryCode":"SK","countryName":"Slovakia","latitude":"48.56667000","longitude":"18.18333000","wikiDataId":"Q599361"},{"id":104514,"name":"Okres Zlaté Moravce","stateId":4357,"stateCode":"NI","stateName":"Nitra Region","countryId":200,"countryCode":"SK","countryName":"Slovakia","latitude":"48.38294000","longitude":"18.39842000","wikiDataId":"Q775875"},{"id":104591,"name":"Šahy","stateId":4357,"stateCode":"NI","stateName":"Nitra Region","countryId":200,"countryCode":"SK","countryName":"Slovakia","latitude":"48.07408000","longitude":"18.94946000","wikiDataId":"Q390946"},{"id":104593,"name":"Šaľa","stateId":4357,"stateCode":"NI","stateName":"Nitra Region","countryId":200,"countryCode":"SK","countryName":"Slovakia","latitude":"48.15127000","longitude":"17.88062000","wikiDataId":"Q391361"},{"id":104595,"name":"Štúrovo","stateId":4357,"stateCode":"NI","stateName":"Nitra Region","countryId":200,"countryCode":"SK","countryName":"Slovakia","latitude":"47.79495000","longitude":"18.71750000","wikiDataId":"Q60038"},{"id":104596,"name":"Šurany","stateId":4357,"stateCode":"NI","stateName":"Nitra Region","countryId":200,"countryCode":"SK","countryName":"Slovakia","latitude":"48.08613000","longitude":"18.18447000","wikiDataId":"Q392704"},{"id":104558,"name":"Svodín","stateId":4357,"stateCode":"NI","stateName":"Nitra Region","countryId":200,"countryCode":"SK","countryName":"Slovakia","latitude":"47.91054000","longitude":"18.49967000","wikiDataId":"Q1070645"},{"id":104563,"name":"Tlmače","stateId":4357,"stateCode":"NI","stateName":"Nitra Region","countryId":200,"countryCode":"SK","countryName":"Slovakia","latitude":"48.28926000","longitude":"18.53152000","wikiDataId":"Q239637"},{"id":104564,"name":"Topoľčany","stateId":4357,"stateCode":"NI","stateName":"Nitra Region","countryId":200,"countryCode":"SK","countryName":"Slovakia","latitude":"48.56361000","longitude":"18.16712000","wikiDataId":"Q750423"},{"id":104580,"name":"Vráble","stateId":4357,"stateCode":"NI","stateName":"Nitra Region","countryId":200,"countryCode":"SK","countryName":"Slovakia","latitude":"48.24371000","longitude":"18.30846000","wikiDataId":"Q264708"},{"id":104600,"name":"Želiezovce","stateId":4357,"stateCode":"NI","stateName":"Nitra Region","countryId":200,"countryCode":"SK","countryName":"Slovakia","latitude":"48.05075000","longitude":"18.65421000","wikiDataId":"Q393609"},{"id":104584,"name":"Zlaté Moravce","stateId":4357,"stateCode":"NI","stateName":"Nitra Region","countryId":200,"countryCode":"SK","countryName":"Slovakia","latitude":"48.38553000","longitude":"18.40063000","wikiDataId":"Q207226"},{"id":104372,"name":"Bardejov","stateId":4354,"stateCode":"PV","stateName":"Prešov Region","countryId":200,"countryCode":"SK","countryName":"Slovakia","latitude":"49.29175000","longitude":"21.27271000","wikiDataId":"Q208110"},{"id":104380,"name":"Chlmec","stateId":4354,"stateCode":"PV","stateName":"Prešov Region","countryId":200,"countryCode":"SK","countryName":"Slovakia","latitude":"48.88628000","longitude":"21.93930000","wikiDataId":"Q1035167"},{"id":104393,"name":"Giraltovce","stateId":4354,"stateCode":"PV","stateName":"Prešov Region","countryId":200,"countryCode":"SK","countryName":"Slovakia","latitude":"49.11398000","longitude":"21.51731000","wikiDataId":"Q550357"},{"id":104399,"name":"Humenné","stateId":4354,"stateCode":"PV","stateName":"Prešov Region","countryId":200,"countryCode":"SK","countryName":"Slovakia","latitude":"48.93707000","longitude":"21.91625000","wikiDataId":"Q502264"},{"id":104405,"name":"Kežmarok","stateId":4354,"stateCode":"PV","stateName":"Prešov Region","countryId":200,"countryCode":"SK","countryName":"Slovakia","latitude":"49.13571000","longitude":"20.43352000","wikiDataId":"Q327977"},{"id":104422,"name":"Levoča","stateId":4354,"stateCode":"PV","stateName":"Prešov Region","countryId":200,"countryCode":"SK","countryName":"Slovakia","latitude":"49.02173000","longitude":"20.59212000","wikiDataId":"Q242478"},{"id":104423,"name":"Lipany","stateId":4354,"stateCode":"PV","stateName":"Prešov Region","countryId":200,"countryCode":"SK","countryName":"Slovakia","latitude":"49.15376000","longitude":"20.96382000","wikiDataId":"Q847118"},{"id":104590,"name":"Ľubica","stateId":4354,"stateCode":"PV","stateName":"Prešov Region","countryId":200,"countryCode":"SK","countryName":"Slovakia","latitude":"49.11667000","longitude":"20.45000000","wikiDataId":"Q341490"},{"id":104432,"name":"Medzilaborce","stateId":4354,"stateCode":"PV","stateName":"Prešov Region","countryId":200,"countryCode":"SK","countryName":"Slovakia","latitude":"49.27195000","longitude":"21.90073000","wikiDataId":"Q578686"},{"id":104442,"name":"Nová Lesná","stateId":4354,"stateCode":"PV","stateName":"Prešov Region","countryId":200,"countryCode":"SK","countryName":"Slovakia","latitude":"49.12253000","longitude":"20.26737000","wikiDataId":"Q664187"},{"id":104449,"name":"Okres Bardejov","stateId":4354,"stateCode":"PV","stateName":"Prešov Region","countryId":200,"countryCode":"SK","countryName":"Slovakia","latitude":"49.28333000","longitude":"21.28333000","wikiDataId":"Q836179"},{"id":104464,"name":"Okres Humenné","stateId":4354,"stateCode":"PV","stateName":"Prešov Region","countryId":200,"countryCode":"SK","countryName":"Slovakia","latitude":"48.93333000","longitude":"21.91667000","wikiDataId":"Q837897"},{"id":104466,"name":"Okres Kežmarok","stateId":4354,"stateCode":"PV","stateName":"Prešov Region","countryId":200,"countryCode":"SK","countryName":"Slovakia","latitude":"49.13593000","longitude":"20.42929000","wikiDataId":"Q636864"},{"id":104472,"name":"Okres Levoča","stateId":4354,"stateCode":"PV","stateName":"Prešov Region","countryId":200,"countryCode":"SK","countryName":"Slovakia","latitude":"49.01986000","longitude":"20.57688000","wikiDataId":"Q837877"},{"id":104477,"name":"Okres Medzilaborce","stateId":4354,"stateCode":"PV","stateName":"Prešov Region","countryId":200,"countryCode":"SK","countryName":"Slovakia","latitude":"49.27062000","longitude":"21.90200000","wikiDataId":"Q837884"},{"id":104488,"name":"Okres Poprad","stateId":4354,"stateCode":"PV","stateName":"Prešov Region","countryId":200,"countryCode":"SK","countryName":"Slovakia","latitude":"49.05000000","longitude":"20.30000000","wikiDataId":"Q830982"},{"id":104490,"name":"Okres Prešov","stateId":4354,"stateCode":"PV","stateName":"Prešov Region","countryId":200,"countryCode":"SK","countryName":"Slovakia","latitude":"49.00000000","longitude":"21.25000000","wikiDataId":"Q756658"},{"id":104496,"name":"Okres Sabinov","stateId":4354,"stateCode":"PV","stateName":"Prešov Region","countryId":200,"countryCode":"SK","countryName":"Slovakia","latitude":"49.10115000","longitude":"21.09844000","wikiDataId":"Q747926"},{"id":104500,"name":"Okres Snina","stateId":4354,"stateCode":"PV","stateName":"Prešov Region","countryId":200,"countryCode":"SK","countryName":"Slovakia","latitude":"48.98579000","longitude":"22.15059000","wikiDataId":"Q837888"},{"id":104503,"name":"Okres Stará Ĺubovňa","stateId":4354,"stateCode":"PV","stateName":"Prešov Region","countryId":200,"countryCode":"SK","countryName":"Slovakia","latitude":"49.30000000","longitude":"20.70000000","wikiDataId":"Q831001"},{"id":104504,"name":"Okres Stropkov","stateId":4354,"stateCode":"PV","stateName":"Prešov Region","countryId":200,"countryCode":"SK","countryName":"Slovakia","latitude":"49.20249000","longitude":"21.65025000","wikiDataId":"Q777963"},{"id":104505,"name":"Okres Svidník","stateId":4354,"stateCode":"PV","stateName":"Prešov Region","countryId":200,"countryCode":"SK","countryName":"Slovakia","latitude":"49.30000000","longitude":"21.56667000","wikiDataId":"Q833845"},{"id":104513,"name":"Okres Vranov nad Topľou","stateId":4354,"stateCode":"PV","stateName":"Prešov Region","countryId":200,"countryCode":"SK","countryName":"Slovakia","latitude":"48.90000000","longitude":"21.68333000","wikiDataId":"Q837874"},{"id":104526,"name":"Podolínec","stateId":4354,"stateCode":"PV","stateName":"Prešov Region","countryId":200,"countryCode":"SK","countryName":"Slovakia","latitude":"49.25869000","longitude":"20.53600000","wikiDataId":"Q852324"},{"id":104528,"name":"Poprad","stateId":4354,"stateCode":"PV","stateName":"Prešov Region","countryId":200,"countryCode":"SK","countryName":"Slovakia","latitude":"49.06144000","longitude":"20.29798000","wikiDataId":"Q26393"},{"id":104530,"name":"Prešov","stateId":4354,"stateCode":"PV","stateName":"Prešov Region","countryId":200,"countryCode":"SK","countryName":"Slovakia","latitude":"48.99839000","longitude":"21.23393000","wikiDataId":"Q26119"},{"id":104539,"name":"Sabinov","stateId":4354,"stateCode":"PV","stateName":"Prešov Region","countryId":200,"countryCode":"SK","countryName":"Slovakia","latitude":"49.10309000","longitude":"21.09880000","wikiDataId":"Q837478"},{"id":104546,"name":"Snina","stateId":4354,"stateCode":"PV","stateName":"Prešov Region","countryId":200,"countryCode":"SK","countryName":"Slovakia","latitude":"48.98857000","longitude":"22.15099000","wikiDataId":"Q754788"},{"id":104548,"name":"Spišská Belá","stateId":4354,"stateCode":"PV","stateName":"Prešov Region","countryId":200,"countryCode":"SK","countryName":"Slovakia","latitude":"49.18725000","longitude":"20.45948000","wikiDataId":"Q605059"},{"id":104550,"name":"Spišské Podhradie","stateId":4354,"stateCode":"PV","stateName":"Prešov Region","countryId":200,"countryCode":"SK","countryName":"Slovakia","latitude":"49.00088000","longitude":"20.75307000","wikiDataId":"Q537778"},{"id":104552,"name":"Stará Ľubovňa","stateId":4354,"stateCode":"PV","stateName":"Prešov Region","countryId":200,"countryCode":"SK","countryName":"Slovakia","latitude":"49.29859000","longitude":"20.68620000","wikiDataId":"Q605521"},{"id":104594,"name":"Štrba","stateId":4354,"stateCode":"PV","stateName":"Prešov Region","countryId":200,"countryCode":"SK","countryName":"Slovakia","latitude":"49.05913000","longitude":"20.07975000","wikiDataId":"Q373739"},{"id":104553,"name":"Stropkov","stateId":4354,"stateCode":"PV","stateName":"Prešov Region","countryId":200,"countryCode":"SK","countryName":"Slovakia","latitude":"49.20211000","longitude":"21.65216000","wikiDataId":"Q750413"},{"id":104556,"name":"Svidník","stateId":4354,"stateCode":"PV","stateName":"Prešov Region","countryId":200,"countryCode":"SK","countryName":"Slovakia","latitude":"49.30819000","longitude":"21.57030000","wikiDataId":"Q782928"},{"id":104557,"name":"Svit","stateId":4354,"stateCode":"PV","stateName":"Prešov Region","countryId":200,"countryCode":"SK","countryName":"Slovakia","latitude":"49.06014000","longitude":"20.20695000","wikiDataId":"Q852318"},{"id":104577,"name":"Vranov nad Topľou","stateId":4354,"stateCode":"PV","stateName":"Prešov Region","countryId":200,"countryCode":"SK","countryName":"Slovakia","latitude":"48.88836000","longitude":"21.68479000","wikiDataId":"Q842005"},{"id":104578,"name":"Vrbov","stateId":4354,"stateCode":"PV","stateName":"Prešov Region","countryId":200,"countryCode":"SK","countryName":"Slovakia","latitude":"49.08764000","longitude":"20.42530000","wikiDataId":"Q545706"},{"id":104583,"name":"Vyšné Ružbachy","stateId":4354,"stateCode":"PV","stateName":"Prešov Region","countryId":200,"countryCode":"SK","countryName":"Slovakia","latitude":"49.30387000","longitude":"20.56558000","wikiDataId":"Q746119"},{"id":104582,"name":"Vysoké Tatry","stateId":4354,"stateCode":"PV","stateName":"Prešov Region","countryId":200,"countryCode":"SK","countryName":"Slovakia","latitude":"49.13637000","longitude":"20.24386000","wikiDataId":"Q612516"},{"id":104598,"name":"Ždiar","stateId":4354,"stateCode":"PV","stateName":"Prešov Region","countryId":200,"countryCode":"SK","countryName":"Slovakia","latitude":"49.27100000","longitude":"20.26239000","wikiDataId":"Q393435"},{"id":104379,"name":"Bánovce nad Bebravou","stateId":4358,"stateCode":"TC","stateName":"Trenčín Region","countryId":200,"countryCode":"SK","countryName":"Slovakia","latitude":"48.72130000","longitude":"18.25754000","wikiDataId":"Q549849"},{"id":104373,"name":"Bojnice","stateId":4358,"stateCode":"TC","stateName":"Trenčín Region","countryId":200,"countryCode":"SK","countryName":"Slovakia","latitude":"48.78511000","longitude":"18.58640000","wikiDataId":"Q788753"},{"id":104377,"name":"Brezová pod Bradlom","stateId":4358,"stateCode":"TC","stateName":"Trenčín Region","countryId":200,"countryCode":"SK","countryName":"Slovakia","latitude":"48.66349000","longitude":"17.53905000","wikiDataId":"Q135818"},{"id":104586,"name":"Čachtice","stateId":4358,"stateCode":"TC","stateName":"Trenčín Region","countryId":200,"countryCode":"SK","countryName":"Slovakia","latitude":"48.71226000","longitude":"17.78704000","wikiDataId":"Q337440"},{"id":104384,"name":"Dubnica nad Váhom","stateId":4358,"stateCode":"TC","stateName":"Trenčín Region","countryId":200,"countryCode":"SK","countryName":"Slovakia","latitude":"48.95981000","longitude":"18.16634000","wikiDataId":"Q481528"},{"id":104394,"name":"Handlová","stateId":4358,"stateCode":"TC","stateName":"Trenčín Region","countryId":200,"countryCode":"SK","countryName":"Slovakia","latitude":"48.72760000","longitude":"18.76012000","wikiDataId":"Q842011"},{"id":104402,"name":"Ilava","stateId":4358,"stateCode":"TC","stateName":"Trenčín Region","countryId":200,"countryCode":"SK","countryName":"Slovakia","latitude":"48.99769000","longitude":"18.23530000","wikiDataId":"Q481564"},{"id":104419,"name":"Lehota pod Vtáčnikom","stateId":4358,"stateCode":"TC","stateName":"Trenčín Region","countryId":200,"countryCode":"SK","countryName":"Slovakia","latitude":"48.69138000","longitude":"18.59944000","wikiDataId":"Q516578"},{"id":104436,"name":"Myjava","stateId":4358,"stateCode":"TC","stateName":"Trenčín Region","countryId":200,"countryCode":"SK","countryName":"Slovakia","latitude":"48.75876000","longitude":"17.56866000","wikiDataId":"Q846440"},{"id":104437,"name":"Nemšová","stateId":4358,"stateCode":"TC","stateName":"Trenčín Region","countryId":200,"countryCode":"SK","countryName":"Slovakia","latitude":"48.96702000","longitude":"18.11892000","wikiDataId":"Q389942"},{"id":104441,"name":"Nová Dubnica","stateId":4358,"stateCode":"TC","stateName":"Trenčín Region","countryId":200,"countryCode":"SK","countryName":"Slovakia","latitude":"48.93479000","longitude":"18.14632000","wikiDataId":"Q249935"},{"id":104443,"name":"Nováky","stateId":4358,"stateCode":"TC","stateName":"Trenčín Region","countryId":200,"countryCode":"SK","countryName":"Slovakia","latitude":"48.71106000","longitude":"18.53389000","wikiDataId":"Q909301"},{"id":104444,"name":"Nové Mesto nad Váhom","stateId":4358,"stateCode":"TC","stateName":"Trenčín Region","countryId":200,"countryCode":"SK","countryName":"Slovakia","latitude":"48.75763000","longitude":"17.83090000","wikiDataId":"Q376987"},{"id":104457,"name":"Okres Bánovce nad Bebravou","stateId":4358,"stateCode":"TC","stateName":"Trenčín Region","countryId":200,"countryCode":"SK","countryName":"Slovakia","latitude":"48.71908000","longitude":"18.25773000","wikiDataId":"Q837865"},{"id":104465,"name":"Okres Ilava","stateId":4358,"stateCode":"TC","stateName":"Trenčín Region","countryId":200,"countryCode":"SK","countryName":"Slovakia","latitude":"48.99641000","longitude":"18.23374000","wikiDataId":"Q373881"},{"id":104479,"name":"Okres Myjava","stateId":4358,"stateCode":"TC","stateName":"Trenčín Region","countryId":200,"countryCode":"SK","countryName":"Slovakia","latitude":"48.75000000","longitude":"17.58333000","wikiDataId":"Q837460"},{"id":104482,"name":"Okres Nové Mesto nad Váhom","stateId":4358,"stateCode":"TC","stateName":"Trenčín Region","countryId":200,"countryCode":"SK","countryName":"Slovakia","latitude":"48.75466000","longitude":"17.83506000","wikiDataId":"Q282702"},{"id":104484,"name":"Okres Partizánske","stateId":4358,"stateCode":"TC","stateName":"Trenčín Region","countryId":200,"countryCode":"SK","countryName":"Slovakia","latitude":"48.62613000","longitude":"18.37957000","wikiDataId":"Q837871"},{"id":104489,"name":"Okres Považská Bystrica","stateId":4358,"stateCode":"TC","stateName":"Trenčín Region","countryId":200,"countryCode":"SK","countryName":"Slovakia","latitude":"49.11667000","longitude":"18.45000000","wikiDataId":"Q837891"},{"id":104491,"name":"Okres Prievidza","stateId":4358,"stateCode":"TC","stateName":"Trenčín Region","countryId":200,"countryCode":"SK","countryName":"Slovakia","latitude":"48.76667000","longitude":"18.63333000","wikiDataId":"Q614140"},{"id":104492,"name":"Okres Púchov","stateId":4358,"stateCode":"TC","stateName":"Trenčín Region","countryId":200,"countryCode":"SK","countryName":"Slovakia","latitude":"49.12406000","longitude":"18.32477000","wikiDataId":"Q768310"},{"id":104508,"name":"Okres Trenčín","stateId":4358,"stateCode":"TC","stateName":"Trenčín Region","countryId":200,"countryCode":"SK","countryName":"Slovakia","latitude":"48.89520000","longitude":"18.04264000","wikiDataId":"Q339239"},{"id":104523,"name":"Partizánske","stateId":4358,"stateCode":"TC","stateName":"Trenčín Region","countryId":200,"countryCode":"SK","countryName":"Slovakia","latitude":"48.62861000","longitude":"18.38455000","wikiDataId":"Q754768"},{"id":104529,"name":"Považská Bystrica","stateId":4358,"stateCode":"TC","stateName":"Trenčín Region","countryId":200,"countryCode":"SK","countryName":"Slovakia","latitude":"49.12153000","longitude":"18.42169000","wikiDataId":"Q319787"},{"id":104532,"name":"Prievidza","stateId":4358,"stateCode":"TC","stateName":"Trenčín Region","countryId":200,"countryCode":"SK","countryName":"Slovakia","latitude":"48.77446000","longitude":"18.62750000","wikiDataId":"Q208750"},{"id":104533,"name":"Púchov","stateId":4358,"stateCode":"TC","stateName":"Trenčín Region","countryId":200,"countryCode":"SK","countryName":"Slovakia","latitude":"49.12494000","longitude":"18.32597000","wikiDataId":"Q258481"},{"id":104551,"name":"Stará Turá","stateId":4358,"stateCode":"TC","stateName":"Trenčín Region","countryId":200,"countryCode":"SK","countryName":"Slovakia","latitude":"48.77721000","longitude":"17.69433000","wikiDataId":"Q512771"},{"id":104566,"name":"Trenčianske Teplice","stateId":4358,"stateCode":"TC","stateName":"Trenčín Region","countryId":200,"countryCode":"SK","countryName":"Slovakia","latitude":"48.91063000","longitude":"18.16691000","wikiDataId":"Q532555"},{"id":104567,"name":"Trenčín","stateId":4358,"stateCode":"TC","stateName":"Trenčín Region","countryId":200,"countryCode":"SK","countryName":"Slovakia","latitude":"48.89452000","longitude":"18.04436000","wikiDataId":"Q145002"},{"id":104387,"name":"Dunajská Streda","stateId":4355,"stateCode":"TA","stateName":"Trnava Region","countryId":200,"countryCode":"SK","countryName":"Slovakia","latitude":"47.99268000","longitude":"17.61211000","wikiDataId":"Q646393"},{"id":104389,"name":"Gabčíkovo","stateId":4355,"stateCode":"TA","stateName":"Trnava Region","countryId":200,"countryCode":"SK","countryName":"Slovakia","latitude":"47.89211000","longitude":"17.57884000","wikiDataId":"Q389397"},{"id":104390,"name":"Galanta","stateId":4355,"stateCode":"TA","stateName":"Trnava Region","countryId":200,"countryCode":"SK","countryName":"Slovakia","latitude":"48.19001000","longitude":"17.72747000","wikiDataId":"Q460767"},{"id":104391,"name":"Gbely","stateId":4355,"stateCode":"TA","stateName":"Trnava Region","countryId":200,"countryCode":"SK","countryName":"Slovakia","latitude":"48.71800000","longitude":"17.11628000","wikiDataId":"Q846424"},{"id":104395,"name":"Hlohovec","stateId":4355,"stateCode":"TA","stateName":"Trnava Region","countryId":200,"countryCode":"SK","countryName":"Slovakia","latitude":"48.43174000","longitude":"17.80310000","wikiDataId":"Q754773"},{"id":104396,"name":"Holíč","stateId":4355,"stateCode":"TA","stateName":"Trnava Region","countryId":200,"countryCode":"SK","countryName":"Slovakia","latitude":"48.81105000","longitude":"17.16238000","wikiDataId":"Q653326"},{"id":104420,"name":"Leopoldov","stateId":4355,"stateCode":"TA","stateName":"Trnava Region","countryId":200,"countryCode":"SK","countryName":"Slovakia","latitude":"48.44575000","longitude":"17.76458000","wikiDataId":"Q690807"},{"id":104460,"name":"Okres Dunajská Streda","stateId":4355,"stateCode":"TA","stateName":"Trnava Region","countryId":200,"countryCode":"SK","countryName":"Slovakia","latitude":"47.99635000","longitude":"17.60937000","wikiDataId":"Q756662"},{"id":104461,"name":"Okres Galanta","stateId":4355,"stateCode":"TA","stateName":"Trnava Region","countryId":200,"countryCode":"SK","countryName":"Slovakia","latitude":"48.20000000","longitude":"17.71667000","wikiDataId":"Q836182"},{"id":104463,"name":"Okres Hlohovec","stateId":4355,"stateCode":"TA","stateName":"Trnava Region","countryId":200,"countryCode":"SK","countryName":"Slovakia","latitude":"48.41667000","longitude":"17.75000000","wikiDataId":"Q550271"},{"id":104486,"name":"Okres Piešťany","stateId":4355,"stateCode":"TA","stateName":"Trnava Region","countryId":200,"countryCode":"SK","countryName":"Slovakia","latitude":"48.59064000","longitude":"17.82679000","wikiDataId":"Q837868"},{"id":104498,"name":"Okres Senica","stateId":4355,"stateCode":"TA","stateName":"Trnava Region","countryId":200,"countryCode":"SK","countryName":"Slovakia","latitude":"48.68333000","longitude":"17.36667000","wikiDataId":"Q842557"},{"id":104499,"name":"Okres Skalica","stateId":4355,"stateCode":"TA","stateName":"Trnava Region","countryId":200,"countryCode":"SK","countryName":"Slovakia","latitude":"48.75000000","longitude":"17.16667000","wikiDataId":"Q837894"},{"id":104509,"name":"Okres Trnava","stateId":4355,"stateCode":"TA","stateName":"Trnava Region","countryId":200,"countryCode":"SK","countryName":"Slovakia","latitude":"48.36667000","longitude":"17.60000000","wikiDataId":"Q775484"},{"id":104525,"name":"Piešťany","stateId":4355,"stateCode":"TA","stateName":"Trnava Region","countryId":200,"countryCode":"SK","countryName":"Slovakia","latitude":"48.59479000","longitude":"17.82591000","wikiDataId":"Q321074"},{"id":104592,"name":"Šamorín","stateId":4355,"stateCode":"TA","stateName":"Trnava Region","countryId":200,"countryCode":"SK","countryName":"Slovakia","latitude":"48.03015000","longitude":"17.30972000","wikiDataId":"Q391068"},{"id":104541,"name":"Senica","stateId":4355,"stateCode":"TA","stateName":"Trnava Region","countryId":200,"countryCode":"SK","countryName":"Slovakia","latitude":"48.67922000","longitude":"17.36697000","wikiDataId":"Q750407"},{"id":104543,"name":"Skalica","stateId":4355,"stateCode":"TA","stateName":"Trnava Region","countryId":200,"countryCode":"SK","countryName":"Slovakia","latitude":"48.84490000","longitude":"17.22635000","wikiDataId":"Q649076"},{"id":104544,"name":"Sládkovičovo","stateId":4355,"stateCode":"TA","stateName":"Trnava Region","countryId":200,"countryCode":"SK","countryName":"Slovakia","latitude":"48.20137000","longitude":"17.63852000","wikiDataId":"Q568249"},{"id":104545,"name":"Smolenice","stateId":4355,"stateCode":"TA","stateName":"Trnava Region","countryId":200,"countryCode":"SK","countryName":"Slovakia","latitude":"48.50478000","longitude":"17.43067000","wikiDataId":"Q1020253"},{"id":104568,"name":"Trnava","stateId":4355,"stateCode":"TA","stateName":"Trnava Region","countryId":200,"countryCode":"SK","countryName":"Slovakia","latitude":"48.37741000","longitude":"17.58723000","wikiDataId":"Q26175"},{"id":104574,"name":"Veľký Meder","stateId":4355,"stateCode":"TA","stateName":"Trnava Region","countryId":200,"countryCode":"SK","countryName":"Slovakia","latitude":"47.85798000","longitude":"17.76884000","wikiDataId":"Q740469"},{"id":104579,"name":"Vrbové","stateId":4355,"stateCode":"TA","stateName":"Trnava Region","countryId":200,"countryCode":"SK","countryName":"Slovakia","latitude":"48.61973000","longitude":"17.72260000","wikiDataId":"Q846444"},{"id":104378,"name":"Bytča","stateId":4359,"stateCode":"ZI","stateName":"Žilina Region","countryId":200,"countryCode":"SK","countryName":"Slovakia","latitude":"49.22404000","longitude":"18.55878000","wikiDataId":"Q27907"},{"id":104587,"name":"Čadca","stateId":4359,"stateCode":"ZI","stateName":"Žilina Region","countryId":200,"countryCode":"SK","countryName":"Slovakia","latitude":"49.43503000","longitude":"18.78895000","wikiDataId":"Q337440"},{"id":104383,"name":"Dolný Kubín","stateId":4359,"stateCode":"ZI","stateName":"Žilina Region","countryId":200,"countryCode":"SK","countryName":"Slovakia","latitude":"49.20983000","longitude":"19.30341000","wikiDataId":"Q589309"},{"id":104401,"name":"Hybe","stateId":4359,"stateCode":"ZI","stateName":"Žilina Region","countryId":200,"countryCode":"SK","countryName":"Slovakia","latitude":"49.04439000","longitude":"19.82895000","wikiDataId":"Q339642"},{"id":104414,"name":"Krasňany","stateId":4359,"stateCode":"ZI","stateName":"Žilina Region","countryId":200,"countryCode":"SK","countryName":"Slovakia","latitude":"49.21491000","longitude":"18.88718000","wikiDataId":"Q1071509"},{"id":104418,"name":"Kysucké Nové Mesto","stateId":4359,"stateCode":"ZI","stateName":"Žilina Region","countryId":200,"countryCode":"SK","countryName":"Slovakia","latitude":"49.30000000","longitude":"18.78333000","wikiDataId":"Q516578"},{"id":104424,"name":"Liptovský Hrádok","stateId":4359,"stateCode":"ZI","stateName":"Žilina Region","countryId":200,"countryCode":"SK","countryName":"Slovakia","latitude":"49.03962000","longitude":"19.72335000","wikiDataId":"Q338528"},{"id":104425,"name":"Liptovský Mikuláš","stateId":4359,"stateCode":"ZI","stateName":"Žilina Region","countryId":200,"countryCode":"SK","countryName":"Slovakia","latitude":"49.08061000","longitude":"19.62218000","wikiDataId":"Q338528"},{"id":104427,"name":"Lúčky","stateId":4359,"stateCode":"ZI","stateName":"Žilina Region","countryId":200,"countryCode":"SK","countryName":"Slovakia","latitude":"49.12944000","longitude":"19.40228000","wikiDataId":"Q1068179"},{"id":104430,"name":"Martin","stateId":4359,"stateCode":"ZI","stateName":"Žilina Region","countryId":200,"countryCode":"SK","countryName":"Slovakia","latitude":"49.06651000","longitude":"18.92399000","wikiDataId":"Q27001"},{"id":104446,"name":"Námestovo","stateId":4359,"stateCode":"ZI","stateName":"Žilina Region","countryId":200,"countryCode":"SK","countryName":"Slovakia","latitude":"49.40790000","longitude":"19.48032000","wikiDataId":"Q377650"},{"id":104439,"name":"Nižná","stateId":4359,"stateCode":"ZI","stateName":"Žilina Region","countryId":200,"countryCode":"SK","countryName":"Slovakia","latitude":"49.31046000","longitude":"19.52428000","wikiDataId":"Q31926891"},{"id":104456,"name":"Okres Bytča","stateId":4359,"stateCode":"ZI","stateName":"Žilina Region","countryId":200,"countryCode":"SK","countryName":"Slovakia","latitude":"49.22267000","longitude":"18.55844000","wikiDataId":"Q668333"},{"id":104516,"name":"Okres Čadca","stateId":4359,"stateCode":"ZI","stateName":"Žilina Region","countryId":200,"countryCode":"SK","countryName":"Slovakia","latitude":"49.43333000","longitude":"18.78333000","wikiDataId":"Q337478"},{"id":104459,"name":"Okres Dolný Kubín","stateId":4359,"stateCode":"ZI","stateName":"Žilina Region","countryId":200,"countryCode":"SK","countryName":"Slovakia","latitude":"49.20000000","longitude":"19.30000000","wikiDataId":"Q665066"},{"id":104470,"name":"Okres Kysucké Nové Mesto","stateId":4359,"stateCode":"ZI","stateName":"Žilina Region","countryId":200,"countryCode":"SK","countryName":"Slovakia","latitude":"49.30206000","longitude":"18.78603000","wikiDataId":"Q762646"},{"id":104473,"name":"Okres Liptovský Mikuláš","stateId":4359,"stateCode":"ZI","stateName":"Žilina Region","countryId":200,"countryCode":"SK","countryName":"Slovakia","latitude":"49.08333000","longitude":"19.61667000","wikiDataId":"Q272040"},{"id":104476,"name":"Okres Martin","stateId":4359,"stateCode":"ZI","stateName":"Žilina Region","countryId":200,"countryCode":"SK","countryName":"Slovakia","latitude":"49.06667000","longitude":"18.93333000","wikiDataId":"Q756665"},{"id":104480,"name":"Okres Namestovo","stateId":4359,"stateCode":"ZI","stateName":"Žilina Region","countryId":200,"countryCode":"SK","countryName":"Slovakia","latitude":"49.40651000","longitude":"19.47670000","wikiDataId":"Q388888"},{"id":104495,"name":"Okres Ružomberok","stateId":4359,"stateCode":"ZI","stateName":"Žilina Region","countryId":200,"countryCode":"SK","countryName":"Slovakia","latitude":"49.07494000","longitude":"19.30083000","wikiDataId":"Q655156"},{"id":104510,"name":"Okres Turčianske Teplice","stateId":4359,"stateCode":"ZI","stateName":"Žilina Region","countryId":200,"countryCode":"SK","countryName":"Slovakia","latitude":"48.86283000","longitude":"18.85759000","wikiDataId":"Q548293"},{"id":104511,"name":"Okres Tvrdošín","stateId":4359,"stateCode":"ZI","stateName":"Žilina Region","countryId":200,"countryCode":"SK","countryName":"Slovakia","latitude":"49.33421000","longitude":"19.55461000","wikiDataId":"Q756899"},{"id":104520,"name":"Okres Žilina","stateId":4359,"stateCode":"ZI","stateName":"Žilina Region","countryId":200,"countryCode":"SK","countryName":"Slovakia","latitude":"49.22303000","longitude":"18.74044000","wikiDataId":"Q836201"},{"id":104521,"name":"Oravská Lesná","stateId":4359,"stateCode":"ZI","stateName":"Žilina Region","countryId":200,"countryCode":"SK","countryName":"Slovakia","latitude":"49.36672000","longitude":"19.18093000","wikiDataId":"Q836201"},{"id":104522,"name":"Oravský Podzámok","stateId":4359,"stateCode":"ZI","stateName":"Žilina Region","countryId":200,"countryCode":"SK","countryName":"Slovakia","latitude":"49.25939000","longitude":"19.35690000","wikiDataId":"Q1091685"},{"id":104531,"name":"Pribylina","stateId":4359,"stateCode":"ZI","stateName":"Žilina Region","countryId":200,"countryCode":"SK","countryName":"Slovakia","latitude":"49.09950000","longitude":"19.79427000","wikiDataId":"Q1091714"},{"id":104534,"name":"Rajec","stateId":4359,"stateCode":"ZI","stateName":"Žilina Region","countryId":200,"countryCode":"SK","countryName":"Slovakia","latitude":"49.08899000","longitude":"18.64007000","wikiDataId":"Q909333"},{"id":104538,"name":"Ružomberok","stateId":4359,"stateCode":"ZI","stateName":"Žilina Region","countryId":200,"countryCode":"SK","countryName":"Slovakia","latitude":"49.07480000","longitude":"19.30751000","wikiDataId":"Q27541"},{"id":104561,"name":"Terchová","stateId":4359,"stateCode":"ZI","stateName":"Žilina Region","countryId":200,"countryCode":"SK","countryName":"Slovakia","latitude":"49.25895000","longitude":"19.02935000","wikiDataId":"Q932854"},{"id":104569,"name":"Trstená","stateId":4359,"stateCode":"ZI","stateName":"Žilina Region","countryId":200,"countryCode":"SK","countryName":"Slovakia","latitude":"49.36101000","longitude":"19.61249000","wikiDataId":"Q847350"},{"id":104571,"name":"Turčianske Teplice","stateId":4359,"stateCode":"ZI","stateName":"Žilina Region","countryId":200,"countryCode":"SK","countryName":"Slovakia","latitude":"48.86225000","longitude":"18.86048000","wikiDataId":"Q135647"},{"id":104570,"name":"Turzovka","stateId":4359,"stateCode":"ZI","stateName":"Žilina Region","countryId":200,"countryCode":"SK","countryName":"Slovakia","latitude":"49.40429000","longitude":"18.62258000","wikiDataId":"Q182903"},{"id":104572,"name":"Tvrdošín","stateId":4359,"stateCode":"ZI","stateName":"Žilina Region","countryId":200,"countryCode":"SK","countryName":"Slovakia","latitude":"49.33700000","longitude":"19.55600000","wikiDataId":"Q509715"},{"id":104581,"name":"Vrútky","stateId":4359,"stateCode":"ZI","stateName":"Žilina Region","countryId":200,"countryCode":"SK","countryName":"Slovakia","latitude":"49.11328000","longitude":"18.91714000","wikiDataId":"Q837456"},{"id":104602,"name":"Žilina","stateId":4359,"stateCode":"ZI","stateName":"Žilina Region","countryId":200,"countryCode":"SK","countryName":"Slovakia","latitude":"49.22315000","longitude":"18.73941000","wikiDataId":"Q25797"}]