[{"id":76416,"name":"Bakri","stateId":1950,"stateCode":"01","stateName":"Johor","countryId":132,"countryCode":"MY","countryName":"Malaysia","latitude":"2.04410000","longitude":"102.65270000","wikiDataId":"Q2251637"},{"id":76424,"name":"Batu Pahat","stateId":1950,"stateCode":"01","stateName":"Johor","countryId":132,"countryCode":"MY","countryName":"Malaysia","latitude":"1.85480000","longitude":"102.93250000","wikiDataId":"Q2891912"},{"id":76433,"name":"Buloh Kasap","stateId":1950,"stateCode":"01","stateName":"Johor","countryId":132,"countryCode":"MY","countryName":"Malaysia","latitude":"2.55360000","longitude":"102.76400000","wikiDataId":"Q2158697"},{"id":76435,"name":"Chaah","stateId":1950,"stateCode":"01","stateName":"Johor","countryId":132,"countryCode":"MY","countryName":"Malaysia","latitude":"2.24900000","longitude":"103.04800000","wikiDataId":"Q1018159"},{"id":76437,"name":"Daerah Batu Pahat","stateId":1950,"stateCode":"01","stateName":"Johor","countryId":132,"countryCode":"MY","countryName":"Malaysia","latitude":"1.93333000","longitude":"103.00000000","wikiDataId":"Q2306850"},{"id":76438,"name":"Daerah Johor Baharu","stateId":1950,"stateCode":"01","stateName":"Johor","countryId":132,"countryCode":"MY","countryName":"Malaysia","latitude":"1.65000000","longitude":"103.60000000","wikiDataId":"Q2193190"},{"id":76439,"name":"Daerah Keluang","stateId":1950,"stateCode":"01","stateName":"Johor","countryId":132,"countryCode":"MY","countryName":"Malaysia","latitude":"2.20000000","longitude":"103.33333000","wikiDataId":"Q12683379"},{"id":76440,"name":"Daerah Kota Tinggi","stateId":1950,"stateCode":"01","stateName":"Johor","countryId":132,"countryCode":"MY","countryName":"Malaysia","latitude":"1.81667000","longitude":"103.96667000","wikiDataId":"Q12683379"},{"id":76441,"name":"Daerah Mersing","stateId":1950,"stateCode":"01","stateName":"Johor","countryId":132,"countryCode":"MY","countryName":"Malaysia","latitude":"2.31667000","longitude":"103.71667000","wikiDataId":"Q12683379"},{"id":76442,"name":"Daerah Muar","stateId":1950,"stateCode":"01","stateName":"Johor","countryId":132,"countryCode":"MY","countryName":"Malaysia","latitude":"2.25000000","longitude":"102.75000000","wikiDataId":"Q12683379"},{"id":76443,"name":"Daerah Pontian","stateId":1950,"stateCode":"01","stateName":"Johor","countryId":132,"countryCode":"MY","countryName":"Malaysia","latitude":"1.50000000","longitude":"103.50000000","wikiDataId":"Q12683379"},{"id":76444,"name":"Daerah Segamat","stateId":1950,"stateCode":"01","stateName":"Johor","countryId":132,"countryCode":"MY","countryName":"Malaysia","latitude":"2.60000000","longitude":"102.81667000","wikiDataId":"Q12683379"},{"id":76455,"name":"Johor Bahru","stateId":1950,"stateCode":"01","stateName":"Johor","countryId":132,"countryCode":"MY","countryName":"Malaysia","latitude":"1.46550000","longitude":"103.75780000","wikiDataId":"Q231318"},{"id":76473,"name":"Kampung Pasir Gudang Baru","stateId":1950,"stateCode":"01","stateName":"Johor","countryId":132,"countryCode":"MY","countryName":"Malaysia","latitude":"1.47260000","longitude":"103.87800000","wikiDataId":"Q2802663"},{"id":76474,"name":"Kampung Simpang Renggam","stateId":1950,"stateCode":"01","stateName":"Johor","countryId":132,"countryCode":"MY","countryName":"Malaysia","latitude":"1.82780000","longitude":"103.30000000","wikiDataId":"Q2802663"},{"id":76480,"name":"Kelapa Sawit","stateId":1950,"stateCode":"01","stateName":"Johor","countryId":132,"countryCode":"MY","countryName":"Malaysia","latitude":"1.66980000","longitude":"103.53270000","wikiDataId":"Q2228374"},{"id":76487,"name":"Kluang","stateId":1950,"stateCode":"01","stateName":"Johor","countryId":132,"countryCode":"MY","countryName":"Malaysia","latitude":"2.03046000","longitude":"103.31689000","wikiDataId":"Q1200738"},{"id":76491,"name":"Kota Tinggi","stateId":1950,"stateCode":"01","stateName":"Johor","countryId":132,"countryCode":"MY","countryName":"Malaysia","latitude":"1.73810000","longitude":"103.89990000","wikiDataId":"Q935184"},{"id":76508,"name":"Kulai","stateId":1950,"stateCode":"01","stateName":"Johor","countryId":132,"countryCode":"MY","countryName":"Malaysia","latitude":"1.65610000","longitude":"103.60320000","wikiDataId":"Q12492866"},{"id":76510,"name":"Labis","stateId":1950,"stateCode":"01","stateName":"Johor","countryId":132,"countryCode":"MY","countryName":"Malaysia","latitude":"2.38500000","longitude":"103.02100000","wikiDataId":"Q12492866"},{"id":76524,"name":"Mersing","stateId":1950,"stateCode":"01","stateName":"Johor","countryId":132,"countryCode":"MY","countryName":"Malaysia","latitude":"2.43120000","longitude":"103.84050000","wikiDataId":"Q1344433"},{"id":76526,"name":"Muar","stateId":1950,"stateCode":"01","stateName":"Johor","countryId":132,"countryCode":"MY","countryName":"Malaysia","latitude":"2.04420000","longitude":"102.56890000","wikiDataId":"Q1832744"},{"id":76535,"name":"Parit Raja","stateId":1950,"stateCode":"01","stateName":"Johor","countryId":132,"countryCode":"MY","countryName":"Malaysia","latitude":"1.86810000","longitude":"103.11240000","wikiDataId":"Q4567855"},{"id":76538,"name":"Pekan Nenas","stateId":1950,"stateCode":"01","stateName":"Johor","countryId":132,"countryCode":"MY","countryName":"Malaysia","latitude":"1.51000000","longitude":"103.51410000","wikiDataId":"Q1951088"},{"id":76544,"name":"Pontian Kechil","stateId":1950,"stateCode":"01","stateName":"Johor","countryId":132,"countryCode":"MY","countryName":"Malaysia","latitude":"1.48660000","longitude":"103.38960000","wikiDataId":"Q864965"},{"id":76556,"name":"Segamat","stateId":1950,"stateCode":"01","stateName":"Johor","countryId":132,"countryCode":"MY","countryName":"Malaysia","latitude":"2.51480000","longitude":"102.81580000","wikiDataId":"Q1861984"},{"id":76565,"name":"Skudai","stateId":1950,"stateCode":"01","stateName":"Johor","countryId":132,"countryCode":"MY","countryName":"Malaysia","latitude":"1.53741000","longitude":"103.65779000","wikiDataId":"Q5254191"},{"id":76573,"name":"Taman Senai","stateId":1950,"stateCode":"01","stateName":"Johor","countryId":132,"countryCode":"MY","countryName":"Malaysia","latitude":"1.60060000","longitude":"103.64190000","wikiDataId":"Q1059565"},{"id":76576,"name":"Tangkak","stateId":1950,"stateCode":"01","stateName":"Johor","countryId":132,"countryCode":"MY","countryName":"Malaysia","latitude":"2.26730000","longitude":"102.54530000","wikiDataId":"Q1187522"},{"id":76586,"name":"Ulu Tiram","stateId":1950,"stateCode":"01","stateName":"Johor","countryId":132,"countryCode":"MY","countryName":"Malaysia","latitude":"1.60000000","longitude":"103.81667000","wikiDataId":"Q1905342"},{"id":76587,"name":"Yong Peng","stateId":1950,"stateCode":"01","stateName":"Johor","countryId":132,"countryCode":"MY","countryName":"Malaysia","latitude":"2.01360000","longitude":"103.06590000","wikiDataId":"Q2680825"}]