[{"id":85332,"name":"Ahmadpur Sial","stateId":3176,"stateCode":"PB","stateName":"Punjab","countryId":167,"countryCode":"PK","countryName":"Pakistan","latitude":"30.67791000","longitude":"71.74344000","wikiDataId":"Q1250201"},{"id":85331,"name":"Ahmedpur East","stateId":3176,"stateCode":"PB","stateName":"Punjab","countryId":167,"countryCode":"PK","countryName":"Pakistan","latitude":"29.14269000","longitude":"71.25771000","wikiDataId":"Q1250201"},{"id":85335,"name":"Alipur Chatha","stateId":3176,"stateCode":"PB","stateName":"Punjab","countryId":167,"countryCode":"PK","countryName":"Pakistan","latitude":"29.38242000","longitude":"70.91106000","wikiDataId":"Q2475251"},{"id":85339,"name":"Arifwala","stateId":3176,"stateCode":"PB","stateName":"Punjab","countryId":167,"countryCode":"PK","countryName":"Pakistan","latitude":"30.29058000","longitude":"73.06574000","wikiDataId":"Q2984767"},{"id":85341,"name":"Attock Tehsil","stateId":3176,"stateCode":"PB","stateName":"Punjab","countryId":167,"countryCode":"PK","countryName":"Pakistan","latitude":"33.76671000","longitude":"72.35977000","wikiDataId":"Q2984767"},{"id":85343,"name":"Baddomalhi","stateId":3176,"stateCode":"PB","stateName":"Punjab","countryId":167,"countryCode":"PK","countryName":"Pakistan","latitude":"31.99042000","longitude":"74.66410000","wikiDataId":"Q4840703"},{"id":85347,"name":"Bahawalnagar","stateId":3176,"stateCode":"PB","stateName":"Punjab","countryId":167,"countryCode":"PK","countryName":"Pakistan","latitude":"29.99835000","longitude":"73.25272000","wikiDataId":"Q1249932"},{"id":85348,"name":"Bahawalpur","stateId":3176,"stateCode":"PB","stateName":"Punjab","countryId":167,"countryCode":"PK","countryName":"Pakistan","latitude":"29.39779000","longitude":"71.67520000","wikiDataId":"Q318156"},{"id":85349,"name":"Bakhri Ahmad Khan","stateId":3176,"stateCode":"PB","stateName":"Punjab","countryId":167,"countryCode":"PK","countryName":"Pakistan","latitude":"30.73586000","longitude":"70.83796000","wikiDataId":"Q318156"},{"id":85354,"name":"Basirpur","stateId":3176,"stateCode":"PB","stateName":"Punjab","countryId":167,"countryCode":"PK","countryName":"Pakistan","latitude":"30.57759000","longitude":"73.83912000","wikiDataId":"Q2640339"},{"id":85355,"name":"Basti Dosa","stateId":3176,"stateCode":"PB","stateName":"Punjab","countryId":167,"countryCode":"PK","countryName":"Pakistan","latitude":"30.78769000","longitude":"70.86853000","wikiDataId":"Q2640339"},{"id":85359,"name":"Begowala","stateId":3176,"stateCode":"PB","stateName":"Punjab","countryId":167,"countryCode":"PK","countryName":"Pakistan","latitude":"32.43816000","longitude":"74.26794000","wikiDataId":"Q3240074"},{"id":85363,"name":"Bhakkar","stateId":3176,"stateCode":"PB","stateName":"Punjab","countryId":167,"countryCode":"PK","countryName":"Pakistan","latitude":"31.62685000","longitude":"71.06471000","wikiDataId":"Q2428259"},{"id":85364,"name":"Bhalwal","stateId":3176,"stateCode":"PB","stateName":"Punjab","countryId":167,"countryCode":"PK","countryName":"Pakistan","latitude":"32.26576000","longitude":"72.89809000","wikiDataId":"Q2791141"},{"id":85366,"name":"Bhawana","stateId":3176,"stateCode":"PB","stateName":"Punjab","countryId":167,"countryCode":"PK","countryName":"Pakistan","latitude":"31.56884000","longitude":"72.64917000","wikiDataId":"Q854934"},{"id":85367,"name":"Bhera","stateId":3176,"stateCode":"PB","stateName":"Punjab","countryId":167,"countryCode":"PK","countryName":"Pakistan","latitude":"32.48206000","longitude":"72.90865000","wikiDataId":"Q3777358"},{"id":85371,"name":"Bhopalwala","stateId":3176,"stateCode":"PB","stateName":"Punjab","countryId":167,"countryCode":"PK","countryName":"Pakistan","latitude":"32.42968000","longitude":"74.36350000","wikiDataId":"Q3631249"},{"id":85376,"name":"Burewala","stateId":3176,"stateCode":"PB","stateName":"Punjab","countryId":167,"countryCode":"PK","countryName":"Pakistan","latitude":"30.16667000","longitude":"72.65000000","wikiDataId":"Q250810"},{"id":85378,"name":"Chak Azam Saffo","stateId":3176,"stateCode":"PB","stateName":"Punjab","countryId":167,"countryCode":"PK","countryName":"Pakistan","latitude":"30.75202000","longitude":"73.02834000","wikiDataId":"Q250810"},{"id":85380,"name":"Chak Jhumra","stateId":3176,"stateCode":"PB","stateName":"Punjab","countryId":167,"countryCode":"PK","countryName":"Pakistan","latitude":"31.56808000","longitude":"73.18317000","wikiDataId":"Q250810"},{"id":85381,"name":"Chak One Hundred Twenty Nine Left","stateId":3176,"stateCode":"PB","stateName":"Punjab","countryId":167,"countryCode":"PK","countryName":"Pakistan","latitude":"30.42919000","longitude":"73.04522000","wikiDataId":"Q250810"},{"id":85382,"name":"Chak Thirty-one -Eleven Left","stateId":3176,"stateCode":"PB","stateName":"Punjab","countryId":167,"countryCode":"PK","countryName":"Pakistan","latitude":"30.42388000","longitude":"72.69737000","wikiDataId":"Q250810"},{"id":85383,"name":"Chak Two Hundred Forty-Nine TDA","stateId":3176,"stateCode":"PB","stateName":"Punjab","countryId":167,"countryCode":"PK","countryName":"Pakistan","latitude":"31.17772000","longitude":"71.20480000","wikiDataId":"Q250810"},{"id":85384,"name":"Chakwal","stateId":3176,"stateCode":"PB","stateName":"Punjab","countryId":167,"countryCode":"PK","countryName":"Pakistan","latitude":"32.93286000","longitude":"72.85394000","wikiDataId":"Q1251473"},{"id":85388,"name":"Chawinda","stateId":3176,"stateCode":"PB","stateName":"Punjab","countryId":167,"countryCode":"PK","countryName":"Pakistan","latitude":"32.34434000","longitude":"74.70507000","wikiDataId":"Q5088564"},{"id":85392,"name":"Chichawatni","stateId":3176,"stateCode":"PB","stateName":"Punjab","countryId":167,"countryCode":"PK","countryName":"Pakistan","latitude":"30.53010000","longitude":"72.69155000","wikiDataId":"Q3321325"},{"id":85393,"name":"Chiniot","stateId":3176,"stateCode":"PB","stateName":"Punjab","countryId":167,"countryCode":"PK","countryName":"Pakistan","latitude":"31.72091000","longitude":"72.97836000","wikiDataId":"Q1017651"},{"id":85394,"name":"Chishtian","stateId":3176,"stateCode":"PB","stateName":"Punjab","countryId":167,"countryCode":"PK","countryName":"Pakistan","latitude":"29.79713000","longitude":"72.85772000","wikiDataId":"Q1250229"},{"id":85396,"name":"Choa Saidanshah","stateId":3176,"stateCode":"PB","stateName":"Punjab","countryId":167,"countryCode":"PK","countryName":"Pakistan","latitude":"32.71962000","longitude":"72.98625000","wikiDataId":"Q3311334"},{"id":143765,"name":"Chuhar Kana","stateId":3176,"stateCode":"PB","stateName":"Punjab","countryId":167,"countryCode":"PK","countryName":"Pakistan","latitude":"31.75000000","longitude":"73.80000000","wikiDataId":"Q34794713"},{"id":85400,"name":"Chunian","stateId":3176,"stateCode":"PB","stateName":"Punjab","countryId":167,"countryCode":"PK","countryName":"Pakistan","latitude":"30.96621000","longitude":"73.97908000","wikiDataId":"Q3695904"},{"id":85404,"name":"Daira Din Panah","stateId":3176,"stateCode":"PB","stateName":"Punjab","countryId":167,"countryCode":"PK","countryName":"Pakistan","latitude":"30.57053000","longitude":"70.93722000","wikiDataId":"Q1081635"},{"id":85405,"name":"Dajal","stateId":3176,"stateCode":"PB","stateName":"Punjab","countryId":167,"countryCode":"PK","countryName":"Pakistan","latitude":"29.55769000","longitude":"70.37614000","wikiDataId":"Q1081635"},{"id":85407,"name":"Dandot RS","stateId":3176,"stateCode":"PB","stateName":"Punjab","countryId":167,"countryCode":"PK","countryName":"Pakistan","latitude":"32.64167000","longitude":"72.97500000","wikiDataId":"Q3235682"},{"id":85409,"name":"Darya Khan","stateId":3176,"stateCode":"PB","stateName":"Punjab","countryId":167,"countryCode":"PK","countryName":"Pakistan","latitude":"31.78447000","longitude":"71.10197000","wikiDataId":"Q3321393"},{"id":85411,"name":"Daska","stateId":3176,"stateCode":"PB","stateName":"Punjab","countryId":167,"countryCode":"PK","countryName":"Pakistan","latitude":"32.32422000","longitude":"74.35039000","wikiDataId":"Q2374990"},{"id":143767,"name":"Daud Khel","stateId":3176,"stateCode":"PB","stateName":"Punjab","countryId":167,"countryCode":"PK","countryName":"Pakistan","latitude":"32.87498000","longitude":"71.57013000","wikiDataId":"Q49349071"},{"id":85414,"name":"Daultala","stateId":3176,"stateCode":"PB","stateName":"Punjab","countryId":167,"countryCode":"PK","countryName":"Pakistan","latitude":"33.19282000","longitude":"73.14099000","wikiDataId":"Q2374990"},{"id":85418,"name":"Dera Ghazi Khan","stateId":3176,"stateCode":"PB","stateName":"Punjab","countryId":167,"countryCode":"PK","countryName":"Pakistan","latitude":"30.04587000","longitude":"70.64029000","wikiDataId":"Q999076"},{"id":85421,"name":"Dhanot","stateId":3176,"stateCode":"PB","stateName":"Punjab","countryId":167,"countryCode":"PK","countryName":"Pakistan","latitude":"29.57991000","longitude":"71.75213000","wikiDataId":"Q284210"},{"id":85422,"name":"Dhaunkal","stateId":3176,"stateCode":"PB","stateName":"Punjab","countryId":167,"countryCode":"PK","countryName":"Pakistan","latitude":"32.40613000","longitude":"74.13706000","wikiDataId":"Q284210"},{"id":143766,"name":"Dhok Awan","stateId":3176,"stateCode":"PB","stateName":"Punjab","countryId":167,"countryCode":"PK","countryName":"Pakistan","latitude":"32.84452000","longitude":"72.52357000","wikiDataId":"Q34801696"},{"id":85425,"name":"Dijkot","stateId":3176,"stateCode":"PB","stateName":"Punjab","countryId":167,"countryCode":"PK","countryName":"Pakistan","latitude":"31.21735000","longitude":"72.99621000","wikiDataId":"Q5276491"},{"id":85426,"name":"Dinan Bashnoian Wala","stateId":3176,"stateCode":"PB","stateName":"Punjab","countryId":167,"countryCode":"PK","countryName":"Pakistan","latitude":"29.76584000","longitude":"73.26557000","wikiDataId":"Q5276491"},{"id":85427,"name":"Dinga","stateId":3176,"stateCode":"PB","stateName":"Punjab","countryId":167,"countryCode":"PK","countryName":"Pakistan","latitude":"32.64101000","longitude":"73.72039000","wikiDataId":"Q5278157"},{"id":85428,"name":"Dipalpur","stateId":3176,"stateCode":"PB","stateName":"Punjab","countryId":167,"countryCode":"PK","countryName":"Pakistan","latitude":"30.66984000","longitude":"73.65306000","wikiDataId":"Q2985681"},{"id":85433,"name":"Dullewala","stateId":3176,"stateCode":"PB","stateName":"Punjab","countryId":167,"countryCode":"PK","countryName":"Pakistan","latitude":"31.83439000","longitude":"71.43639000","wikiDataId":"Q3694406"},{"id":85434,"name":"Dunga Bunga","stateId":3176,"stateCode":"PB","stateName":"Punjab","countryId":167,"countryCode":"PK","countryName":"Pakistan","latitude":"29.74975000","longitude":"73.24294000","wikiDataId":"Q1985683"},{"id":85435,"name":"Dunyapur","stateId":3176,"stateCode":"PB","stateName":"Punjab","countryId":167,"countryCode":"PK","countryName":"Pakistan","latitude":"29.80275000","longitude":"71.74344000","wikiDataId":"Q1985683"},{"id":85436,"name":"Eminabad","stateId":3176,"stateCode":"PB","stateName":"Punjab","countryId":167,"countryCode":"PK","countryName":"Pakistan","latitude":"32.04237000","longitude":"74.25996000","wikiDataId":"Q5372475"},{"id":85437,"name":"Faisalabad","stateId":3176,"stateCode":"PB","stateName":"Punjab","countryId":167,"countryCode":"PK","countryName":"Pakistan","latitude":"31.41554000","longitude":"73.08969000","wikiDataId":"Q173985"},{"id":85438,"name":"Faqirwali","stateId":3176,"stateCode":"PB","stateName":"Punjab","countryId":167,"countryCode":"PK","countryName":"Pakistan","latitude":"29.46799000","longitude":"73.03489000","wikiDataId":"Q5434470"},{"id":85439,"name":"Faruka","stateId":3176,"stateCode":"PB","stateName":"Punjab","countryId":167,"countryCode":"PK","countryName":"Pakistan","latitude":"31.88642000","longitude":"72.41362000","wikiDataId":"Q5434470"},{"id":85440,"name":"Fazilpur","stateId":3176,"stateCode":"PB","stateName":"Punjab","countryId":167,"countryCode":"PK","countryName":"Pakistan","latitude":"32.17629000","longitude":"75.06583000","wikiDataId":"Q5434470"},{"id":143768,"name":"Ferozewala","stateId":3176,"stateCode":"PB","stateName":"Punjab","countryId":167,"countryCode":"PK","countryName":"Pakistan","latitude":"29.30000000","longitude":"70.43333333","wikiDataId":"Q5445217"},{"id":85441,"name":"Fort Abbas","stateId":3176,"stateCode":"PB","stateName":"Punjab","countryId":167,"countryCode":"PK","countryName":"Pakistan","latitude":"29.19344000","longitude":"72.85525000","wikiDataId":"Q3246255"},{"id":85444,"name":"Garh Maharaja","stateId":3176,"stateCode":"PB","stateName":"Punjab","countryId":167,"countryCode":"PK","countryName":"Pakistan","latitude":"30.83383000","longitude":"71.90491000","wikiDataId":"Q984103"},{"id":85451,"name":"Gojra","stateId":3176,"stateCode":"PB","stateName":"Punjab","countryId":167,"countryCode":"PK","countryName":"Pakistan","latitude":"31.14926000","longitude":"72.68323000","wikiDataId":"Q609024"},{"id":85455,"name":"Gujar Khan","stateId":3176,"stateCode":"PB","stateName":"Punjab","countryId":167,"countryCode":"PK","countryName":"Pakistan","latitude":"33.25411000","longitude":"73.30433000","wikiDataId":"Q3049021"},{"id":85456,"name":"Gujranwala","stateId":3176,"stateCode":"PB","stateName":"Punjab","countryId":167,"countryCode":"PK","countryName":"Pakistan","latitude":"32.15567000","longitude":"74.18705000","wikiDataId":"Q243322"},{"id":143769,"name":"Gujranwala Division","stateId":3176,"stateCode":"PB","stateName":"Punjab","countryId":167,"countryCode":"PK","countryName":"Pakistan","latitude":"32.45000000","longitude":"74.13333000","wikiDataId":"Q12858404"},{"id":85457,"name":"Gujrat","stateId":3176,"stateCode":"PB","stateName":"Punjab","countryId":167,"countryCode":"PK","countryName":"Pakistan","latitude":"32.57420000","longitude":"74.07542000","wikiDataId":"Q243322"},{"id":85460,"name":"Hadali","stateId":3176,"stateCode":"PB","stateName":"Punjab","countryId":167,"countryCode":"PK","countryName":"Pakistan","latitude":"32.64043000","longitude":"74.56898000","wikiDataId":"Q580533"},{"id":85461,"name":"Hafizabad","stateId":3176,"stateCode":"PB","stateName":"Punjab","countryId":167,"countryCode":"PK","countryName":"Pakistan","latitude":"32.07095000","longitude":"73.68802000","wikiDataId":"Q1253663"},{"id":85466,"name":"Harnoli","stateId":3176,"stateCode":"PB","stateName":"Punjab","countryId":167,"countryCode":"PK","countryName":"Pakistan","latitude":"32.27871000","longitude":"71.55429000","wikiDataId":"Q2995546"},{"id":85467,"name":"Harunabad","stateId":3176,"stateCode":"PB","stateName":"Punjab","countryId":167,"countryCode":"PK","countryName":"Pakistan","latitude":"29.61206000","longitude":"73.13802000","wikiDataId":"Q2995546"},{"id":143770,"name":"Hasan Abdal","stateId":3176,"stateCode":"PB","stateName":"Punjab","countryId":167,"countryCode":"PK","countryName":"Pakistan","latitude":"33.81948611","longitude":"72.68902778","wikiDataId":"Q71037"},{"id":85468,"name":"Hasilpur","stateId":3176,"stateCode":"PB","stateName":"Punjab","countryId":167,"countryCode":"PK","countryName":"Pakistan","latitude":"29.69221000","longitude":"72.54566000","wikiDataId":"Q2603403"},{"id":85469,"name":"Haveli Lakha","stateId":3176,"stateCode":"PB","stateName":"Punjab","countryId":167,"countryCode":"PK","countryName":"Pakistan","latitude":"30.45097000","longitude":"73.69371000","wikiDataId":"Q2603403"},{"id":85471,"name":"Hazro","stateId":3176,"stateCode":"PB","stateName":"Punjab","countryId":167,"countryCode":"PK","countryName":"Pakistan","latitude":"33.90990000","longitude":"72.49179000","wikiDataId":"Q3695085"},{"id":85473,"name":"Hujra Shah Muqeem","stateId":3176,"stateCode":"PB","stateName":"Punjab","countryId":167,"countryCode":"PK","countryName":"Pakistan","latitude":"30.74168000","longitude":"73.82327000","wikiDataId":"Q3776565"},{"id":85478,"name":"Jahanian Shah","stateId":3176,"stateCode":"PB","stateName":"Punjab","countryId":167,"countryCode":"PK","countryName":"Pakistan","latitude":"31.80541000","longitude":"72.27740000","wikiDataId":"Q1017696"},{"id":85479,"name":"Jalalpur Jattan","stateId":3176,"stateCode":"PB","stateName":"Punjab","countryId":167,"countryCode":"PK","countryName":"Pakistan","latitude":"32.64118000","longitude":"74.20561000","wikiDataId":"Q954036"},{"id":85480,"name":"Jalalpur Pirwala","stateId":3176,"stateCode":"PB","stateName":"Punjab","countryId":167,"countryCode":"PK","countryName":"Pakistan","latitude":"29.50510000","longitude":"71.22202000","wikiDataId":"Q3695832"},{"id":85481,"name":"Jampur","stateId":3176,"stateCode":"PB","stateName":"Punjab","countryId":167,"countryCode":"PK","countryName":"Pakistan","latitude":"29.64235000","longitude":"70.59518000","wikiDataId":"Q3695832"},{"id":85483,"name":"Jand","stateId":3176,"stateCode":"PB","stateName":"Punjab","countryId":167,"countryCode":"PK","countryName":"Pakistan","latitude":"33.43304000","longitude":"72.01877000","wikiDataId":"Q112817"},{"id":85484,"name":"Jandiala Sher Khan","stateId":3176,"stateCode":"PB","stateName":"Punjab","countryId":167,"countryCode":"PK","countryName":"Pakistan","latitude":"31.82098000","longitude":"73.91815000","wikiDataId":"Q6150959"},{"id":85485,"name":"Jaranwala","stateId":3176,"stateCode":"PB","stateName":"Punjab","countryId":167,"countryCode":"PK","countryName":"Pakistan","latitude":"31.33320000","longitude":"73.41868000","wikiDataId":"Q1251242"},{"id":85487,"name":"Jatoi Shimali","stateId":3176,"stateCode":"PB","stateName":"Punjab","countryId":167,"countryCode":"PK","countryName":"Pakistan","latitude":"29.51827000","longitude":"70.84474000","wikiDataId":"Q1251242"},{"id":85488,"name":"Jauharabad","stateId":3176,"stateCode":"PB","stateName":"Punjab","countryId":167,"countryCode":"PK","countryName":"Pakistan","latitude":"32.29016000","longitude":"72.28182000","wikiDataId":"Q3075413"},{"id":85490,"name":"Jhang","stateId":3176,"stateCode":"PB","stateName":"Punjab","countryId":167,"countryCode":"PK","countryName":"Pakistan","latitude":"31.30568000","longitude":"72.32594000","wikiDataId":"Q1026616"},{"id":85491,"name":"Jhang Sadar","stateId":3176,"stateCode":"PB","stateName":"Punjab","countryId":167,"countryCode":"PK","countryName":"Pakistan","latitude":"31.26981000","longitude":"72.31687000","wikiDataId":"Q6190853"},{"id":85492,"name":"Jhawarian","stateId":3176,"stateCode":"PB","stateName":"Punjab","countryId":167,"countryCode":"PK","countryName":"Pakistan","latitude":"32.36192000","longitude":"72.62275000","wikiDataId":"Q6190853"},{"id":85493,"name":"Jhelum","stateId":3176,"stateCode":"PB","stateName":"Punjab","countryId":167,"countryCode":"PK","countryName":"Pakistan","latitude":"32.93448000","longitude":"73.73102000","wikiDataId":"Q121551"},{"id":85499,"name":"Kabirwala","stateId":3176,"stateCode":"PB","stateName":"Punjab","countryId":167,"countryCode":"PK","countryName":"Pakistan","latitude":"30.40472000","longitude":"71.86269000","wikiDataId":"Q595921"},{"id":85501,"name":"Kahna Nau","stateId":3176,"stateCode":"PB","stateName":"Punjab","countryId":167,"countryCode":"PK","countryName":"Pakistan","latitude":"31.36709000","longitude":"74.36899000","wikiDataId":"Q10313603"},{"id":85503,"name":"Kahuta","stateId":3176,"stateCode":"PB","stateName":"Punjab","countryId":167,"countryCode":"PK","countryName":"Pakistan","latitude":"33.59183000","longitude":"73.38736000","wikiDataId":"Q988103"},{"id":85505,"name":"Kalabagh","stateId":3176,"stateCode":"PB","stateName":"Punjab","countryId":167,"countryCode":"PK","countryName":"Pakistan","latitude":"32.96164000","longitude":"71.54638000","wikiDataId":"Q1542553"},{"id":85506,"name":"Kalaswala","stateId":3176,"stateCode":"PB","stateName":"Punjab","countryId":167,"countryCode":"PK","countryName":"Pakistan","latitude":"32.20081000","longitude":"74.64858000","wikiDataId":"Q1542553"},{"id":85508,"name":"Kaleke Mandi","stateId":3176,"stateCode":"PB","stateName":"Punjab","countryId":167,"countryCode":"PK","countryName":"Pakistan","latitude":"31.97597000","longitude":"73.59999000","wikiDataId":"Q1542553"},{"id":85509,"name":"Kallar Kahar","stateId":3176,"stateCode":"PB","stateName":"Punjab","countryId":167,"countryCode":"PK","countryName":"Pakistan","latitude":"32.77998000","longitude":"72.69793000","wikiDataId":"Q797139"},{"id":85510,"name":"Kalur Kot","stateId":3176,"stateCode":"PB","stateName":"Punjab","countryId":167,"countryCode":"PK","countryName":"Pakistan","latitude":"32.15512000","longitude":"71.26631000","wikiDataId":"Q797139"},{"id":85512,"name":"Kamalia","stateId":3176,"stateCode":"PB","stateName":"Punjab","countryId":167,"countryCode":"PK","countryName":"Pakistan","latitude":"30.72708000","longitude":"72.64607000","wikiDataId":"Q2573596"},{"id":85513,"name":"Kamar Mushani","stateId":3176,"stateCode":"PB","stateName":"Punjab","countryId":167,"countryCode":"PK","countryName":"Pakistan","latitude":"32.84318000","longitude":"71.36192000","wikiDataId":"Q15233153"},{"id":85515,"name":"Kamoke","stateId":3176,"stateCode":"PB","stateName":"Punjab","countryId":167,"countryCode":"PK","countryName":"Pakistan","latitude":"31.97526000","longitude":"74.22304000","wikiDataId":"Q1260929"},{"id":85516,"name":"Kamra","stateId":3176,"stateCode":"PB","stateName":"Punjab","countryId":167,"countryCode":"PK","countryName":"Pakistan","latitude":"33.74698000","longitude":"73.51229000","wikiDataId":"Q1260929"},{"id":85520,"name":"Kanganpur","stateId":3176,"stateCode":"PB","stateName":"Punjab","countryId":167,"countryCode":"PK","countryName":"Pakistan","latitude":"30.76468000","longitude":"74.12286000","wikiDataId":"Q6362466"},{"id":85525,"name":"Karor","stateId":3176,"stateCode":"PB","stateName":"Punjab","countryId":167,"countryCode":"PK","countryName":"Pakistan","latitude":"31.22460000","longitude":"70.95153000","wikiDataId":"Q2579936"},{"id":85527,"name":"Kasur","stateId":3176,"stateCode":"PB","stateName":"Punjab","countryId":167,"countryCode":"PK","countryName":"Pakistan","latitude":"31.11866000","longitude":"74.45025000","wikiDataId":"Q2625917"},{"id":85528,"name":"Keshupur","stateId":3176,"stateCode":"PB","stateName":"Punjab","countryId":167,"countryCode":"PK","countryName":"Pakistan","latitude":"32.26000000","longitude":"72.50000000","wikiDataId":"Q2625917"},{"id":85535,"name":"Khairpur Tamiwali","stateId":3176,"stateCode":"PB","stateName":"Punjab","countryId":167,"countryCode":"PK","countryName":"Pakistan","latitude":"29.58139000","longitude":"72.23804000","wikiDataId":"Q1179634"},{"id":85537,"name":"Khandowa","stateId":3176,"stateCode":"PB","stateName":"Punjab","countryId":167,"countryCode":"PK","countryName":"Pakistan","latitude":"32.74255000","longitude":"72.73478000","wikiDataId":"Q1179634"},{"id":85538,"name":"Khanewal","stateId":3176,"stateCode":"PB","stateName":"Punjab","countryId":167,"countryCode":"PK","countryName":"Pakistan","latitude":"30.30173000","longitude":"71.93212000","wikiDataId":"Q1253395"},{"id":85539,"name":"Khanga Dogran","stateId":3176,"stateCode":"PB","stateName":"Punjab","countryId":167,"countryCode":"PK","countryName":"Pakistan","latitude":"31.83294000","longitude":"73.62213000","wikiDataId":"Q1253395"},{"id":85540,"name":"Khangarh","stateId":3176,"stateCode":"PB","stateName":"Punjab","countryId":167,"countryCode":"PK","countryName":"Pakistan","latitude":"29.91446000","longitude":"71.16067000","wikiDataId":"Q1253395"},{"id":85541,"name":"Khanpur","stateId":3176,"stateCode":"PB","stateName":"Punjab","countryId":167,"countryCode":"PK","countryName":"Pakistan","latitude":"28.64739000","longitude":"70.65694000","wikiDataId":"Q1250097"},{"id":85544,"name":"Kharian","stateId":3176,"stateCode":"PB","stateName":"Punjab","countryId":167,"countryCode":"PK","countryName":"Pakistan","latitude":"32.81612000","longitude":"73.88697000","wikiDataId":"Q3696367"},{"id":85545,"name":"Khewra","stateId":3176,"stateCode":"PB","stateName":"Punjab","countryId":167,"countryCode":"PK","countryName":"Pakistan","latitude":"32.64910000","longitude":"73.01059000","wikiDataId":"Q3696036"},{"id":85546,"name":"Khurrianwala","stateId":3176,"stateCode":"PB","stateName":"Punjab","countryId":167,"countryCode":"PK","countryName":"Pakistan","latitude":"31.49936000","longitude":"73.26763000","wikiDataId":"Q6403122"},{"id":85547,"name":"Khushab","stateId":3176,"stateCode":"PB","stateName":"Punjab","countryId":167,"countryCode":"PK","countryName":"Pakistan","latitude":"32.29667000","longitude":"72.35250000","wikiDataId":"Q1249939"},{"id":143771,"name":"Kohror Pakka","stateId":3176,"stateCode":"PB","stateName":"Punjab","countryId":167,"countryCode":"PK","countryName":"Pakistan","latitude":"29.62382000","longitude":"71.91673000","wikiDataId":"Q35698055"},{"id":85553,"name":"Kot Addu Tehsil","stateId":3176,"stateCode":"PB","stateName":"Punjab","countryId":167,"countryCode":"PK","countryName":"Pakistan","latitude":"30.46907000","longitude":"70.96699000","wikiDataId":"Q1260951"},{"id":85555,"name":"Kot Ghulam Muhammad","stateId":3176,"stateCode":"PB","stateName":"Punjab","countryId":167,"countryCode":"PK","countryName":"Pakistan","latitude":"32.33311000","longitude":"74.54694000","wikiDataId":"Q1017084"},{"id":85557,"name":"Kot Mumin","stateId":3176,"stateCode":"PB","stateName":"Punjab","countryId":167,"countryCode":"PK","countryName":"Pakistan","latitude":"32.18843000","longitude":"73.02987000","wikiDataId":"Q1017084"},{"id":85558,"name":"Kot Radha Kishan","stateId":3176,"stateCode":"PB","stateName":"Punjab","countryId":167,"countryCode":"PK","countryName":"Pakistan","latitude":"31.17068000","longitude":"74.10126000","wikiDataId":"Q1017084"},{"id":85559,"name":"Kot Rajkour","stateId":3176,"stateCode":"PB","stateName":"Punjab","countryId":167,"countryCode":"PK","countryName":"Pakistan","latitude":"32.41208000","longitude":"74.62855000","wikiDataId":"Q1017084"},{"id":85560,"name":"Kot Samaba","stateId":3176,"stateCode":"PB","stateName":"Punjab","countryId":167,"countryCode":"PK","countryName":"Pakistan","latitude":"28.55207000","longitude":"70.46837000","wikiDataId":"Q1017084"},{"id":85561,"name":"Kot Sultan","stateId":3176,"stateCode":"PB","stateName":"Punjab","countryId":167,"countryCode":"PK","countryName":"Pakistan","latitude":"30.77370000","longitude":"70.93125000","wikiDataId":"Q1017084"},{"id":85564,"name":"Kotli Loharan","stateId":3176,"stateCode":"PB","stateName":"Punjab","countryId":167,"countryCode":"PK","countryName":"Pakistan","latitude":"32.58893000","longitude":"74.49466000","wikiDataId":"Q2571465"},{"id":85567,"name":"Kundian","stateId":3176,"stateCode":"PB","stateName":"Punjab","countryId":167,"countryCode":"PK","countryName":"Pakistan","latitude":"32.45775000","longitude":"71.47892000","wikiDataId":"Q951628"},{"id":85568,"name":"Kunjah","stateId":3176,"stateCode":"PB","stateName":"Punjab","countryId":167,"countryCode":"PK","countryName":"Pakistan","latitude":"32.52982000","longitude":"73.97486000","wikiDataId":"Q951628"},{"id":85571,"name":"Ladhewala Waraich","stateId":3176,"stateCode":"PB","stateName":"Punjab","countryId":167,"countryCode":"PK","countryName":"Pakistan","latitude":"32.15692000","longitude":"74.11564000","wikiDataId":"Q951628"},{"id":85572,"name":"Lahore","stateId":3176,"stateCode":"PB","stateName":"Punjab","countryId":167,"countryCode":"PK","countryName":"Pakistan","latitude":"31.55800000","longitude":"74.35071000","wikiDataId":"Q11739"},{"id":85575,"name":"Lala Musa","stateId":3176,"stateCode":"PB","stateName":"Punjab","countryId":167,"countryCode":"PK","countryName":"Pakistan","latitude":"32.70138000","longitude":"73.95746000","wikiDataId":"Q3695697"},{"id":85576,"name":"Lalian","stateId":3176,"stateCode":"PB","stateName":"Punjab","countryId":167,"countryCode":"PK","countryName":"Pakistan","latitude":"31.82462000","longitude":"72.80116000","wikiDataId":"Q3298223"},{"id":85580,"name":"Layyah","stateId":3176,"stateCode":"PB","stateName":"Punjab","countryId":167,"countryCode":"PK","countryName":"Pakistan","latitude":"30.96128000","longitude":"70.93904000","wikiDataId":"Q44942"},{"id":85581,"name":"Layyah District","stateId":3176,"stateCode":"PB","stateName":"Punjab","countryId":167,"countryCode":"PK","countryName":"Pakistan","latitude":"30.96800000","longitude":"70.94300000","wikiDataId":"Q2418995"},{"id":85582,"name":"Liliani","stateId":3176,"stateCode":"PB","stateName":"Punjab","countryId":167,"countryCode":"PK","countryName":"Pakistan","latitude":"32.20393000","longitude":"72.95120000","wikiDataId":"Q2418995"},{"id":85583,"name":"Lodhran","stateId":3176,"stateCode":"PB","stateName":"Punjab","countryId":167,"countryCode":"PK","countryName":"Pakistan","latitude":"29.53390000","longitude":"71.63244000","wikiDataId":"Q1249783"},{"id":85588,"name":"Mailsi","stateId":3176,"stateCode":"PB","stateName":"Punjab","countryId":167,"countryCode":"PK","countryName":"Pakistan","latitude":"29.80123000","longitude":"72.17398000","wikiDataId":"Q3695872"},{"id":85589,"name":"Malakwal","stateId":3176,"stateCode":"PB","stateName":"Punjab","countryId":167,"countryCode":"PK","countryName":"Pakistan","latitude":"32.55449000","longitude":"73.21274000","wikiDataId":"Q446394"},{"id":85590,"name":"Malakwal City","stateId":3176,"stateCode":"PB","stateName":"Punjab","countryId":167,"countryCode":"PK","countryName":"Pakistan","latitude":"32.55492000","longitude":"73.21220000","wikiDataId":"Q446394"},{"id":85592,"name":"Mamu Kanjan","stateId":3176,"stateCode":"PB","stateName":"Punjab","countryId":167,"countryCode":"PK","countryName":"Pakistan","latitude":"30.83044000","longitude":"72.79943000","wikiDataId":"Q6745993"},{"id":85593,"name":"Mananwala","stateId":3176,"stateCode":"PB","stateName":"Punjab","countryId":167,"countryCode":"PK","countryName":"Pakistan","latitude":"31.58803000","longitude":"73.68927000","wikiDataId":"Q6745993"},{"id":85594,"name":"Mandi Bahauddin","stateId":3176,"stateCode":"PB","stateName":"Punjab","countryId":167,"countryCode":"PK","countryName":"Pakistan","latitude":"32.58704000","longitude":"73.49123000","wikiDataId":"Q6745993"},{"id":143772,"name":"Mandi Bahauddin District","stateId":3176,"stateCode":"PB","stateName":"Punjab","countryId":167,"countryCode":"PK","countryName":"Pakistan","latitude":"32.58333333","longitude":"73.50000000","wikiDataId":"Q2419031"},{"id":85595,"name":"Mangla","stateId":3176,"stateCode":"PB","stateName":"Punjab","countryId":167,"countryCode":"PK","countryName":"Pakistan","latitude":"31.89306000","longitude":"72.38167000","wikiDataId":"Q6745993"},{"id":85596,"name":"Mankera","stateId":3176,"stateCode":"PB","stateName":"Punjab","countryId":167,"countryCode":"PK","countryName":"Pakistan","latitude":"31.38771000","longitude":"71.44047000","wikiDataId":"Q3695856"},{"id":85604,"name":"Mehmand Chak","stateId":3176,"stateCode":"PB","stateName":"Punjab","countryId":167,"countryCode":"PK","countryName":"Pakistan","latitude":"32.78518000","longitude":"73.82306000","wikiDataId":"Q112453"},{"id":85606,"name":"Mian Channun","stateId":3176,"stateCode":"PB","stateName":"Punjab","countryId":167,"countryCode":"PK","countryName":"Pakistan","latitude":"30.44067000","longitude":"72.35679000","wikiDataId":"Q4311575"},{"id":85607,"name":"Mianke Mor","stateId":3176,"stateCode":"PB","stateName":"Punjab","countryId":167,"countryCode":"PK","countryName":"Pakistan","latitude":"31.20240000","longitude":"73.94857000","wikiDataId":"Q4311575"},{"id":85608,"name":"Mianwali","stateId":3176,"stateCode":"PB","stateName":"Punjab","countryId":167,"countryCode":"PK","countryName":"Pakistan","latitude":"32.57756000","longitude":"71.52847000","wikiDataId":"Q3307925"},{"id":85609,"name":"Minchinabad","stateId":3176,"stateCode":"PB","stateName":"Punjab","countryId":167,"countryCode":"PK","countryName":"Pakistan","latitude":"30.16356000","longitude":"73.56858000","wikiDataId":"Q3695838"},{"id":85619,"name":"Mitha Tiwana","stateId":3176,"stateCode":"PB","stateName":"Punjab","countryId":167,"countryCode":"PK","countryName":"Pakistan","latitude":"32.24540000","longitude":"72.10615000","wikiDataId":"Q1020490"},{"id":85622,"name":"Moza Shahwala","stateId":3176,"stateCode":"PB","stateName":"Punjab","countryId":167,"countryCode":"PK","countryName":"Pakistan","latitude":"30.80563000","longitude":"70.84911000","wikiDataId":"Q3246442"},{"id":85623,"name":"Multan","stateId":3176,"stateCode":"PB","stateName":"Punjab","countryId":167,"countryCode":"PK","countryName":"Pakistan","latitude":"30.19679000","longitude":"71.47824000","wikiDataId":"Q185453"},{"id":143773,"name":"Multan District","stateId":3176,"stateCode":"PB","stateName":"Punjab","countryId":167,"countryCode":"PK","countryName":"Pakistan","latitude":"30.08333333","longitude":"71.66666667","wikiDataId":"Q2281168"},{"id":85624,"name":"Muridke","stateId":3176,"stateCode":"PB","stateName":"Punjab","countryId":167,"countryCode":"PK","countryName":"Pakistan","latitude":"31.80258000","longitude":"74.25772000","wikiDataId":"Q2978509"},{"id":85625,"name":"Murree","stateId":3176,"stateCode":"PB","stateName":"Punjab","countryId":167,"countryCode":"PK","countryName":"Pakistan","latitude":"33.90836000","longitude":"73.39030000","wikiDataId":"Q1020224"},{"id":85626,"name":"Mustafabad","stateId":3176,"stateCode":"PB","stateName":"Punjab","countryId":167,"countryCode":"PK","countryName":"Pakistan","latitude":"30.89222000","longitude":"73.49889000","wikiDataId":"Q1020224"},{"id":85627,"name":"Muzaffargarh","stateId":3176,"stateCode":"PB","stateName":"Punjab","countryId":167,"countryCode":"PK","countryName":"Pakistan","latitude":"30.07258000","longitude":"71.19379000","wikiDataId":"Q301627"},{"id":85631,"name":"Nankana Sahib","stateId":3176,"stateCode":"PB","stateName":"Punjab","countryId":167,"countryCode":"PK","countryName":"Pakistan","latitude":"31.45010000","longitude":"73.70653000","wikiDataId":"Q2353077"},{"id":85632,"name":"Narang Mandi","stateId":3176,"stateCode":"PB","stateName":"Punjab","countryId":167,"countryCode":"PK","countryName":"Pakistan","latitude":"31.90376000","longitude":"74.51587000","wikiDataId":"Q6965345"},{"id":85633,"name":"Narowal","stateId":3176,"stateCode":"PB","stateName":"Punjab","countryId":167,"countryCode":"PK","countryName":"Pakistan","latitude":"32.10197000","longitude":"74.87303000","wikiDataId":"Q2977081"},{"id":85638,"name":"Naushahra Virkan","stateId":3176,"stateCode":"PB","stateName":"Punjab","countryId":167,"countryCode":"PK","countryName":"Pakistan","latitude":"31.96258000","longitude":"73.97117000","wikiDataId":"Q3695612"},{"id":85641,"name":"Nazir Town","stateId":3176,"stateCode":"PB","stateName":"Punjab","countryId":167,"countryCode":"PK","countryName":"Pakistan","latitude":"33.30614000","longitude":"73.48330000","wikiDataId":"Q1017637"},{"id":85650,"name":"Okara","stateId":3176,"stateCode":"PB","stateName":"Punjab","countryId":167,"countryCode":"PK","countryName":"Pakistan","latitude":"30.81029000","longitude":"73.45155000","wikiDataId":"Q968211"},{"id":143774,"name":"Pakki Shagwanwali","stateId":3176,"stateCode":"PB","stateName":"Punjab","countryId":167,"countryCode":"PK","countryName":"Pakistan","latitude":"30.79033000","longitude":"70.87139000","wikiDataId":"Q33471024"},{"id":85655,"name":"Pakpattan","stateId":3176,"stateCode":"PB","stateName":"Punjab","countryId":167,"countryCode":"PK","countryName":"Pakistan","latitude":"30.34314000","longitude":"73.38944000","wikiDataId":"Q1249801"},{"id":85659,"name":"Pasrur","stateId":3176,"stateCode":"PB","stateName":"Punjab","countryId":167,"countryCode":"PK","countryName":"Pakistan","latitude":"32.26286000","longitude":"74.66327000","wikiDataId":"Q3246361"},{"id":85660,"name":"Pattoki","stateId":3176,"stateCode":"PB","stateName":"Punjab","countryId":167,"countryCode":"PK","countryName":"Pakistan","latitude":"31.02021000","longitude":"73.85333000","wikiDataId":"Q2592708"},{"id":85662,"name":"Phalia","stateId":3176,"stateCode":"PB","stateName":"Punjab","countryId":167,"countryCode":"PK","countryName":"Pakistan","latitude":"32.43104000","longitude":"73.57900000","wikiDataId":"Q3696336"},{"id":85663,"name":"Pind Dadan Khan","stateId":3176,"stateCode":"PB","stateName":"Punjab","countryId":167,"countryCode":"PK","countryName":"Pakistan","latitude":"32.58662000","longitude":"73.04456000","wikiDataId":"Q3696336"},{"id":85664,"name":"Pindi Bhattian","stateId":3176,"stateCode":"PB","stateName":"Punjab","countryId":167,"countryCode":"PK","countryName":"Pakistan","latitude":"31.89844000","longitude":"73.27339000","wikiDataId":"Q7195018"},{"id":85665,"name":"Pindi Gheb","stateId":3176,"stateCode":"PB","stateName":"Punjab","countryId":167,"countryCode":"PK","countryName":"Pakistan","latitude":"33.24095000","longitude":"72.26480000","wikiDataId":"Q7195018"},{"id":85667,"name":"Pir Mahal","stateId":3176,"stateCode":"PB","stateName":"Punjab","countryId":167,"countryCode":"PK","countryName":"Pakistan","latitude":"30.76663000","longitude":"72.43455000","wikiDataId":"Q7195018"},{"id":85670,"name":"Qadirpur Ran","stateId":3176,"stateCode":"PB","stateName":"Punjab","countryId":167,"countryCode":"PK","countryName":"Pakistan","latitude":"30.29184000","longitude":"71.67164000","wikiDataId":"Q7265783"},{"id":143775,"name":"Qila Didar Singh","stateId":3176,"stateCode":"PB","stateName":"Punjab","countryId":167,"countryCode":"PK","countryName":"Pakistan","latitude":"32.80000000","longitude":"74.10000000","wikiDataId":"Q7267726"},{"id":85389,"name":"Rabwah","stateId":3176,"stateCode":"PB","stateName":"Punjab","countryId":167,"countryCode":"PK","countryName":"Pakistan","latitude":"31.75511000","longitude":"72.91403000","wikiDataId":"Q1069835"},{"id":85674,"name":"Rahim Yar Khan","stateId":3176,"stateCode":"PB","stateName":"Punjab","countryId":167,"countryCode":"PK","countryName":"Pakistan","latitude":"28.41987000","longitude":"70.30345000","wikiDataId":"Q989297"},{"id":143776,"name":"Rahimyar Khan District","stateId":3176,"stateCode":"PB","stateName":"Punjab","countryId":167,"countryCode":"PK","countryName":"Pakistan","latitude":"28.46020000","longitude":"70.52837000","wikiDataId":"Q2639823"},{"id":85675,"name":"Raiwind","stateId":3176,"stateCode":"PB","stateName":"Punjab","countryId":167,"countryCode":"PK","countryName":"Pakistan","latitude":"31.24895000","longitude":"74.21534000","wikiDataId":"Q4688896"},{"id":85676,"name":"Raja Jang","stateId":3176,"stateCode":"PB","stateName":"Punjab","countryId":167,"countryCode":"PK","countryName":"Pakistan","latitude":"31.22078000","longitude":"74.25483000","wikiDataId":"Q7285457"},{"id":85677,"name":"Rajanpur","stateId":3176,"stateCode":"PB","stateName":"Punjab","countryId":167,"countryCode":"PK","countryName":"Pakistan","latitude":"29.10408000","longitude":"70.32969000","wikiDataId":"Q2998238"},{"id":85680,"name":"Rasulnagar","stateId":3176,"stateCode":"PB","stateName":"Punjab","countryId":167,"countryCode":"PK","countryName":"Pakistan","latitude":"32.32794000","longitude":"73.78040000","wikiDataId":"Q2998238"},{"id":85683,"name":"Rawalpindi","stateId":3176,"stateCode":"PB","stateName":"Punjab","countryId":167,"countryCode":"PK","countryName":"Pakistan","latitude":"33.59733000","longitude":"73.04790000","wikiDataId":"Q93230"},{"id":85684,"name":"Rawalpindi District","stateId":3176,"stateCode":"PB","stateName":"Punjab","countryId":167,"countryCode":"PK","countryName":"Pakistan","latitude":"33.42987000","longitude":"73.23092000","wikiDataId":"Q24440"},{"id":85685,"name":"Renala Khurd","stateId":3176,"stateCode":"PB","stateName":"Punjab","countryId":167,"countryCode":"PK","countryName":"Pakistan","latitude":"30.87878000","longitude":"73.59857000","wikiDataId":"Q3321405"},{"id":85688,"name":"Rojhan","stateId":3176,"stateCode":"PB","stateName":"Punjab","countryId":167,"countryCode":"PK","countryName":"Pakistan","latitude":"28.68735000","longitude":"69.95350000","wikiDataId":"Q33687"},{"id":85690,"name":"Sadiqabad","stateId":3176,"stateCode":"PB","stateName":"Punjab","countryId":167,"countryCode":"PK","countryName":"Pakistan","latitude":"28.30910000","longitude":"70.12652000","wikiDataId":"Q1251234"},{"id":85691,"name":"Sahiwal","stateId":3176,"stateCode":"PB","stateName":"Punjab","countryId":167,"countryCode":"PK","countryName":"Pakistan","latitude":"30.66595000","longitude":"73.10186000","wikiDataId":"Q523778"},{"id":85694,"name":"Sambrial","stateId":3176,"stateCode":"PB","stateName":"Punjab","countryId":167,"countryCode":"PK","countryName":"Pakistan","latitude":"32.47835000","longitude":"74.35338000","wikiDataId":"Q3246527"},{"id":85696,"name":"Sangla Hill","stateId":3176,"stateCode":"PB","stateName":"Punjab","countryId":167,"countryCode":"PK","countryName":"Pakistan","latitude":"31.71667000","longitude":"73.38333000","wikiDataId":"Q3248290"},{"id":85697,"name":"Sanjwal","stateId":3176,"stateCode":"PB","stateName":"Punjab","countryId":167,"countryCode":"PK","countryName":"Pakistan","latitude":"33.76105000","longitude":"72.43315000","wikiDataId":"Q33480741"},{"id":85699,"name":"Sarai Alamgir","stateId":3176,"stateCode":"PB","stateName":"Punjab","countryId":167,"countryCode":"PK","countryName":"Pakistan","latitude":"32.90495000","longitude":"73.75518000","wikiDataId":"Q3243456"},{"id":85701,"name":"Sarai Sidhu","stateId":3176,"stateCode":"PB","stateName":"Punjab","countryId":167,"countryCode":"PK","countryName":"Pakistan","latitude":"30.59476000","longitude":"71.96990000","wikiDataId":"Q33481932"},{"id":85702,"name":"Sargodha","stateId":3176,"stateCode":"PB","stateName":"Punjab","countryId":167,"countryCode":"PK","countryName":"Pakistan","latitude":"32.08586000","longitude":"72.67418000","wikiDataId":"Q855997"},{"id":143777,"name":"Shahkot Tehsil","stateId":3176,"stateCode":"PB","stateName":"Punjab","countryId":167,"countryCode":"PK","countryName":"Pakistan","latitude":"31.56166667","longitude":"73.48750000","wikiDataId":"Q3243491"},{"id":85709,"name":"Shahpur","stateId":3176,"stateCode":"PB","stateName":"Punjab","countryId":167,"countryCode":"PK","countryName":"Pakistan","latitude":"32.26820000","longitude":"72.46884000","wikiDataId":"Q33484369"},{"id":85711,"name":"Shahr Sultan","stateId":3176,"stateCode":"PB","stateName":"Punjab","countryId":167,"countryCode":"PK","countryName":"Pakistan","latitude":"29.57517000","longitude":"71.02209000","wikiDataId":"Q33483938"},{"id":85712,"name":"Shakargarh","stateId":3176,"stateCode":"PB","stateName":"Punjab","countryId":167,"countryCode":"PK","countryName":"Pakistan","latitude":"32.26361000","longitude":"75.16008000","wikiDataId":"Q33483959"},{"id":85713,"name":"Sharqpur","stateId":3176,"stateCode":"PB","stateName":"Punjab","countryId":167,"countryCode":"PK","countryName":"Pakistan","latitude":"31.46116000","longitude":"74.10091000","wikiDataId":"Q33484038"},{"id":85714,"name":"Sheikhupura","stateId":3176,"stateCode":"PB","stateName":"Punjab","countryId":167,"countryCode":"PK","countryName":"Pakistan","latitude":"31.71287000","longitude":"73.98556000","wikiDataId":"Q972756"},{"id":85708,"name":"Shorkot","stateId":3176,"stateCode":"PB","stateName":"Punjab","countryId":167,"countryCode":"PK","countryName":"Pakistan","latitude":"30.50000000","longitude":"72.40000000","wikiDataId":"Q7501510"},{"id":85719,"name":"Shujaabad","stateId":3176,"stateCode":"PB","stateName":"Punjab","countryId":167,"countryCode":"PK","countryName":"Pakistan","latitude":"29.88092000","longitude":"71.29344000","wikiDataId":"Q1250069"},{"id":85720,"name":"Sialkot","stateId":3176,"stateCode":"PB","stateName":"Punjab","countryId":167,"countryCode":"PK","countryName":"Pakistan","latitude":"32.49268000","longitude":"74.53134000","wikiDataId":"Q643883"},{"id":85722,"name":"Sillanwali","stateId":3176,"stateCode":"PB","stateName":"Punjab","countryId":167,"countryCode":"PK","countryName":"Pakistan","latitude":"31.82539000","longitude":"72.54064000","wikiDataId":"Q3694879"},{"id":85726,"name":"Sodhra","stateId":3176,"stateCode":"PB","stateName":"Punjab","countryId":167,"countryCode":"PK","countryName":"Pakistan","latitude":"32.46211000","longitude":"74.18207000","wikiDataId":"Q7553268"},{"id":85729,"name":"Sukheke Mandi","stateId":3176,"stateCode":"PB","stateName":"Punjab","countryId":167,"countryCode":"PK","countryName":"Pakistan","latitude":"31.86541000","longitude":"73.50875000","wikiDataId":"Q7635235"},{"id":85732,"name":"Surkhpur","stateId":3176,"stateCode":"PB","stateName":"Punjab","countryId":167,"countryCode":"PK","countryName":"Pakistan","latitude":"32.71816000","longitude":"74.44773000","wikiDataId":"Q868631"},{"id":85735,"name":"Talagang","stateId":3176,"stateCode":"PB","stateName":"Punjab","countryId":167,"countryCode":"PK","countryName":"Pakistan","latitude":"32.92766000","longitude":"72.41594000","wikiDataId":"Q2665241"},{"id":85736,"name":"Talamba","stateId":3176,"stateCode":"PB","stateName":"Punjab","countryId":167,"countryCode":"PK","countryName":"Pakistan","latitude":"30.52693000","longitude":"72.24079000","wikiDataId":"Q2665241"},{"id":85738,"name":"Tandlianwala","stateId":3176,"stateCode":"PB","stateName":"Punjab","countryId":167,"countryCode":"PK","countryName":"Pakistan","latitude":"31.03359000","longitude":"73.13268000","wikiDataId":"Q3695292"},{"id":85748,"name":"Taunsa","stateId":3176,"stateCode":"PB","stateName":"Punjab","countryId":167,"countryCode":"PK","countryName":"Pakistan","latitude":"30.70358000","longitude":"70.65054000","wikiDataId":"Q3243471"},{"id":85753,"name":"Toba Tek Singh","stateId":3176,"stateCode":"PB","stateName":"Punjab","countryId":167,"countryCode":"PK","countryName":"Pakistan","latitude":"30.97127000","longitude":"72.48275000","wikiDataId":"Q2659599"},{"id":143778,"name":"Umerkot","stateId":3176,"stateCode":"PB","stateName":"Punjab","countryId":167,"countryCode":"PK","countryName":"Pakistan","latitude":"25.36138889","longitude":"69.73611111","wikiDataId":"Q2625910"},{"id":85763,"name":"Vihari","stateId":3176,"stateCode":"PB","stateName":"Punjab","countryId":167,"countryCode":"PK","countryName":"Pakistan","latitude":"30.04450000","longitude":"72.35560000","wikiDataId":"Q2581505"},{"id":143779,"name":"Wah","stateId":3176,"stateCode":"PB","stateName":"Punjab","countryId":167,"countryCode":"PK","countryName":"Pakistan","latitude":"33.81000000","longitude":"72.70972222","wikiDataId":"Q2119444"},{"id":143780,"name":"Warburton","stateId":3176,"stateCode":"PB","stateName":"Punjab","countryId":167,"countryCode":"PK","countryName":"Pakistan","latitude":"31.55000000","longitude":"73.83330000","wikiDataId":"Q7968864"},{"id":85766,"name":"Wazirabad","stateId":3176,"stateCode":"PB","stateName":"Punjab","countryId":167,"countryCode":"PK","countryName":"Pakistan","latitude":"32.44324000","longitude":"74.12000000","wikiDataId":"Q1026613"},{"id":143781,"name":"West Punjab","stateId":3176,"stateCode":"PB","stateName":"Punjab","countryId":167,"countryCode":"PK","countryName":"Pakistan","latitude":"31.00000000","longitude":"72.00000000","wikiDataId":"Q3246245"},{"id":85767,"name":"Yazman","stateId":3176,"stateCode":"PB","stateName":"Punjab","countryId":167,"countryCode":"PK","countryName":"Pakistan","latitude":"29.12122000","longitude":"71.74459000","wikiDataId":"Q8050625"},{"id":85768,"name":"Zafarwal","stateId":3176,"stateCode":"PB","stateName":"Punjab","countryId":167,"countryCode":"PK","countryName":"Pakistan","latitude":"32.34464000","longitude":"74.89990000","wikiDataId":"Q8050625"},{"id":85769,"name":"Zahir Pir","stateId":3176,"stateCode":"PB","stateName":"Punjab","countryId":167,"countryCode":"PK","countryName":"Pakistan","latitude":"28.81284000","longitude":"70.52341000","wikiDataId":"Q8076090"}]