[{"id":57599,"name":"Agar","stateId":4039,"stateCode":"MP","stateName":"Madhya Pradesh","countryId":101,"countryCode":"IN","countryName":"India","latitude":"23.71177000","longitude":"76.01571000","wikiDataId":"Q490688"},{"id":57611,"name":"Ajaigarh","stateId":4039,"stateCode":"MP","stateName":"Madhya Pradesh","countryId":101,"countryCode":"IN","countryName":"India","latitude":"24.89879000","longitude":"80.25921000","wikiDataId":"Q583090"},{"id":57626,"name":"Akodia","stateId":4039,"stateCode":"MP","stateName":"Madhya Pradesh","countryId":101,"countryCode":"IN","countryName":"India","latitude":"23.38027000","longitude":"76.59875000","wikiDataId":"Q582235"},{"id":57631,"name":"Alampur","stateId":4039,"stateCode":"MP","stateName":"Madhya Pradesh","countryId":101,"countryCode":"IN","countryName":"India","latitude":"26.02514000","longitude":"78.79697000","wikiDataId":"Q14201843"},{"id":57639,"name":"Alirajpur","stateId":4039,"stateCode":"MP","stateName":"Madhya Pradesh","countryId":101,"countryCode":"IN","countryName":"India","latitude":"22.31384000","longitude":"74.36452000","wikiDataId":"Q2667586"},{"id":57646,"name":"Alot","stateId":4039,"stateCode":"MP","stateName":"Madhya Pradesh","countryId":101,"countryCode":"IN","countryName":"India","latitude":"23.76336000","longitude":"75.55662000","wikiDataId":"Q583826"},{"id":57691,"name":"Amanganj","stateId":4039,"stateCode":"MP","stateName":"Madhya Pradesh","countryId":101,"countryCode":"IN","countryName":"India","latitude":"24.42664000","longitude":"80.03579000","wikiDataId":"Q583720"},{"id":57659,"name":"Amarkantak","stateId":4039,"stateCode":"MP","stateName":"Madhya Pradesh","countryId":101,"countryCode":"IN","countryName":"India","latitude":"22.67486000","longitude":"81.75908000","wikiDataId":"Q588826"},{"id":57663,"name":"Amarpatan","stateId":4039,"stateCode":"MP","stateName":"Madhya Pradesh","countryId":101,"countryCode":"IN","countryName":"India","latitude":"24.31371000","longitude":"80.97703000","wikiDataId":"Q589830"},{"id":57664,"name":"Amarwara","stateId":4039,"stateCode":"MP","stateName":"Madhya Pradesh","countryId":101,"countryCode":"IN","countryName":"India","latitude":"22.29780000","longitude":"79.16943000","wikiDataId":"Q585696"},{"id":57673,"name":"Ambah","stateId":4039,"stateCode":"MP","stateName":"Madhya Pradesh","countryId":101,"countryCode":"IN","countryName":"India","latitude":"26.70423000","longitude":"78.22678000","wikiDataId":"Q583837"},{"id":57680,"name":"Amla","stateId":4039,"stateCode":"MP","stateName":"Madhya Pradesh","countryId":101,"countryCode":"IN","countryName":"India","latitude":"21.92485000","longitude":"78.12786000","wikiDataId":"Q583603"},{"id":57706,"name":"Anjad","stateId":4039,"stateCode":"MP","stateName":"Madhya Pradesh","countryId":101,"countryCode":"IN","countryName":"India","latitude":"22.04171000","longitude":"75.05519000","wikiDataId":"Q585729"},{"id":57719,"name":"Antri","stateId":4039,"stateCode":"MP","stateName":"Madhya Pradesh","countryId":101,"countryCode":"IN","countryName":"India","latitude":"26.05804000","longitude":"78.21027000","wikiDataId":"Q585742"},{"id":57721,"name":"Anuppur","stateId":4039,"stateCode":"MP","stateName":"Madhya Pradesh","countryId":101,"countryCode":"IN","countryName":"India","latitude":"23.05674000","longitude":"81.68399000","wikiDataId":"Q2299093"},{"id":134462,"name":"Aron","stateId":4039,"stateCode":"MP","stateName":"Madhya Pradesh","countryId":101,"countryCode":"IN","countryName":"India","latitude":"24.38109000","longitude":"77.41739000","wikiDataId":"Q581765"},{"id":57750,"name":"Ashoknagar","stateId":4039,"stateCode":"MP","stateName":"Madhya Pradesh","countryId":101,"countryCode":"IN","countryName":"India","latitude":"24.58000000","longitude":"77.73000000","wikiDataId":"Q2246416"},{"id":57752,"name":"Ashta","stateId":4039,"stateCode":"MP","stateName":"Madhya Pradesh","countryId":101,"countryCode":"IN","countryName":"India","latitude":"23.01754000","longitude":"76.72208000","wikiDataId":"Q582291"},{"id":58103,"name":"Babai","stateId":4039,"stateCode":"MP","stateName":"Madhya Pradesh","countryId":101,"countryCode":"IN","countryName":"India","latitude":"22.70256000","longitude":"77.93494000","wikiDataId":"Q765367"},{"id":57788,"name":"Badarwas","stateId":4039,"stateCode":"MP","stateName":"Madhya Pradesh","countryId":101,"countryCode":"IN","countryName":"India","latitude":"24.97516000","longitude":"77.56490000","wikiDataId":"Q583295"},{"id":57793,"name":"Badnawar","stateId":4039,"stateCode":"MP","stateName":"Madhya Pradesh","countryId":101,"countryCode":"IN","countryName":"India","latitude":"23.02181000","longitude":"75.23268000","wikiDataId":"Q584989"},{"id":58106,"name":"Bagh","stateId":4039,"stateCode":"MP","stateName":"Madhya Pradesh","countryId":101,"countryCode":"IN","countryName":"India","latitude":"22.35905000","longitude":"74.79052000","wikiDataId":"Q1924964"},{"id":58111,"name":"Bagli","stateId":4039,"stateCode":"MP","stateName":"Madhya Pradesh","countryId":101,"countryCode":"IN","countryName":"India","latitude":"22.64124000","longitude":"76.34877000","wikiDataId":"Q2719910"},{"id":57811,"name":"Baihar","stateId":4039,"stateCode":"MP","stateName":"Madhya Pradesh","countryId":101,"countryCode":"IN","countryName":"India","latitude":"22.10133000","longitude":"80.54967000","wikiDataId":"Q625392"},{"id":57813,"name":"Baikunthpur","stateId":4039,"stateCode":"MP","stateName":"Madhya Pradesh","countryId":101,"countryCode":"IN","countryName":"India","latitude":"24.72768000","longitude":"81.40975000","wikiDataId":"Q623920"},{"id":57821,"name":"Bakshwaha","stateId":4039,"stateCode":"MP","stateName":"Madhya Pradesh","countryId":101,"countryCode":"IN","countryName":"India","latitude":"24.25106000","longitude":"79.28618000","wikiDataId":"Q622831"},{"id":58119,"name":"Balaghat","stateId":4039,"stateCode":"MP","stateName":"Madhya Pradesh","countryId":101,"countryCode":"IN","countryName":"India","latitude":"21.96667000","longitude":"80.33333000","wikiDataId":"Q641904"},{"id":57824,"name":"Baldeogarh","stateId":4039,"stateCode":"MP","stateName":"Madhya Pradesh","countryId":101,"countryCode":"IN","countryName":"India","latitude":"24.75619000","longitude":"79.06715000","wikiDataId":"Q637094"},{"id":57838,"name":"Bamna","stateId":4039,"stateCode":"MP","stateName":"Madhya Pradesh","countryId":101,"countryCode":"IN","countryName":"India","latitude":"23.09454000","longitude":"74.76164000","wikiDataId":"Q627037"},{"id":58122,"name":"Bamor Kalan","stateId":4039,"stateCode":"MP","stateName":"Madhya Pradesh","countryId":101,"countryCode":"IN","countryName":"India","latitude":"24.89298000","longitude":"78.15105000","wikiDataId":"Q622611"},{"id":57839,"name":"Bamora","stateId":4039,"stateCode":"MP","stateName":"Madhya Pradesh","countryId":101,"countryCode":"IN","countryName":"India","latitude":"24.05539000","longitude":"78.08925000","wikiDataId":"Q636529"},{"id":57842,"name":"Banda","stateId":4039,"stateCode":"MP","stateName":"Madhya Pradesh","countryId":101,"countryCode":"IN","countryName":"India","latitude":"24.04488000","longitude":"78.96094000","wikiDataId":"Q637818"},{"id":57868,"name":"Barela","stateId":4039,"stateCode":"MP","stateName":"Madhya Pradesh","countryId":101,"countryCode":"IN","countryName":"India","latitude":"23.09678000","longitude":"80.05084000","wikiDataId":"Q637110"},{"id":57870,"name":"Barghat","stateId":4039,"stateCode":"MP","stateName":"Madhya Pradesh","countryId":101,"countryCode":"IN","countryName":"India","latitude":"22.03065000","longitude":"79.73280000","wikiDataId":"Q613463"},{"id":57871,"name":"Bargi","stateId":4039,"stateCode":"MP","stateName":"Madhya Pradesh","countryId":101,"countryCode":"IN","countryName":"India","latitude":"22.99138000","longitude":"79.87550000","wikiDataId":"Q613463"},{"id":57872,"name":"Barhi","stateId":4039,"stateCode":"MP","stateName":"Madhya Pradesh","countryId":101,"countryCode":"IN","countryName":"India","latitude":"23.90326000","longitude":"80.81516000","wikiDataId":"Q709090"},{"id":57888,"name":"Barwani","stateId":4039,"stateCode":"MP","stateName":"Madhya Pradesh","countryId":101,"countryCode":"IN","countryName":"India","latitude":"22.02485000","longitude":"74.91805000","wikiDataId":"Q2126754"},{"id":58148,"name":"Basoda","stateId":4039,"stateCode":"MP","stateName":"Madhya Pradesh","countryId":101,"countryCode":"IN","countryName":"India","latitude":"23.85153000","longitude":"77.93652000","wikiDataId":"Q714617"},{"id":57913,"name":"Begamganj","stateId":4039,"stateCode":"MP","stateName":"Madhya Pradesh","countryId":101,"countryCode":"IN","countryName":"India","latitude":"23.59917000","longitude":"78.34064000","wikiDataId":"Q760167"},{"id":57935,"name":"Beohari","stateId":4039,"stateCode":"MP","stateName":"Madhya Pradesh","countryId":101,"countryCode":"IN","countryName":"India","latitude":"24.02423000","longitude":"81.37831000","wikiDataId":"Q2314377"},{"id":57936,"name":"Berasia","stateId":4039,"stateCode":"MP","stateName":"Madhya Pradesh","countryId":101,"countryCode":"IN","countryName":"India","latitude":"23.63134000","longitude":"77.43351000","wikiDataId":"Q2281620"},{"id":57940,"name":"Betma","stateId":4039,"stateCode":"MP","stateName":"Madhya Pradesh","countryId":101,"countryCode":"IN","countryName":"India","latitude":"22.68653000","longitude":"75.61456000","wikiDataId":"Q757845"},{"id":57942,"name":"Betul","stateId":4039,"stateCode":"MP","stateName":"Madhya Pradesh","countryId":101,"countryCode":"IN","countryName":"India","latitude":"21.83333000","longitude":"77.83333000","wikiDataId":"Q1815279"},{"id":57943,"name":"Betul Bazar","stateId":4039,"stateCode":"MP","stateName":"Madhya Pradesh","countryId":101,"countryCode":"IN","countryName":"India","latitude":"21.85572000","longitude":"77.92913000","wikiDataId":"Q2314399"},{"id":58006,"name":"Bhabhra","stateId":4039,"stateCode":"MP","stateName":"Madhya Pradesh","countryId":101,"countryCode":"IN","countryName":"India","latitude":"22.53048000","longitude":"74.32846000","wikiDataId":"Q796650"},{"id":57959,"name":"Bhainsdehi","stateId":4039,"stateCode":"MP","stateName":"Madhya Pradesh","countryId":101,"countryCode":"IN","countryName":"India","latitude":"21.64491000","longitude":"77.63023000","wikiDataId":"Q759139"},{"id":58011,"name":"Bhander","stateId":4039,"stateCode":"MP","stateName":"Madhya Pradesh","countryId":101,"countryCode":"IN","countryName":"India","latitude":"25.73581000","longitude":"78.74555000","wikiDataId":"Q759166"},{"id":58012,"name":"Bhanpura","stateId":4039,"stateCode":"MP","stateName":"Madhya Pradesh","countryId":101,"countryCode":"IN","countryName":"India","latitude":"24.51300000","longitude":"75.74690000","wikiDataId":"Q674268"},{"id":57975,"name":"Bhawaniganj","stateId":4039,"stateCode":"MP","stateName":"Madhya Pradesh","countryId":101,"countryCode":"IN","countryName":"India","latitude":"24.41582000","longitude":"75.83552000","wikiDataId":"Q4901597"},{"id":57980,"name":"Bhikangaon","stateId":4039,"stateCode":"MP","stateName":"Madhya Pradesh","countryId":101,"countryCode":"IN","countryName":"India","latitude":"21.86764000","longitude":"75.96391000","wikiDataId":"Q2314441"},{"id":57982,"name":"Bhind","stateId":4039,"stateCode":"MP","stateName":"Madhya Pradesh","countryId":101,"countryCode":"IN","countryName":"India","latitude":"26.50000000","longitude":"78.75000000","wikiDataId":"Q2341700"},{"id":57985,"name":"Bhitarwar","stateId":4039,"stateCode":"MP","stateName":"Madhya Pradesh","countryId":101,"countryCode":"IN","countryName":"India","latitude":"25.79216000","longitude":"78.11085000","wikiDataId":"Q796805"},{"id":57995,"name":"Bhopal","stateId":4039,"stateCode":"MP","stateName":"Madhya Pradesh","countryId":101,"countryCode":"IN","countryName":"India","latitude":"23.25469000","longitude":"77.40289000","wikiDataId":"Q80989"},{"id":58025,"name":"Biaora","stateId":4039,"stateCode":"MP","stateName":"Madhya Pradesh","countryId":101,"countryCode":"IN","countryName":"India","latitude":"23.92050000","longitude":"76.91074000","wikiDataId":"Q796769"},{"id":58038,"name":"Bijawar","stateId":4039,"stateCode":"MP","stateName":"Madhya Pradesh","countryId":101,"countryCode":"IN","countryName":"India","latitude":"24.62351000","longitude":"79.48994000","wikiDataId":"Q797222"},{"id":58036,"name":"Bijrauni","stateId":4039,"stateCode":"MP","stateName":"Madhya Pradesh","countryId":101,"countryCode":"IN","countryName":"India","latitude":"24.93296000","longitude":"77.64352000","wikiDataId":"Q1937865"},{"id":58073,"name":"Bodri","stateId":4039,"stateCode":"MP","stateName":"Madhya Pradesh","countryId":101,"countryCode":"IN","countryName":"India","latitude":"23.16524000","longitude":"81.43262000","wikiDataId":"Q858405"},{"id":58096,"name":"Burhanpur","stateId":4039,"stateCode":"MP","stateName":"Madhya Pradesh","countryId":101,"countryCode":"IN","countryName":"India","latitude":"21.31000000","longitude":"76.23000000","wikiDataId":"Q2125592"},{"id":58097,"name":"Burhar","stateId":4039,"stateCode":"MP","stateName":"Madhya Pradesh","countryId":101,"countryCode":"IN","countryName":"India","latitude":"23.21494000","longitude":"81.53204000","wikiDataId":"Q861346"},{"id":58188,"name":"Chanderi","stateId":4039,"stateCode":"MP","stateName":"Madhya Pradesh","countryId":101,"countryCode":"IN","countryName":"India","latitude":"24.71312000","longitude":"78.13809000","wikiDataId":"Q860192"},{"id":58189,"name":"Chandia","stateId":4039,"stateCode":"MP","stateName":"Madhya Pradesh","countryId":101,"countryCode":"IN","countryName":"India","latitude":"23.65647000","longitude":"80.70911000","wikiDataId":"Q2446932"},{"id":58191,"name":"Chandla","stateId":4039,"stateCode":"MP","stateName":"Madhya Pradesh","countryId":101,"countryCode":"IN","countryName":"India","latitude":"25.07148000","longitude":"80.19294000","wikiDataId":"Q858413"},{"id":131532,"name":"Chhatarpur","stateId":4039,"stateCode":"MP","stateName":"Madhya Pradesh","countryId":101,"countryCode":"IN","countryName":"India","latitude":"24.75000000","longitude":"79.75000000","wikiDataId":"Q2449785"},{"id":131534,"name":"Chhindwara","stateId":4039,"stateCode":"MP","stateName":"Madhya Pradesh","countryId":101,"countryCode":"IN","countryName":"India","latitude":"22.05697000","longitude":"78.93958000","wikiDataId":"Q986135"},{"id":131543,"name":"Chichli","stateId":4039,"stateCode":"MP","stateName":"Madhya Pradesh","countryId":101,"countryCode":"IN","countryName":"India","latitude":"22.83363000","longitude":"78.82611000","wikiDataId":"Q1104216"},{"id":131581,"name":"Chorhat","stateId":4039,"stateCode":"MP","stateName":"Madhya Pradesh","countryId":101,"countryCode":"IN","countryName":"India","latitude":"24.42743000","longitude":"81.66948000","wikiDataId":"Q1191532"},{"id":131636,"name":"Daboh","stateId":4039,"stateCode":"MP","stateName":"Madhya Pradesh","countryId":101,"countryCode":"IN","countryName":"India","latitude":"26.00239000","longitude":"78.87658000","wikiDataId":"Q385237"},{"id":131637,"name":"Dabra","stateId":4039,"stateCode":"MP","stateName":"Madhya Pradesh","countryId":101,"countryCode":"IN","countryName":"India","latitude":"25.88572000","longitude":"78.33221000","wikiDataId":"Q1190879"},{"id":131651,"name":"Damoh","stateId":4039,"stateCode":"MP","stateName":"Madhya Pradesh","countryId":101,"countryCode":"IN","countryName":"India","latitude":"23.75000000","longitude":"79.58333000","wikiDataId":"Q2479331"},{"id":131662,"name":"Datia","stateId":4039,"stateCode":"MP","stateName":"Madhya Pradesh","countryId":101,"countryCode":"IN","countryName":"India","latitude":"25.75000000","longitude":"78.50000000","wikiDataId":"Q2206266"},{"id":131691,"name":"Deori Khas","stateId":4039,"stateCode":"MP","stateName":"Madhya Pradesh","countryId":101,"countryCode":"IN","countryName":"India","latitude":"23.39017000","longitude":"79.01630000","wikiDataId":"Q1649811"},{"id":131693,"name":"Depalpur","stateId":4039,"stateCode":"MP","stateName":"Madhya Pradesh","countryId":101,"countryCode":"IN","countryName":"India","latitude":"22.85095000","longitude":"75.54224000","wikiDataId":"Q2446961"},{"id":131707,"name":"Dewas","stateId":4039,"stateCode":"MP","stateName":"Madhya Pradesh","countryId":101,"countryCode":"IN","countryName":"India","latitude":"23.00000000","longitude":"76.16667000","wikiDataId":"Q2025998"},{"id":131749,"name":"Dhamnod","stateId":4039,"stateCode":"MP","stateName":"Madhya Pradesh","countryId":101,"countryCode":"IN","countryName":"India","latitude":"22.20928000","longitude":"75.47057000","wikiDataId":"Q1259705"},{"id":131751,"name":"Dhana","stateId":4039,"stateCode":"MP","stateName":"Madhya Pradesh","countryId":101,"countryCode":"IN","countryName":"India","latitude":"23.74697000","longitude":"78.86234000","wikiDataId":"Q1259557"},{"id":131753,"name":"Dhar","stateId":4039,"stateCode":"MP","stateName":"Madhya Pradesh","countryId":101,"countryCode":"IN","countryName":"India","latitude":"22.59373000","longitude":"75.29774000","wikiDataId":"Q617987"},{"id":131720,"name":"Dharampuri","stateId":4039,"stateCode":"MP","stateName":"Madhya Pradesh","countryId":101,"countryCode":"IN","countryName":"India","latitude":"22.14951000","longitude":"75.34439000","wikiDataId":"Q1266025"},{"id":131775,"name":"Dindori","stateId":4039,"stateCode":"MP","stateName":"Madhya Pradesh","countryId":101,"countryCode":"IN","countryName":"India","latitude":"22.80000000","longitude":"81.10000000","wikiDataId":"Q2398551"},{"id":131848,"name":"Etawa","stateId":4039,"stateCode":"MP","stateName":"Madhya Pradesh","countryId":101,"countryCode":"IN","countryName":"India","latitude":"24.18351000","longitude":"78.20289000","wikiDataId":"Q858501"},{"id":132043,"name":"Gadarwara","stateId":4039,"stateCode":"MP","stateName":"Madhya Pradesh","countryId":101,"countryCode":"IN","countryName":"India","latitude":"22.92350000","longitude":"78.78490000","wikiDataId":"Q1525301"},{"id":131917,"name":"Garha Brahman","stateId":4039,"stateCode":"MP","stateName":"Madhya Pradesh","countryId":101,"countryCode":"IN","countryName":"India","latitude":"23.86873000","longitude":"77.35731000","wikiDataId":"Q1654825"},{"id":131924,"name":"Garhakota","stateId":4039,"stateCode":"MP","stateName":"Madhya Pradesh","countryId":101,"countryCode":"IN","countryName":"India","latitude":"23.77910000","longitude":"79.14321000","wikiDataId":"Q1655893"},{"id":131930,"name":"Gautampura","stateId":4039,"stateCode":"MP","stateName":"Madhya Pradesh","countryId":101,"countryCode":"IN","countryName":"India","latitude":"22.98664000","longitude":"75.51921000","wikiDataId":"Q279871"},{"id":131936,"name":"Ghansor","stateId":4039,"stateCode":"MP","stateName":"Madhya Pradesh","countryId":101,"countryCode":"IN","countryName":"India","latitude":"22.65976000","longitude":"79.95013000","wikiDataId":"Q2313263"},{"id":131965,"name":"Gogapur","stateId":4039,"stateCode":"MP","stateName":"Madhya Pradesh","countryId":101,"countryCode":"IN","countryName":"India","latitude":"23.55746000","longitude":"75.51665000","wikiDataId":"Q1708114"},{"id":131966,"name":"Gohadi","stateId":4039,"stateCode":"MP","stateName":"Madhya Pradesh","countryId":101,"countryCode":"IN","countryName":"India","latitude":"26.43278000","longitude":"78.44205000","wikiDataId":"Q1707618"},{"id":132002,"name":"Govindgarh","stateId":4039,"stateCode":"MP","stateName":"Madhya Pradesh","countryId":101,"countryCode":"IN","countryName":"India","latitude":"24.37845000","longitude":"81.29644000","wikiDataId":"Q2228620"},{"id":132024,"name":"Guna","stateId":4039,"stateCode":"MP","stateName":"Madhya Pradesh","countryId":101,"countryCode":"IN","countryName":"India","latitude":"24.55464000","longitude":"77.20082000","wikiDataId":"Q930027"},{"id":132033,"name":"Gurh","stateId":4039,"stateCode":"MP","stateName":"Madhya Pradesh","countryId":101,"countryCode":"IN","countryName":"India","latitude":"24.50265000","longitude":"81.50037000","wikiDataId":"Q1706610"},{"id":132040,"name":"Gwalior","stateId":4039,"stateCode":"MP","stateName":"Madhya Pradesh","countryId":101,"countryCode":"IN","countryName":"India","latitude":"26.22983000","longitude":"78.17337000","wikiDataId":"Q158467"},{"id":132070,"name":"Harda","stateId":4039,"stateCode":"MP","stateName":"Madhya Pradesh","countryId":101,"countryCode":"IN","countryName":"India","latitude":"22.23406000","longitude":"76.96431000","wikiDataId":"Q2173003"},{"id":132071,"name":"Harda Khas","stateId":4039,"stateCode":"MP","stateName":"Madhya Pradesh","countryId":101,"countryCode":"IN","countryName":"India","latitude":"22.34414000","longitude":"77.09536000","wikiDataId":"Q1707802"},{"id":132080,"name":"Harpalpur","stateId":4039,"stateCode":"MP","stateName":"Madhya Pradesh","countryId":101,"countryCode":"IN","countryName":"India","latitude":"25.28773000","longitude":"79.33279000","wikiDataId":"Q1709670"},{"id":132081,"name":"Harrai","stateId":4039,"stateCode":"MP","stateName":"Madhya Pradesh","countryId":101,"countryCode":"IN","countryName":"India","latitude":"22.61428000","longitude":"79.22207000","wikiDataId":"Q1706431"},{"id":132082,"name":"Harsud","stateId":4039,"stateCode":"MP","stateName":"Madhya Pradesh","countryId":101,"countryCode":"IN","countryName":"India","latitude":"22.09947000","longitude":"76.73423000","wikiDataId":"Q1708353"},{"id":132145,"name":"Hatod","stateId":4039,"stateCode":"MP","stateName":"Madhya Pradesh","countryId":101,"countryCode":"IN","countryName":"India","latitude":"22.79378000","longitude":"75.73928000","wikiDataId":"Q1706662"},{"id":132088,"name":"Hatta","stateId":4039,"stateCode":"MP","stateName":"Madhya Pradesh","countryId":101,"countryCode":"IN","countryName":"India","latitude":"24.13406000","longitude":"79.60119000","wikiDataId":"Q956732"},{"id":132098,"name":"Hindoria","stateId":4039,"stateCode":"MP","stateName":"Madhya Pradesh","countryId":101,"countryCode":"IN","countryName":"India","latitude":"23.90345000","longitude":"79.56861000","wikiDataId":"Q1706686"},{"id":132120,"name":"Hoshangabad","stateId":4039,"stateCode":"MP","stateName":"Madhya Pradesh","countryId":101,"countryCode":"IN","countryName":"India","latitude":"22.58827000","longitude":"77.98887000","wikiDataId":"Q620801"},{"id":132180,"name":"Iawar","stateId":4039,"stateCode":"MP","stateName":"Madhya Pradesh","countryId":101,"countryCode":"IN","countryName":"India","latitude":"23.00943000","longitude":"76.50070000","wikiDataId":"Q928162"},{"id":132152,"name":"Ichhawar","stateId":4039,"stateCode":"MP","stateName":"Madhya Pradesh","countryId":101,"countryCode":"IN","countryName":"India","latitude":"23.02816000","longitude":"77.01729000","wikiDataId":"Q1753922"},{"id":132158,"name":"Iklehra","stateId":4039,"stateCode":"MP","stateName":"Madhya Pradesh","countryId":101,"countryCode":"IN","countryName":"India","latitude":"23.14667000","longitude":"76.39044000","wikiDataId":"Q1753642"},{"id":132166,"name":"Indore","stateId":4039,"stateCode":"MP","stateName":"Madhya Pradesh","countryId":101,"countryCode":"IN","countryName":"India","latitude":"22.66667000","longitude":"75.75000000","wikiDataId":"Q742938"},{"id":132175,"name":"Isagarh","stateId":4039,"stateCode":"MP","stateName":"Madhya Pradesh","countryId":101,"countryCode":"IN","countryName":"India","latitude":"24.83906000","longitude":"77.88274000","wikiDataId":"Q1753790"},{"id":132179,"name":"Itarsi","stateId":4039,"stateCode":"MP","stateName":"Madhya Pradesh","countryId":101,"countryCode":"IN","countryName":"India","latitude":"22.61477000","longitude":"77.76222000","wikiDataId":"Q928162"},{"id":132181,"name":"Jabalpur","stateId":4039,"stateCode":"MP","stateName":"Madhya Pradesh","countryId":101,"countryCode":"IN","countryName":"India","latitude":"23.16000000","longitude":"79.95000000","wikiDataId":"Q632093"},{"id":132204,"name":"Jaisinghnagar","stateId":4039,"stateCode":"MP","stateName":"Madhya Pradesh","countryId":101,"countryCode":"IN","countryName":"India","latitude":"23.68582000","longitude":"81.39085000","wikiDataId":"Q1419708"},{"id":132206,"name":"Jaithari","stateId":4039,"stateCode":"MP","stateName":"Madhya Pradesh","countryId":101,"countryCode":"IN","countryName":"India","latitude":"23.20856000","longitude":"78.61487000","wikiDataId":"Q547588"},{"id":132309,"name":"Jamai","stateId":4039,"stateCode":"MP","stateName":"Madhya Pradesh","countryId":101,"countryCode":"IN","countryName":"India","latitude":"22.19644000","longitude":"78.59191000","wikiDataId":"Q2446421"},{"id":132241,"name":"Jaora","stateId":4039,"stateCode":"MP","stateName":"Madhya Pradesh","countryId":101,"countryCode":"IN","countryName":"India","latitude":"23.63783000","longitude":"75.12711000","wikiDataId":"Q1287117"},{"id":132251,"name":"Jatara","stateId":4039,"stateCode":"MP","stateName":"Madhya Pradesh","countryId":101,"countryCode":"IN","countryName":"India","latitude":"25.00964000","longitude":"79.04869000","wikiDataId":"Q2314429"},{"id":132314,"name":"Jawad","stateId":4039,"stateCode":"MP","stateName":"Madhya Pradesh","countryId":101,"countryCode":"IN","countryName":"India","latitude":"24.59916000","longitude":"74.86261000","wikiDataId":"Q2314365"},{"id":132275,"name":"Jhabua","stateId":4039,"stateCode":"MP","stateName":"Madhya Pradesh","countryId":101,"countryCode":"IN","countryName":"India","latitude":"22.76772000","longitude":"74.59087000","wikiDataId":"Q1922267"},{"id":132316,"name":"Jiran","stateId":4039,"stateCode":"MP","stateName":"Madhya Pradesh","countryId":101,"countryCode":"IN","countryName":"India","latitude":"24.30871000","longitude":"74.89087000","wikiDataId":"Q2552146"},{"id":132283,"name":"Jobat","stateId":4039,"stateCode":"MP","stateName":"Madhya Pradesh","countryId":101,"countryCode":"IN","countryName":"India","latitude":"22.41599000","longitude":"74.56828000","wikiDataId":"Q2314355"},{"id":132333,"name":"Kailaras","stateId":4039,"stateCode":"MP","stateName":"Madhya Pradesh","countryId":101,"countryCode":"IN","countryName":"India","latitude":"26.30498000","longitude":"77.61600000","wikiDataId":"Q2313276"},{"id":132336,"name":"Kaimori","stateId":4039,"stateCode":"MP","stateName":"Madhya Pradesh","countryId":101,"countryCode":"IN","countryName":"India","latitude":"23.38465000","longitude":"79.74420000","wikiDataId":"Q2234399"},{"id":132382,"name":"Kannod","stateId":4039,"stateCode":"MP","stateName":"Madhya Pradesh","countryId":101,"countryCode":"IN","countryName":"India","latitude":"22.66764000","longitude":"76.74286000","wikiDataId":"Q2447720"},{"id":132397,"name":"Kareli","stateId":4039,"stateCode":"MP","stateName":"Madhya Pradesh","countryId":101,"countryCode":"IN","countryName":"India","latitude":"22.91533000","longitude":"79.06378000","wikiDataId":"Q1419668"},{"id":132398,"name":"Karera","stateId":4039,"stateCode":"MP","stateName":"Madhya Pradesh","countryId":101,"countryCode":"IN","countryName":"India","latitude":"25.45815000","longitude":"78.13583000","wikiDataId":"Q2313234"},{"id":132407,"name":"Karrapur","stateId":4039,"stateCode":"MP","stateName":"Madhya Pradesh","countryId":101,"countryCode":"IN","countryName":"India","latitude":"23.94891000","longitude":"78.86584000","wikiDataId":"Q2447696"},{"id":132419,"name":"Kasrawad","stateId":4039,"stateCode":"MP","stateName":"Madhya Pradesh","countryId":101,"countryCode":"IN","countryName":"India","latitude":"22.12745000","longitude":"75.61101000","wikiDataId":"Q2313249"},{"id":132420,"name":"Katangi","stateId":4039,"stateCode":"MP","stateName":"Madhya Pradesh","countryId":101,"countryCode":"IN","countryName":"India","latitude":"21.77369000","longitude":"79.80513000","wikiDataId":"Q2311273"},{"id":132424,"name":"Katni","stateId":4039,"stateCode":"MP","stateName":"Madhya Pradesh","countryId":101,"countryCode":"IN","countryName":"India","latitude":"23.83555000","longitude":"80.39417000","wikiDataId":"Q746441"},{"id":132511,"name":"Khachrod","stateId":4039,"stateCode":"MP","stateName":"Madhya Pradesh","countryId":101,"countryCode":"IN","countryName":"India","latitude":"23.42322000","longitude":"75.28185000","wikiDataId":"Q2120413"},{"id":132453,"name":"Khailar","stateId":4039,"stateCode":"MP","stateName":"Madhya Pradesh","countryId":101,"countryCode":"IN","countryName":"India","latitude":"25.34127000","longitude":"78.53133000","wikiDataId":"Q2119908"},{"id":132457,"name":"Khajuraho Group of Monuments","stateId":4039,"stateCode":"MP","stateName":"Madhya Pradesh","countryId":101,"countryCode":"IN","countryName":"India","latitude":"24.84809000","longitude":"79.93351000","wikiDataId":"Q178948"},{"id":132460,"name":"Khamaria","stateId":4039,"stateCode":"MP","stateName":"Madhya Pradesh","countryId":101,"countryCode":"IN","countryName":"India","latitude":"23.22558000","longitude":"79.88007000","wikiDataId":"Q2483802"},{"id":132467,"name":"Khandwa","stateId":4039,"stateCode":"MP","stateName":"Madhya Pradesh","countryId":101,"countryCode":"IN","countryName":"India","latitude":"21.82427000","longitude":"76.35086000","wikiDataId":"Q1648551"},{"id":132476,"name":"Khargapur","stateId":4039,"stateCode":"MP","stateName":"Madhya Pradesh","countryId":101,"countryCode":"IN","countryName":"India","latitude":"24.82300000","longitude":"79.14400000","wikiDataId":"Q2120489"},{"id":132474,"name":"Khargone","stateId":4039,"stateCode":"MP","stateName":"Madhya Pradesh","countryId":101,"countryCode":"IN","countryName":"India","latitude":"21.82306000","longitude":"75.61028000","wikiDataId":"Q2273900"},{"id":132519,"name":"Khategaon","stateId":4039,"stateCode":"MP","stateName":"Madhya Pradesh","countryId":101,"countryCode":"IN","countryName":"India","latitude":"22.59573000","longitude":"76.91330000","wikiDataId":"Q939294"},{"id":132497,"name":"Khilchipur","stateId":4039,"stateCode":"MP","stateName":"Madhya Pradesh","countryId":101,"countryCode":"IN","countryName":"India","latitude":"24.03943000","longitude":"76.57800000","wikiDataId":"Q2230387"},{"id":132498,"name":"Khirkiyan","stateId":4039,"stateCode":"MP","stateName":"Madhya Pradesh","countryId":101,"countryCode":"IN","countryName":"India","latitude":"22.16732000","longitude":"76.86137000","wikiDataId":"Q2233697"},{"id":132504,"name":"Khujner","stateId":4039,"stateCode":"MP","stateName":"Madhya Pradesh","countryId":101,"countryCode":"IN","countryName":"India","latitude":"23.78597000","longitude":"76.61773000","wikiDataId":"Q2235923"},{"id":132507,"name":"Khurai","stateId":4039,"stateCode":"MP","stateName":"Madhya Pradesh","countryId":101,"countryCode":"IN","countryName":"India","latitude":"24.04372000","longitude":"78.33014000","wikiDataId":"Q2234625"},{"id":132561,"name":"Kolaras","stateId":4039,"stateCode":"MP","stateName":"Madhya Pradesh","countryId":101,"countryCode":"IN","countryName":"India","latitude":"25.21928000","longitude":"77.61167000","wikiDataId":"Q509592"},{"id":132585,"name":"Korwai","stateId":4039,"stateCode":"MP","stateName":"Madhya Pradesh","countryId":101,"countryCode":"IN","countryName":"India","latitude":"24.11774000","longitude":"78.04007000","wikiDataId":"Q6432751"},{"id":132613,"name":"Kotar","stateId":4039,"stateCode":"MP","stateName":"Madhya Pradesh","countryId":101,"countryCode":"IN","countryName":"India","latitude":"24.69802000","longitude":"80.98073000","wikiDataId":"Q1924838"},{"id":132598,"name":"Kothi","stateId":4039,"stateCode":"MP","stateName":"Madhya Pradesh","countryId":101,"countryCode":"IN","countryName":"India","latitude":"24.75260000","longitude":"80.77751000","wikiDataId":"Q2233986"},{"id":132603,"name":"Kotma","stateId":4039,"stateCode":"MP","stateName":"Madhya Pradesh","countryId":101,"countryCode":"IN","countryName":"India","latitude":"23.20383000","longitude":"81.97904000","wikiDataId":"Q2240936"},{"id":132611,"name":"Kotwa","stateId":4039,"stateCode":"MP","stateName":"Madhya Pradesh","countryId":101,"countryCode":"IN","countryName":"India","latitude":"25.03080000","longitude":"81.31908000","wikiDataId":"Q2231837"},{"id":132631,"name":"Kukshi","stateId":4039,"stateCode":"MP","stateName":"Madhya Pradesh","countryId":101,"countryCode":"IN","countryName":"India","latitude":"22.20677000","longitude":"74.75788000","wikiDataId":"Q2241499"},{"id":132640,"name":"Kumbhraj","stateId":4039,"stateCode":"MP","stateName":"Madhya Pradesh","countryId":101,"countryCode":"IN","countryName":"India","latitude":"24.37338000","longitude":"77.04841000","wikiDataId":"Q2239879"},{"id":132741,"name":"Lahar","stateId":4039,"stateCode":"MP","stateName":"Madhya Pradesh","countryId":101,"countryCode":"IN","countryName":"India","latitude":"26.19401000","longitude":"78.94137000","wikiDataId":"Q200667"},{"id":132746,"name":"Lakhnadon","stateId":4039,"stateCode":"MP","stateName":"Madhya Pradesh","countryId":101,"countryCode":"IN","countryName":"India","latitude":"22.60049000","longitude":"79.60094000","wikiDataId":"Q2234278"},{"id":132763,"name":"Leteri","stateId":4039,"stateCode":"MP","stateName":"Madhya Pradesh","countryId":101,"countryCode":"IN","countryName":"India","latitude":"24.05979000","longitude":"77.40858000","wikiDataId":"Q230818"},{"id":132766,"name":"Lodhikheda","stateId":4039,"stateCode":"MP","stateName":"Madhya Pradesh","countryId":101,"countryCode":"IN","countryName":"India","latitude":"21.58235000","longitude":"78.85911000","wikiDataId":"Q2230836"},{"id":133054,"name":"Machalpur","stateId":4039,"stateCode":"MP","stateName":"Madhya Pradesh","countryId":101,"countryCode":"IN","countryName":"India","latitude":"24.12767000","longitude":"76.31672000","wikiDataId":"Q2231756"},{"id":132814,"name":"Madhogarh","stateId":4039,"stateCode":"MP","stateName":"Madhya Pradesh","countryId":101,"countryCode":"IN","countryName":"India","latitude":"24.56401000","longitude":"80.91126000","wikiDataId":"Q1929621"},{"id":132833,"name":"Maheshwar","stateId":4039,"stateCode":"MP","stateName":"Madhya Pradesh","countryId":101,"countryCode":"IN","countryName":"India","latitude":"22.17592000","longitude":"75.58715000","wikiDataId":"Q1023674"},{"id":132835,"name":"Mahgawan","stateId":4039,"stateCode":"MP","stateName":"Madhya Pradesh","countryId":101,"countryCode":"IN","countryName":"India","latitude":"26.49471000","longitude":"78.61593000","wikiDataId":"Q2019694"},{"id":132854,"name":"Maihar","stateId":4039,"stateCode":"MP","stateName":"Madhya Pradesh","countryId":101,"countryCode":"IN","countryName":"India","latitude":"24.26594000","longitude":"80.76063000","wikiDataId":"Q747140"},{"id":132860,"name":"Majholi","stateId":4039,"stateCode":"MP","stateName":"Madhya Pradesh","countryId":101,"countryCode":"IN","countryName":"India","latitude":"23.50114000","longitude":"79.92396000","wikiDataId":"Q2552260"},{"id":132864,"name":"Maksi","stateId":4039,"stateCode":"MP","stateName":"Madhya Pradesh","countryId":101,"countryCode":"IN","countryName":"India","latitude":"23.25999000","longitude":"76.14567000","wikiDataId":"Q2446473"},{"id":132869,"name":"Malhargarh","stateId":4039,"stateCode":"MP","stateName":"Madhya Pradesh","countryId":101,"countryCode":"IN","countryName":"India","latitude":"24.28286000","longitude":"74.99024000","wikiDataId":"Q2548648"},{"id":132930,"name":"Manasa","stateId":4039,"stateCode":"MP","stateName":"Madhya Pradesh","countryId":101,"countryCode":"IN","countryName":"India","latitude":"24.47764000","longitude":"75.14095000","wikiDataId":"Q83443"},{"id":132931,"name":"Manawar","stateId":4039,"stateCode":"MP","stateName":"Madhya Pradesh","countryId":101,"countryCode":"IN","countryName":"India","latitude":"22.23566000","longitude":"75.08917000","wikiDataId":"Q2446481"},{"id":132894,"name":"Mandideep","stateId":4039,"stateCode":"MP","stateName":"Madhya Pradesh","countryId":101,"countryCode":"IN","countryName":"India","latitude":"23.08166000","longitude":"77.53328000","wikiDataId":"Q2446436"},{"id":132895,"name":"Mandla","stateId":4039,"stateCode":"MP","stateName":"Madhya Pradesh","countryId":101,"countryCode":"IN","countryName":"India","latitude":"22.64041000","longitude":"80.51344000","wikiDataId":"Q2341670"},{"id":133075,"name":"Mandleshwar","stateId":4039,"stateCode":"MP","stateName":"Madhya Pradesh","countryId":101,"countryCode":"IN","countryName":"India","latitude":"22.17598000","longitude":"75.65995000","wikiDataId":"Q2326728"},{"id":132897,"name":"Mandsaur","stateId":4039,"stateCode":"MP","stateName":"Madhya Pradesh","countryId":101,"countryCode":"IN","countryName":"India","latitude":"24.33333000","longitude":"75.25000000","wikiDataId":"Q1870014"},{"id":132907,"name":"Mangawan","stateId":4039,"stateCode":"MP","stateName":"Madhya Pradesh","countryId":101,"countryCode":"IN","countryName":"India","latitude":"24.66754000","longitude":"81.54644000","wikiDataId":"Q2552252"},{"id":133080,"name":"Manpur","stateId":4039,"stateCode":"MP","stateName":"Madhya Pradesh","countryId":101,"countryCode":"IN","countryName":"India","latitude":"22.43151000","longitude":"75.62107000","wikiDataId":"Q1924868"},{"id":132943,"name":"Mau","stateId":4039,"stateCode":"MP","stateName":"Madhya Pradesh","countryId":101,"countryCode":"IN","countryName":"India","latitude":"26.26584000","longitude":"78.67108000","wikiDataId":"Q3852371"},{"id":132947,"name":"Mauganj","stateId":4039,"stateCode":"MP","stateName":"Madhya Pradesh","countryId":101,"countryCode":"IN","countryName":"India","latitude":"24.66721000","longitude":"81.87339000","wikiDataId":"Q547781"},{"id":132973,"name":"Mihona","stateId":4039,"stateCode":"MP","stateName":"Madhya Pradesh","countryId":101,"countryCode":"IN","countryName":"India","latitude":"26.28373000","longitude":"78.98048000","wikiDataId":"Q2548623"},{"id":132983,"name":"Mohgaon","stateId":4039,"stateCode":"MP","stateName":"Madhya Pradesh","countryId":101,"countryCode":"IN","countryName":"India","latitude":"21.63941000","longitude":"78.73638000","wikiDataId":"Q2552172"},{"id":133003,"name":"Morar","stateId":4039,"stateCode":"MP","stateName":"Madhya Pradesh","countryId":101,"countryCode":"IN","countryName":"India","latitude":"26.22640000","longitude":"78.22482000","wikiDataId":"Q1345006"},{"id":132994,"name":"Morena","stateId":4039,"stateCode":"MP","stateName":"Madhya Pradesh","countryId":101,"countryCode":"IN","countryName":"India","latitude":"26.16667000","longitude":"77.50000000","wikiDataId":"Q2341467"},{"id":133022,"name":"Multai","stateId":4039,"stateCode":"MP","stateName":"Madhya Pradesh","countryId":101,"countryCode":"IN","countryName":"India","latitude":"21.77463000","longitude":"78.25756000","wikiDataId":"Q2446460"},{"id":133028,"name":"Mundi","stateId":4039,"stateCode":"MP","stateName":"Madhya Pradesh","countryId":101,"countryCode":"IN","countryName":"India","latitude":"22.06693000","longitude":"76.49326000","wikiDataId":"Q2552231"},{"id":133030,"name":"Mungaoli","stateId":4039,"stateCode":"MP","stateName":"Madhya Pradesh","countryId":101,"countryCode":"IN","countryName":"India","latitude":"24.40837000","longitude":"78.09588000","wikiDataId":"Q2446412"},{"id":133042,"name":"Murwara","stateId":4039,"stateCode":"MP","stateName":"Madhya Pradesh","countryId":101,"countryCode":"IN","countryName":"India","latitude":"23.83776000","longitude":"80.39405000","wikiDataId":"Q172581"},{"id":133115,"name":"Nagda","stateId":4039,"stateCode":"MP","stateName":"Madhya Pradesh","countryId":101,"countryCode":"IN","countryName":"India","latitude":"23.45834000","longitude":"75.41759000","wikiDataId":"Q1026190"},{"id":133259,"name":"Nagod","stateId":4039,"stateCode":"MP","stateName":"Madhya Pradesh","countryId":101,"countryCode":"IN","countryName":"India","latitude":"24.56924000","longitude":"80.58809000","wikiDataId":"Q2007857"},{"id":133197,"name":"Naigarhi","stateId":4039,"stateCode":"MP","stateName":"Madhya Pradesh","countryId":101,"countryCode":"IN","countryName":"India","latitude":"24.78686000","longitude":"81.77868000","wikiDataId":"Q586859"},{"id":133124,"name":"Nainpur","stateId":4039,"stateCode":"MP","stateName":"Madhya Pradesh","countryId":101,"countryCode":"IN","countryName":"India","latitude":"22.42996000","longitude":"80.10561000","wikiDataId":"Q2446391"},{"id":133138,"name":"Namli","stateId":4039,"stateCode":"MP","stateName":"Madhya Pradesh","countryId":101,"countryCode":"IN","countryName":"India","latitude":"23.46115000","longitude":"75.06036000","wikiDataId":"Q2548631"},{"id":133155,"name":"Naraini","stateId":4039,"stateCode":"MP","stateName":"Madhya Pradesh","countryId":101,"countryCode":"IN","countryName":"India","latitude":"25.19033000","longitude":"80.47500000","wikiDataId":"Q2542976"},{"id":133276,"name":"Narayangarh","stateId":4039,"stateCode":"MP","stateName":"Madhya Pradesh","countryId":101,"countryCode":"IN","countryName":"India","latitude":"24.27083000","longitude":"75.05007000","wikiDataId":"Q1925454"},{"id":133171,"name":"Narsimhapur","stateId":4039,"stateCode":"MP","stateName":"Madhya Pradesh","countryId":101,"countryCode":"IN","countryName":"India","latitude":"22.91667000","longitude":"79.16667000","wikiDataId":"Q15261015"},{"id":133172,"name":"Narsinghgarh","stateId":4039,"stateCode":"MP","stateName":"Madhya Pradesh","countryId":101,"countryCode":"IN","countryName":"India","latitude":"23.70758000","longitude":"77.09319000","wikiDataId":"Q584544"},{"id":133174,"name":"Narwar","stateId":4039,"stateCode":"MP","stateName":"Madhya Pradesh","countryId":101,"countryCode":"IN","countryName":"India","latitude":"25.64390000","longitude":"77.91290000","wikiDataId":"Q2563464"},{"id":133179,"name":"Nasrullahganj","stateId":4039,"stateCode":"MP","stateName":"Madhya Pradesh","countryId":101,"countryCode":"IN","countryName":"India","latitude":"22.68370000","longitude":"77.27069000","wikiDataId":"Q2446380"},{"id":133202,"name":"Neemuch","stateId":4039,"stateCode":"MP","stateName":"Madhya Pradesh","countryId":101,"countryCode":"IN","countryName":"India","latitude":"24.47000000","longitude":"74.87000000","wikiDataId":"Q12435937"},{"id":133207,"name":"Nepanagar","stateId":4039,"stateCode":"MP","stateName":"Madhya Pradesh","countryId":101,"countryCode":"IN","countryName":"India","latitude":"21.45380000","longitude":"76.39335000","wikiDataId":"Q15383"},{"id":133304,"name":"Orchha","stateId":4039,"stateCode":"MP","stateName":"Madhya Pradesh","countryId":101,"countryCode":"IN","countryName":"India","latitude":"25.35192000","longitude":"78.64033000","wikiDataId":"Q201631"},{"id":133308,"name":"Pachmarhi","stateId":4039,"stateCode":"MP","stateName":"Madhya Pradesh","countryId":101,"countryCode":"IN","countryName":"India","latitude":"22.46791000","longitude":"78.43312000","wikiDataId":"Q1949041"},{"id":133325,"name":"Palera","stateId":4039,"stateCode":"MP","stateName":"Madhya Pradesh","countryId":101,"countryCode":"IN","countryName":"India","latitude":"25.02013000","longitude":"79.22818000","wikiDataId":"Q2548639"},{"id":133530,"name":"Pali","stateId":4039,"stateCode":"MP","stateName":"Madhya Pradesh","countryId":101,"countryCode":"IN","countryName":"India","latitude":"23.36453000","longitude":"81.04374000","wikiDataId":"Q3786790"},{"id":133354,"name":"Panagar","stateId":4039,"stateCode":"MP","stateName":"Madhya Pradesh","countryId":101,"countryCode":"IN","countryName":"India","latitude":"23.28539000","longitude":"79.99509000","wikiDataId":"Q2548319"},{"id":133344,"name":"Panara","stateId":4039,"stateCode":"MP","stateName":"Madhya Pradesh","countryId":101,"countryCode":"IN","countryName":"India","latitude":"22.20568000","longitude":"78.55093000","wikiDataId":"Q1768640"},{"id":133348,"name":"Pandhana","stateId":4039,"stateCode":"MP","stateName":"Madhya Pradesh","countryId":101,"countryCode":"IN","countryName":"India","latitude":"21.69816000","longitude":"76.22487000","wikiDataId":"Q2720747"},{"id":133538,"name":"Pandhurna","stateId":4039,"stateCode":"MP","stateName":"Madhya Pradesh","countryId":101,"countryCode":"IN","countryName":"India","latitude":"21.59556000","longitude":"78.52628000","wikiDataId":"Q2445471"},{"id":133351,"name":"Panna","stateId":4039,"stateCode":"MP","stateName":"Madhya Pradesh","countryId":101,"countryCode":"IN","countryName":"India","latitude":"24.50000000","longitude":"80.25000000","wikiDataId":"Q2341630"},{"id":133542,"name":"Pansemal","stateId":4039,"stateCode":"MP","stateName":"Madhya Pradesh","countryId":101,"countryCode":"IN","countryName":"India","latitude":"21.65981000","longitude":"74.69937000","wikiDataId":"Q2720790"},{"id":133371,"name":"Parasia","stateId":4039,"stateCode":"MP","stateName":"Madhya Pradesh","countryId":101,"countryCode":"IN","countryName":"India","latitude":"22.19130000","longitude":"78.75904000","wikiDataId":"Q1390016"},{"id":133555,"name":"Patan","stateId":4039,"stateCode":"MP","stateName":"Madhya Pradesh","countryId":101,"countryCode":"IN","countryName":"India","latitude":"23.28636000","longitude":"79.68962000","wikiDataId":"Q3788531"},{"id":133381,"name":"Patharia","stateId":4039,"stateCode":"MP","stateName":"Madhya Pradesh","countryId":101,"countryCode":"IN","countryName":"India","latitude":"23.89921000","longitude":"79.19393000","wikiDataId":"Q2443517"},{"id":133396,"name":"Pawai","stateId":4039,"stateCode":"MP","stateName":"Madhya Pradesh","countryId":101,"countryCode":"IN","countryName":"India","latitude":"24.26635000","longitude":"80.16196000","wikiDataId":"Q2720731"},{"id":133430,"name":"Petlawad","stateId":4039,"stateCode":"MP","stateName":"Madhya Pradesh","countryId":101,"countryCode":"IN","countryName":"India","latitude":"23.01102000","longitude":"74.79772000","wikiDataId":"Q2720761"},{"id":133454,"name":"Piploda","stateId":4039,"stateCode":"MP","stateName":"Madhya Pradesh","countryId":101,"countryCode":"IN","countryName":"India","latitude":"23.35000000","longitude":"75.43333000","wikiDataId":"Q2720099"},{"id":133462,"name":"Pithampur","stateId":4039,"stateCode":"MP","stateName":"Madhya Pradesh","countryId":101,"countryCode":"IN","countryName":"India","latitude":"22.60197000","longitude":"75.69649000","wikiDataId":"Q2548346"},{"id":133481,"name":"Porsa","stateId":4039,"stateCode":"MP","stateName":"Madhya Pradesh","countryId":101,"countryCode":"IN","countryName":"India","latitude":"26.67444000","longitude":"78.37081000","wikiDataId":"Q2548362"},{"id":133508,"name":"Punasa","stateId":4039,"stateCode":"MP","stateName":"Madhya Pradesh","countryId":101,"countryCode":"IN","countryName":"India","latitude":"22.23507000","longitude":"76.39335000","wikiDataId":"Q1854679"},{"id":133660,"name":"Raghogarh","stateId":4039,"stateCode":"MP","stateName":"Madhya Pradesh","countryId":101,"countryCode":"IN","countryName":"India","latitude":"24.44318000","longitude":"77.19768000","wikiDataId":"Q2037248"},{"id":133661,"name":"Rahatgarh","stateId":4039,"stateCode":"MP","stateName":"Madhya Pradesh","countryId":101,"countryCode":"IN","countryName":"India","latitude":"23.78968000","longitude":"78.39473000","wikiDataId":"Q632752"},{"id":133591,"name":"Raisen","stateId":4039,"stateCode":"MP","stateName":"Madhya Pradesh","countryId":101,"countryCode":"IN","countryName":"India","latitude":"23.25000000","longitude":"78.08333000","wikiDataId":"Q1815223"},{"id":133675,"name":"Rajgarh","stateId":4039,"stateCode":"MP","stateName":"Madhya Pradesh","countryId":101,"countryCode":"IN","countryName":"India","latitude":"22.67821000","longitude":"74.94483000","wikiDataId":"Q2468221"},{"id":133680,"name":"Rajnagar","stateId":4039,"stateCode":"MP","stateName":"Madhya Pradesh","countryId":101,"countryCode":"IN","countryName":"India","latitude":"24.88929000","longitude":"79.91178000","wikiDataId":"Q1815245"},{"id":133595,"name":"Rajpur","stateId":4039,"stateCode":"MP","stateName":"Madhya Pradesh","countryId":101,"countryCode":"IN","countryName":"India","latitude":"22.30393000","longitude":"74.35568000","wikiDataId":"Q582800"},{"id":133709,"name":"Rampura","stateId":4039,"stateCode":"MP","stateName":"Madhya Pradesh","countryId":101,"countryCode":"IN","countryName":"India","latitude":"24.46700000","longitude":"75.43996000","wikiDataId":"Q3929948"},{"id":133717,"name":"Ranapur","stateId":4039,"stateCode":"MP","stateName":"Madhya Pradesh","countryId":101,"countryCode":"IN","countryName":"India","latitude":"22.64704000","longitude":"74.52118000","wikiDataId":"Q2719656"},{"id":133615,"name":"Ratangarh","stateId":4039,"stateCode":"MP","stateName":"Madhya Pradesh","countryId":101,"countryCode":"IN","countryName":"India","latitude":"24.81667000","longitude":"75.11667000","wikiDataId":"Q10357555"},{"id":133618,"name":"Ratlam","stateId":4039,"stateCode":"MP","stateName":"Madhya Pradesh","countryId":101,"countryCode":"IN","countryName":"India","latitude":"23.33033000","longitude":"75.04032000","wikiDataId":"Q652376"},{"id":133623,"name":"Rehli","stateId":4039,"stateCode":"MP","stateName":"Madhya Pradesh","countryId":101,"countryCode":"IN","countryName":"India","latitude":"23.63722000","longitude":"79.06275000","wikiDataId":"Q2548659"},{"id":133624,"name":"Rehti","stateId":4039,"stateCode":"MP","stateName":"Madhya Pradesh","countryId":101,"countryCode":"IN","countryName":"India","latitude":"22.73781000","longitude":"77.43399000","wikiDataId":"Q2720270"},{"id":133633,"name":"Rewa","stateId":4039,"stateCode":"MP","stateName":"Madhya Pradesh","countryId":101,"countryCode":"IN","countryName":"India","latitude":"24.53256000","longitude":"81.29234000","wikiDataId":"Q1000495"},{"id":133738,"name":"Sabalgarh","stateId":4039,"stateCode":"MP","stateName":"Madhya Pradesh","countryId":101,"countryCode":"IN","countryName":"India","latitude":"26.24918000","longitude":"77.40786000","wikiDataId":"Q2548310"},{"id":134061,"name":"Sagar","stateId":4039,"stateCode":"MP","stateName":"Madhya Pradesh","countryId":101,"countryCode":"IN","countryName":"India","latitude":"23.75000000","longitude":"78.75000000","wikiDataId":"Q1854670"},{"id":133757,"name":"Sailana","stateId":4039,"stateCode":"MP","stateName":"Madhya Pradesh","countryId":101,"countryCode":"IN","countryName":"India","latitude":"23.46219000","longitude":"74.92318000","wikiDataId":"Q2548299"},{"id":133796,"name":"Sanawad","stateId":4039,"stateCode":"MP","stateName":"Madhya Pradesh","countryId":101,"countryCode":"IN","countryName":"India","latitude":"22.17391000","longitude":"76.06993000","wikiDataId":"Q2465668"},{"id":134070,"name":"Sanchi","stateId":4039,"stateCode":"MP","stateName":"Madhya Pradesh","countryId":101,"countryCode":"IN","countryName":"India","latitude":"23.48646000","longitude":"77.73780000","wikiDataId":"Q2228906"},{"id":134075,"name":"Sanwer","stateId":4039,"stateCode":"MP","stateName":"Madhya Pradesh","countryId":101,"countryCode":"IN","countryName":"India","latitude":"22.97415000","longitude":"75.82710000","wikiDataId":"Q429215"},{"id":134078,"name":"Sarangpur","stateId":4039,"stateCode":"MP","stateName":"Madhya Pradesh","countryId":101,"countryCode":"IN","countryName":"India","latitude":"23.56651000","longitude":"76.47306000","wikiDataId":"Q2317301"},{"id":133820,"name":"Satna","stateId":4039,"stateCode":"MP","stateName":"Madhya Pradesh","countryId":101,"countryCode":"IN","countryName":"India","latitude":"24.50000000","longitude":"81.00000000","wikiDataId":"Q2577924"},{"id":133824,"name":"Satwas","stateId":4039,"stateCode":"MP","stateName":"Madhya Pradesh","countryId":101,"countryCode":"IN","countryName":"India","latitude":"22.53628000","longitude":"76.68452000","wikiDataId":"Q2720094"},{"id":133826,"name":"Saugor","stateId":4039,"stateCode":"MP","stateName":"Madhya Pradesh","countryId":101,"countryCode":"IN","countryName":"India","latitude":"23.83877000","longitude":"78.73874000","wikiDataId":"Q2247428"},{"id":133829,"name":"Sausar","stateId":4039,"stateCode":"MP","stateName":"Madhya Pradesh","countryId":101,"countryCode":"IN","countryName":"India","latitude":"21.65576000","longitude":"78.79669000","wikiDataId":"Q2546577"},{"id":133835,"name":"Sehore","stateId":4039,"stateCode":"MP","stateName":"Madhya Pradesh","countryId":101,"countryCode":"IN","countryName":"India","latitude":"23.20000000","longitude":"77.08333000","wikiDataId":"Q2077421"},{"id":133838,"name":"Sendhwa","stateId":4039,"stateCode":"MP","stateName":"Madhya Pradesh","countryId":101,"countryCode":"IN","countryName":"India","latitude":"21.68562000","longitude":"75.09622000","wikiDataId":"Q2624000"},{"id":133840,"name":"Seondha","stateId":4039,"stateCode":"MP","stateName":"Madhya Pradesh","countryId":101,"countryCode":"IN","countryName":"India","latitude":"26.15422000","longitude":"78.78120000","wikiDataId":"Q2546462"},{"id":133842,"name":"Seoni","stateId":4039,"stateCode":"MP","stateName":"Madhya Pradesh","countryId":101,"countryCode":"IN","countryName":"India","latitude":"22.08503000","longitude":"79.55037000","wikiDataId":"Q2287206"},{"id":133843,"name":"Seoni Malwa","stateId":4039,"stateCode":"MP","stateName":"Madhya Pradesh","countryId":101,"countryCode":"IN","countryName":"India","latitude":"22.45046000","longitude":"77.46650000","wikiDataId":"Q2545959"},{"id":133853,"name":"Shahdol","stateId":4039,"stateCode":"MP","stateName":"Madhya Pradesh","countryId":101,"countryCode":"IN","countryName":"India","latitude":"23.50000000","longitude":"81.50000000","wikiDataId":"Q1572231"},{"id":133893,"name":"Shahgarh","stateId":4039,"stateCode":"MP","stateName":"Madhya Pradesh","countryId":101,"countryCode":"IN","countryName":"India","latitude":"24.31365000","longitude":"79.11806000","wikiDataId":"Q2720736"},{"id":133899,"name":"Shahpur","stateId":4039,"stateCode":"MP","stateName":"Madhya Pradesh","countryId":101,"countryCode":"IN","countryName":"India","latitude":"21.23742000","longitude":"76.22558000","wikiDataId":"Q3959001"},{"id":133904,"name":"Shahpura","stateId":4039,"stateCode":"MP","stateName":"Madhya Pradesh","countryId":101,"countryCode":"IN","countryName":"India","latitude":"23.13663000","longitude":"79.66402000","wikiDataId":"Q3959004"},{"id":133910,"name":"Shajapur","stateId":4039,"stateCode":"MP","stateName":"Madhya Pradesh","countryId":101,"countryCode":"IN","countryName":"India","latitude":"23.50000000","longitude":"76.25000000","wikiDataId":"Q2449803"},{"id":133912,"name":"Shamgarh","stateId":4039,"stateCode":"MP","stateName":"Madhya Pradesh","countryId":101,"countryCode":"IN","countryName":"India","latitude":"24.18817000","longitude":"75.63903000","wikiDataId":"Q2546410"},{"id":133861,"name":"Sheopur","stateId":4039,"stateCode":"MP","stateName":"Madhya Pradesh","countryId":101,"countryCode":"IN","countryName":"India","latitude":"25.80000000","longitude":"77.00000000","wikiDataId":"Q620105"},{"id":133880,"name":"Shivpuri","stateId":4039,"stateCode":"MP","stateName":"Madhya Pradesh","countryId":101,"countryCode":"IN","countryName":"India","latitude":"25.42378000","longitude":"77.66223000","wikiDataId":"Q2036966"},{"id":133888,"name":"Shujalpur","stateId":4039,"stateCode":"MP","stateName":"Madhya Pradesh","countryId":101,"countryCode":"IN","countryName":"India","latitude":"23.40673000","longitude":"76.70980000","wikiDataId":"Q2720813"},{"id":133922,"name":"Sidhi","stateId":4039,"stateCode":"MP","stateName":"Madhya Pradesh","countryId":101,"countryCode":"IN","countryName":"India","latitude":"24.25000000","longitude":"82.00000000","wikiDataId":"Q2449793"},{"id":133926,"name":"Sihora","stateId":4039,"stateCode":"MP","stateName":"Madhya Pradesh","countryId":101,"countryCode":"IN","countryName":"India","latitude":"23.48710000","longitude":"80.10404000","wikiDataId":"Q2546438"},{"id":133938,"name":"Simaria","stateId":4039,"stateCode":"MP","stateName":"Madhya Pradesh","countryId":101,"countryCode":"IN","countryName":"India","latitude":"24.79497000","longitude":"81.15200000","wikiDataId":"Q2720724"},{"id":133947,"name":"Singoli","stateId":4039,"stateCode":"MP","stateName":"Madhya Pradesh","countryId":101,"countryCode":"IN","countryName":"India","latitude":"24.96667000","longitude":"75.30000000","wikiDataId":"Q2722287"},{"id":133948,"name":"Singrauli","stateId":4039,"stateCode":"MP","stateName":"Madhya Pradesh","countryId":101,"countryCode":"IN","countryName":"India","latitude":"24.19973000","longitude":"82.67535000","wikiDataId":"Q255780"},{"id":133956,"name":"Sirmaur","stateId":4039,"stateCode":"MP","stateName":"Madhya Pradesh","countryId":101,"countryCode":"IN","countryName":"India","latitude":"24.83648000","longitude":"81.36448000","wikiDataId":"Q1928918"},{"id":133959,"name":"Sironj","stateId":4039,"stateCode":"MP","stateName":"Madhya Pradesh","countryId":101,"countryCode":"IN","countryName":"India","latitude":"24.10313000","longitude":"77.69055000","wikiDataId":"Q720147"},{"id":134090,"name":"Sitamau","stateId":4039,"stateCode":"MP","stateName":"Madhya Pradesh","countryId":101,"countryCode":"IN","countryName":"India","latitude":"24.01473000","longitude":"75.35324000","wikiDataId":"Q1815885"},{"id":133981,"name":"Sohagi","stateId":4039,"stateCode":"MP","stateName":"Madhya Pradesh","countryId":101,"countryCode":"IN","countryName":"India","latitude":"24.98181000","longitude":"81.69558000","wikiDataId":"Q2557903"},{"id":133982,"name":"Sohagpur","stateId":4039,"stateCode":"MP","stateName":"Madhya Pradesh","countryId":101,"countryCode":"IN","countryName":"India","latitude":"22.70055000","longitude":"78.19522000","wikiDataId":"Q2546550"},{"id":134039,"name":"Sultanpur","stateId":4039,"stateCode":"MP","stateName":"Madhya Pradesh","countryId":101,"countryCode":"IN","countryName":"India","latitude":"23.13812000","longitude":"77.93404000","wikiDataId":"Q3976891"},{"id":134055,"name":"Susner","stateId":4039,"stateCode":"MP","stateName":"Madhya Pradesh","countryId":101,"countryCode":"IN","countryName":"India","latitude":"23.94667000","longitude":"76.08825000","wikiDataId":"Q426442"},{"id":134230,"name":"Tal","stateId":4039,"stateCode":"MP","stateName":"Madhya Pradesh","countryId":101,"countryCode":"IN","countryName":"India","latitude":"23.71979000","longitude":"75.38514000","wikiDataId":"Q2336339"},{"id":134102,"name":"Talen","stateId":4039,"stateCode":"MP","stateName":"Madhya Pradesh","countryId":101,"countryCode":"IN","countryName":"India","latitude":"23.56949000","longitude":"76.72821000","wikiDataId":"Q2720317"},{"id":134119,"name":"Tarana","stateId":4039,"stateCode":"MP","stateName":"Madhya Pradesh","countryId":101,"countryCode":"IN","countryName":"India","latitude":"23.33383000","longitude":"76.04253000","wikiDataId":"Q2248410"},{"id":134124,"name":"Tekanpur","stateId":4039,"stateCode":"MP","stateName":"Madhya Pradesh","countryId":101,"countryCode":"IN","countryName":"India","latitude":"25.99401000","longitude":"78.28322000","wikiDataId":"Q2552125"},{"id":134130,"name":"Tendukheda","stateId":4039,"stateCode":"MP","stateName":"Madhya Pradesh","countryId":101,"countryCode":"IN","countryName":"India","latitude":"23.39620000","longitude":"79.53947000","wikiDataId":"Q384228"},{"id":134132,"name":"Teonthar","stateId":4039,"stateCode":"MP","stateName":"Madhya Pradesh","countryId":101,"countryCode":"IN","countryName":"India","latitude":"24.98207000","longitude":"81.64194000","wikiDataId":"Q2546511"},{"id":134137,"name":"Thandla","stateId":4039,"stateCode":"MP","stateName":"Madhya Pradesh","countryId":101,"countryCode":"IN","countryName":"India","latitude":"23.00959000","longitude":"74.57747000","wikiDataId":"Q530401"},{"id":134244,"name":"Tikamgarh","stateId":4039,"stateCode":"MP","stateName":"Madhya Pradesh","countryId":101,"countryCode":"IN","countryName":"India","latitude":"24.74327000","longitude":"78.83061000","wikiDataId":"Q2287213"},{"id":134177,"name":"Tirodi","stateId":4039,"stateCode":"MP","stateName":"Madhya Pradesh","countryId":101,"countryCode":"IN","countryName":"India","latitude":"21.68522000","longitude":"79.71906000","wikiDataId":"Q1121279"},{"id":134251,"name":"Udaipura","stateId":4039,"stateCode":"MP","stateName":"Madhya Pradesh","countryId":101,"countryCode":"IN","countryName":"India","latitude":"23.07434000","longitude":"78.51108000","wikiDataId":"Q2546414"},{"id":134263,"name":"Ujjain","stateId":4039,"stateCode":"MP","stateName":"Madhya Pradesh","countryId":101,"countryCode":"IN","countryName":"India","latitude":"23.41667000","longitude":"75.50000000","wikiDataId":"Q892641"},{"id":134266,"name":"Ukwa","stateId":4039,"stateCode":"MP","stateName":"Madhya Pradesh","countryId":101,"countryCode":"IN","countryName":"India","latitude":"21.97102000","longitude":"80.46625000","wikiDataId":"Q2720304"},{"id":134270,"name":"Umaria","stateId":4039,"stateCode":"MP","stateName":"Madhya Pradesh","countryId":101,"countryCode":"IN","countryName":"India","latitude":"23.52473000","longitude":"80.83716000","wikiDataId":"Q1109355"},{"id":134276,"name":"Umri","stateId":4039,"stateCode":"MP","stateName":"Madhya Pradesh","countryId":101,"countryCode":"IN","countryName":"India","latitude":"26.51056000","longitude":"78.93667000","wikiDataId":"Q2724380"},{"id":134282,"name":"Unhel","stateId":4039,"stateCode":"MP","stateName":"Madhya Pradesh","countryId":101,"countryCode":"IN","countryName":"India","latitude":"23.33794000","longitude":"75.55931000","wikiDataId":"Q2546487"},{"id":134354,"name":"Vidisha","stateId":4039,"stateCode":"MP","stateName":"Madhya Pradesh","countryId":101,"countryCode":"IN","countryName":"India","latitude":"23.91667000","longitude":"78.00000000","wikiDataId":"Q1815253"},{"id":134418,"name":"Waraseoni","stateId":4039,"stateCode":"MP","stateName":"Madhya Pradesh","countryId":101,"countryCode":"IN","countryName":"India","latitude":"21.76184000","longitude":"80.04301000","wikiDataId":"Q2449438"}]