[{"id":130106,"name":"Maroa","stateId":2044,"stateCode":"Z","stateName":"Amazonas","countryId":239,"countryCode":"VE","countryName":"Venezuela","latitude":"2.71880000","longitude":"-67.56046000","wikiDataId":"Q685198"},{"id":130110,"name":"Municipio Autónomo Alto Orinoco","stateId":2044,"stateCode":"Z","stateName":"Amazonas","countryId":239,"countryCode":"VE","countryName":"Venezuela","latitude":"2.73456000","longitude":"-64.83032000","wikiDataId":"Q31960357"},{"id":130131,"name":"Puerto Ayacucho","stateId":2044,"stateCode":"Z","stateName":"Amazonas","countryId":239,"countryCode":"VE","countryName":"Venezuela","latitude":"5.66049000","longitude":"-67.58343000","wikiDataId":"Q372920"},{"id":130142,"name":"San Carlos de Río Negro","stateId":2044,"stateCode":"Z","stateName":"Amazonas","countryId":239,"countryCode":"VE","countryName":"Venezuela","latitude":"1.92027000","longitude":"-67.06089000","wikiDataId":"Q1269422"},{"id":130146,"name":"San Fernando de Atabapo","stateId":2044,"stateCode":"Z","stateName":"Amazonas","countryId":239,"countryCode":"VE","countryName":"Venezuela","latitude":"4.04564000","longitude":"-67.69934000","wikiDataId":"Q371223"},{"id":130149,"name":"San Juan de Manapiare","stateId":2044,"stateCode":"Z","stateName":"Amazonas","countryId":239,"countryCode":"VE","countryName":"Venezuela","latitude":"5.32665000","longitude":"-66.05402000","wikiDataId":"Q1023656"},{"id":130041,"name":"Anaco","stateId":2050,"stateCode":"B","stateName":"Anzoátegui","countryId":239,"countryCode":"VE","countryName":"Venezuela","latitude":"9.42958000","longitude":"-64.46428000","wikiDataId":"Q1897488"},{"id":130042,"name":"Aragua de Barcelona","stateId":2050,"stateCode":"B","stateName":"Anzoátegui","countryId":239,"countryCode":"VE","countryName":"Venezuela","latitude":"9.45588000","longitude":"-64.82928000","wikiDataId":"Q2859442"},{"id":130044,"name":"Barcelona","stateId":2050,"stateCode":"B","stateName":"Anzoátegui","countryId":239,"countryCode":"VE","countryName":"Venezuela","latitude":"10.13625000","longitude":"-64.68618000","wikiDataId":"Q391221"},{"id":130054,"name":"Cantaura","stateId":2050,"stateCode":"B","stateName":"Anzoátegui","countryId":239,"countryCode":"VE","countryName":"Venezuela","latitude":"9.30571000","longitude":"-64.35841000","wikiDataId":"Q2919593"},{"id":130078,"name":"El Tigre","stateId":2050,"stateCode":"B","stateName":"Anzoátegui","countryId":239,"countryCode":"VE","countryName":"Venezuela","latitude":"8.88902000","longitude":"-64.25270000","wikiDataId":"Q1020297"},{"id":130113,"name":"Municipio José Gregorio Monagas","stateId":2050,"stateCode":"B","stateName":"Anzoátegui","countryId":239,"countryCode":"VE","countryName":"Venezuela","latitude":"7.73874000","longitude":"-64.71876000","wikiDataId":"Q2545115"},{"id":130127,"name":"Onoto","stateId":2050,"stateCode":"B","stateName":"Anzoátegui","countryId":239,"countryCode":"VE","countryName":"Venezuela","latitude":"9.59714000","longitude":"-65.19350000","wikiDataId":"Q3132654"},{"id":130133,"name":"Puerto La Cruz","stateId":2050,"stateCode":"B","stateName":"Anzoátegui","countryId":239,"countryCode":"VE","countryName":"Venezuela","latitude":"10.21382000","longitude":"-64.63280000","wikiDataId":"Q379509"},{"id":130134,"name":"Puerto Píritu","stateId":2050,"stateCode":"B","stateName":"Anzoátegui","countryId":239,"countryCode":"VE","countryName":"Venezuela","latitude":"10.05896000","longitude":"-65.03698000","wikiDataId":"Q3132040"},{"id":130148,"name":"San José de Guanipa","stateId":2050,"stateCode":"B","stateName":"Anzoátegui","countryId":239,"countryCode":"VE","countryName":"Venezuela","latitude":"8.88724000","longitude":"-64.16512000","wikiDataId":"Q3067441"},{"id":153351,"name":"San Fernando de Apure","stateId":4856,"stateCode":"C","stateName":"Apure","countryId":239,"countryCode":"VE","countryName":"Venezuela","latitude":"7.87266930","longitude":"-67.48193280","wikiDataId":"Q990764"},{"id":130052,"name":"Cagua","stateId":2047,"stateCode":"D","stateName":"Aragua","countryId":239,"countryCode":"VE","countryName":"Venezuela","latitude":"10.18634000","longitude":"-67.45935000","wikiDataId":"Q979808"},{"id":130077,"name":"El Limón","stateId":2047,"stateCode":"D","stateName":"Aragua","countryId":239,"countryCode":"VE","countryName":"Venezuela","latitude":"10.30589000","longitude":"-67.63212000","wikiDataId":"Q1324317"},{"id":130093,"name":"La Victoria","stateId":2047,"stateCode":"D","stateName":"Aragua","countryId":239,"countryCode":"VE","countryName":"Venezuela","latitude":"10.22677000","longitude":"-67.33122000","wikiDataId":"Q590133"},{"id":130096,"name":"Las Tejerías","stateId":2047,"stateCode":"D","stateName":"Aragua","countryId":239,"countryCode":"VE","countryName":"Venezuela","latitude":"10.25416000","longitude":"-67.17333000","wikiDataId":"Q3218244"},{"id":130104,"name":"Maracay","stateId":2047,"stateCode":"D","stateName":"Aragua","countryId":239,"countryCode":"VE","countryName":"Venezuela","latitude":"10.23535000","longitude":"-67.59113000","wikiDataId":"Q333928"},{"id":130128,"name":"Palo Negro","stateId":2047,"stateCode":"D","stateName":"Aragua","countryId":239,"countryCode":"VE","countryName":"Venezuela","latitude":"10.17389000","longitude":"-67.54194000","wikiDataId":"Q3132654"},{"id":130151,"name":"San Mateo","stateId":2047,"stateCode":"D","stateName":"Aragua","countryId":239,"countryCode":"VE","countryName":"Venezuela","latitude":"10.21302000","longitude":"-67.42365000","wikiDataId":"Q3471566"},{"id":130153,"name":"Santa Rita","stateId":2047,"stateCode":"D","stateName":"Aragua","countryId":239,"countryCode":"VE","countryName":"Venezuela","latitude":"10.20540000","longitude":"-67.55948000","wikiDataId":"Q1027004"},{"id":130162,"name":"Turmero","stateId":2047,"stateCode":"D","stateName":"Aragua","countryId":239,"countryCode":"VE","countryName":"Venezuela","latitude":"10.22856000","longitude":"-67.47421000","wikiDataId":"Q997084"},{"id":130169,"name":"Villa de Cura","stateId":2047,"stateCode":"D","stateName":"Aragua","countryId":239,"countryCode":"VE","countryName":"Venezuela","latitude":"10.03863000","longitude":"-67.48938000","wikiDataId":"Q2721732"},{"id":130040,"name":"Alto Barinas","stateId":2049,"stateCode":"E","stateName":"Barinas","countryId":239,"countryCode":"VE","countryName":"Venezuela","latitude":"8.59310000","longitude":"-70.22610000","wikiDataId":"Q433758"},{"id":130045,"name":"Barinas","stateId":2049,"stateCode":"E","stateName":"Barinas","countryId":239,"countryCode":"VE","countryName":"Venezuela","latitude":"8.62261000","longitude":"-70.20749000","wikiDataId":"Q695623"},{"id":130046,"name":"Barinitas","stateId":2049,"stateCode":"E","stateName":"Barinas","countryId":239,"countryCode":"VE","countryName":"Venezuela","latitude":"8.76171000","longitude":"-70.41199000","wikiDataId":"Q2884528"},{"id":130111,"name":"Municipio Barinas","stateId":2049,"stateCode":"E","stateName":"Barinas","countryId":239,"countryCode":"VE","countryName":"Venezuela","latitude":"8.61497000","longitude":"-70.19852000","wikiDataId":"Q2884525"},{"id":130067,"name":"Ciudad Bolívar","stateId":2039,"stateCode":"F","stateName":"Bolívar","countryId":239,"countryCode":"VE","countryName":"Venezuela","latitude":"8.12923000","longitude":"-63.54086000","wikiDataId":"Q26906"},{"id":130068,"name":"Ciudad Guayana","stateId":2039,"stateCode":"F","stateName":"Bolívar","countryId":239,"countryCode":"VE","countryName":"Venezuela","latitude":"8.35122000","longitude":"-62.64102000","wikiDataId":"Q507080"},{"id":130119,"name":"Municipio Padre Pedro Chien","stateId":2039,"stateCode":"F","stateName":"Bolívar","countryId":239,"countryCode":"VE","countryName":"Venezuela","latitude":"8.02455000","longitude":"-61.88187000","wikiDataId":"Q535057"},{"id":130152,"name":"Santa Elena de Uairén","stateId":2039,"stateCode":"F","stateName":"Bolívar","countryId":239,"countryCode":"VE","countryName":"Venezuela","latitude":"4.60226000","longitude":"-61.11025000","wikiDataId":"Q2568748"},{"id":130164,"name":"Upata","stateId":2039,"stateCode":"F","stateName":"Bolívar","countryId":239,"countryCode":"VE","countryName":"Venezuela","latitude":"8.01620000","longitude":"-62.40561000","wikiDataId":"Q940082"},{"id":130081,"name":"Guacara","stateId":2040,"stateCode":"G","stateName":"Carabobo","countryId":239,"countryCode":"VE","countryName":"Venezuela","latitude":"10.22609000","longitude":"-67.87700000","wikiDataId":"Q1552562"},{"id":130085,"name":"Güigüe","stateId":2040,"stateCode":"G","stateName":"Carabobo","countryId":239,"countryCode":"VE","countryName":"Venezuela","latitude":"10.08344000","longitude":"-67.77799000","wikiDataId":"Q1000143"},{"id":130098,"name":"Los Guayos","stateId":2040,"stateCode":"G","stateName":"Carabobo","countryId":239,"countryCode":"VE","countryName":"Venezuela","latitude":"10.18932000","longitude":"-67.93828000","wikiDataId":"Q1817441"},{"id":130105,"name":"Mariara","stateId":2040,"stateCode":"G","stateName":"Carabobo","countryId":239,"countryCode":"VE","countryName":"Venezuela","latitude":"10.29532000","longitude":"-67.71770000","wikiDataId":"Q1816684"},{"id":130108,"name":"Morón","stateId":2040,"stateCode":"G","stateName":"Carabobo","countryId":239,"countryCode":"VE","countryName":"Venezuela","latitude":"10.48715000","longitude":"-68.20078000","wikiDataId":"Q452706"},{"id":130132,"name":"Puerto Cabello","stateId":2040,"stateCode":"G","stateName":"Carabobo","countryId":239,"countryCode":"VE","countryName":"Venezuela","latitude":"10.47306000","longitude":"-68.01250000","wikiDataId":"Q995695"},{"id":130147,"name":"San Joaquín","stateId":2040,"stateCode":"G","stateName":"Carabobo","countryId":239,"countryCode":"VE","countryName":"Venezuela","latitude":"10.26061000","longitude":"-67.79348000","wikiDataId":"Q1631420"},{"id":130156,"name":"Tacarigua","stateId":2040,"stateCode":"G","stateName":"Carabobo","countryId":239,"countryCode":"VE","countryName":"Venezuela","latitude":"10.08621000","longitude":"-67.91982000","wikiDataId":"Q32026586"},{"id":130158,"name":"Tocuyito","stateId":2040,"stateCode":"G","stateName":"Carabobo","countryId":239,"countryCode":"VE","countryName":"Venezuela","latitude":"10.11347000","longitude":"-68.06783000","wikiDataId":"Q913356"},{"id":130165,"name":"Valencia","stateId":2040,"stateCode":"G","stateName":"Carabobo","countryId":239,"countryCode":"VE","countryName":"Venezuela","latitude":"10.16202000","longitude":"-68.00765000","wikiDataId":"Q54880"},{"id":130141,"name":"San Carlos","stateId":2034,"stateCode":"H","stateName":"Cojedes","countryId":239,"countryCode":"VE","countryName":"Venezuela","latitude":"9.66124000","longitude":"-68.58268000","wikiDataId":"Q995718"},{"id":130157,"name":"Tinaquillo","stateId":2034,"stateCode":"H","stateName":"Cojedes","countryId":239,"countryCode":"VE","countryName":"Venezuela","latitude":"9.91861000","longitude":"-68.30472000","wikiDataId":"Q1517139"},{"id":130161,"name":"Tucupita","stateId":2051,"stateCode":"Y","stateName":"Delta Amacuro","countryId":239,"countryCode":"VE","countryName":"Venezuela","latitude":"9.05806000","longitude":"-62.05000000","wikiDataId":"Q179007"},{"id":149261,"name":"Caracas","stateId":4855,"stateCode":"A","stateName":"Distrito Capital","countryId":239,"countryCode":"VE","countryName":"Venezuela","latitude":"10.50000000","longitude":"-66.93333333","wikiDataId":"Q1533"},{"id":130065,"name":"Chichiriviche","stateId":2035,"stateCode":"I","stateName":"Falcón","countryId":239,"countryCode":"VE","countryName":"Venezuela","latitude":"10.92872000","longitude":"-68.27283000","wikiDataId":"Q2963374"},{"id":130071,"name":"Coro","stateId":2035,"stateCode":"I","stateName":"Falcón","countryId":239,"countryCode":"VE","countryName":"Venezuela","latitude":"11.40450000","longitude":"-69.67344000","wikiDataId":"Q1134454"},{"id":130116,"name":"Municipio Los Taques","stateId":2035,"stateCode":"I","stateName":"Falcón","countryId":239,"countryCode":"VE","countryName":"Venezuela","latitude":"11.82308000","longitude":"-70.25353000","wikiDataId":"Q2318412"},{"id":130118,"name":"Municipio Miranda","stateId":2035,"stateCode":"I","stateName":"Falcón","countryId":239,"countryCode":"VE","countryName":"Venezuela","latitude":"11.31667000","longitude":"-69.86667000","wikiDataId":"Q1910828"},{"id":130135,"name":"Punta Cardón","stateId":2035,"stateCode":"I","stateName":"Falcón","countryId":239,"countryCode":"VE","countryName":"Venezuela","latitude":"11.65806000","longitude":"-70.21500000","wikiDataId":"Q3132040"},{"id":130136,"name":"Punto Fijo","stateId":2035,"stateCode":"I","stateName":"Falcón","countryId":239,"countryCode":"VE","countryName":"Venezuela","latitude":"11.69152000","longitude":"-70.19918000","wikiDataId":"Q1020279"},{"id":130160,"name":"Tucacas","stateId":2035,"stateCode":"I","stateName":"Falcón","countryId":239,"countryCode":"VE","countryName":"Venezuela","latitude":"10.79006000","longitude":"-68.32564000","wikiDataId":"Q2094682"},{"id":130039,"name":"Altagracia de Orituco","stateId":2045,"stateCode":"J","stateName":"Guárico","countryId":239,"countryCode":"VE","countryName":"Venezuela","latitude":"9.86005000","longitude":"-66.38139000","wikiDataId":"Q433758"},{"id":130053,"name":"Calabozo","stateId":2045,"stateCode":"J","stateName":"Guárico","countryId":239,"countryCode":"VE","countryName":"Venezuela","latitude":"8.92416000","longitude":"-67.42929000","wikiDataId":"Q1026185"},{"id":130150,"name":"San Juan de los Morros","stateId":2045,"stateCode":"J","stateName":"Guárico","countryId":239,"countryCode":"VE","countryName":"Venezuela","latitude":"9.91152000","longitude":"-67.35381000","wikiDataId":"Q999117"},{"id":130167,"name":"Valle de La Pascua","stateId":2045,"stateCode":"J","stateName":"Guárico","countryId":239,"countryCode":"VE","countryName":"Venezuela","latitude":"9.21554000","longitude":"-66.00734000","wikiDataId":"Q1308292"},{"id":130171,"name":"Zaraza","stateId":2045,"stateCode":"J","stateName":"Guárico","countryId":239,"countryCode":"VE","countryName":"Venezuela","latitude":"9.35029000","longitude":"-65.32452000","wikiDataId":"Q147782"},{"id":130055,"name":"Caraballeda","stateId":2055,"stateCode":"X","stateName":"La Guaira","countryId":239,"countryCode":"VE","countryName":"Venezuela","latitude":"10.61216000","longitude":"-66.85192000","wikiDataId":"Q2919593"},{"id":130060,"name":"Catia La Mar","stateId":2055,"stateCode":"X","stateName":"La Guaira","countryId":239,"countryCode":"VE","countryName":"Venezuela","latitude":"10.60545000","longitude":"-67.03238000","wikiDataId":"Q2725457"},{"id":130092,"name":"La Guaira","stateId":2055,"stateCode":"X","stateName":"La Guaira","countryId":239,"countryCode":"VE","countryName":"Venezuela","latitude":"10.60156000","longitude":"-66.93293000","wikiDataId":"Q873405"},{"id":130102,"name":"Maiquetía","stateId":2055,"stateCode":"X","stateName":"La Guaira","countryId":239,"countryCode":"VE","countryName":"Venezuela","latitude":"10.59450000","longitude":"-66.95624000","wikiDataId":"Q1677956"},{"id":130047,"name":"Barquisimeto","stateId":2038,"stateCode":"K","stateName":"Lara","countryId":239,"countryCode":"VE","countryName":"Venezuela","latitude":"10.06470000","longitude":"-69.35703000","wikiDataId":"Q4709"},{"id":130051,"name":"Cabudare","stateId":2038,"stateCode":"K","stateName":"Lara","countryId":239,"countryCode":"VE","countryName":"Venezuela","latitude":"10.02658000","longitude":"-69.26203000","wikiDataId":"Q580968"},{"id":130057,"name":"Carora","stateId":2038,"stateCode":"K","stateName":"Lara","countryId":239,"countryCode":"VE","countryName":"Venezuela","latitude":"10.17283000","longitude":"-70.08100000","wikiDataId":"Q1044689"},{"id":130079,"name":"El Tocuyo","stateId":2038,"stateCode":"K","stateName":"Lara","countryId":239,"countryCode":"VE","countryName":"Venezuela","latitude":"9.78709000","longitude":"-69.79294000","wikiDataId":"Q1324653"},{"id":130099,"name":"Los Rastrojos","stateId":2038,"stateCode":"K","stateName":"Lara","countryId":239,"countryCode":"VE","countryName":"Venezuela","latitude":"10.02588000","longitude":"-69.24166000","wikiDataId":"Q31943619"},{"id":130137,"name":"Quíbor","stateId":2038,"stateCode":"K","stateName":"Lara","countryId":239,"countryCode":"VE","countryName":"Venezuela","latitude":"9.92866000","longitude":"-69.62010000","wikiDataId":"Q1021748"},{"id":130074,"name":"Ejido","stateId":2053,"stateCode":"L","stateName":"Mérida","countryId":239,"countryCode":"VE","countryName":"Venezuela","latitude":"8.54665000","longitude":"-71.24087000","wikiDataId":"Q770309"},{"id":130080,"name":"El Vigía","stateId":2053,"stateCode":"L","stateName":"Mérida","countryId":239,"countryCode":"VE","countryName":"Venezuela","latitude":"8.61350000","longitude":"-71.65702000","wikiDataId":"Q1324653"},{"id":130124,"name":"Mérida","stateId":2053,"stateCode":"L","stateName":"Mérida","countryId":239,"countryCode":"VE","countryName":"Venezuela","latitude":"8.58972000","longitude":"-71.15611000","wikiDataId":"Q23551"},{"id":130109,"name":"Mucumpiz","stateId":2053,"stateCode":"L","stateName":"Mérida","countryId":239,"countryCode":"VE","countryName":"Venezuela","latitude":"8.41667000","longitude":"-71.13333000","wikiDataId":"Q31960357"},{"id":130115,"name":"Municipio Libertador","stateId":2053,"stateCode":"L","stateName":"Mérida","countryId":239,"countryCode":"VE","countryName":"Venezuela","latitude":"8.33333000","longitude":"-71.11667000","wikiDataId":"Q2207830"},{"id":130048,"name":"Baruta","stateId":2037,"stateCode":"M","stateName":"Miranda","countryId":239,"countryCode":"VE","countryName":"Venezuela","latitude":"10.43424000","longitude":"-66.87558000","wikiDataId":"Q3071358"},{"id":130058,"name":"Carrizal","stateId":2037,"stateCode":"M","stateName":"Miranda","countryId":239,"countryCode":"VE","countryName":"Venezuela","latitude":"10.34985000","longitude":"-66.98632000","wikiDataId":"Q1044689"},{"id":130061,"name":"Caucaguita","stateId":2037,"stateCode":"M","stateName":"Miranda","countryId":239,"countryCode":"VE","countryName":"Venezuela","latitude":"10.35782000","longitude":"-66.80252000","wikiDataId":"Q31890677"},{"id":130062,"name":"Caucagüito","stateId":2037,"stateCode":"M","stateName":"Miranda","countryId":239,"countryCode":"VE","countryName":"Venezuela","latitude":"10.48666000","longitude":"-66.73799000","wikiDataId":"Q31890677"},{"id":130063,"name":"Chacao","stateId":2037,"stateCode":"M","stateName":"Miranda","countryId":239,"countryCode":"VE","countryName":"Venezuela","latitude":"10.49581000","longitude":"-66.85367000","wikiDataId":"Q374734"},{"id":130064,"name":"Charallave","stateId":2037,"stateCode":"M","stateName":"Miranda","countryId":239,"countryCode":"VE","countryName":"Venezuela","latitude":"10.24247000","longitude":"-66.85723000","wikiDataId":"Q163464"},{"id":130073,"name":"Cúa","stateId":2037,"stateCode":"M","stateName":"Miranda","countryId":239,"countryCode":"VE","countryName":"Venezuela","latitude":"10.16245000","longitude":"-66.88248000","wikiDataId":"Q770309"},{"id":130075,"name":"El Cafetal","stateId":2037,"stateCode":"M","stateName":"Miranda","countryId":239,"countryCode":"VE","countryName":"Venezuela","latitude":"10.46541000","longitude":"-66.82951000","wikiDataId":"Q770309"},{"id":130076,"name":"El Hatillo","stateId":2037,"stateCode":"M","stateName":"Miranda","countryId":239,"countryCode":"VE","countryName":"Venezuela","latitude":"10.42411000","longitude":"-66.82581000","wikiDataId":"Q975765"},{"id":130083,"name":"Guarenas","stateId":2037,"stateCode":"M","stateName":"Miranda","countryId":239,"countryCode":"VE","countryName":"Venezuela","latitude":"10.47027000","longitude":"-66.61934000","wikiDataId":"Q996478"},{"id":130084,"name":"Guatire","stateId":2037,"stateCode":"M","stateName":"Miranda","countryId":239,"countryCode":"VE","countryName":"Venezuela","latitude":"10.47400000","longitude":"-66.54241000","wikiDataId":"Q1026987"},{"id":130089,"name":"La Dolorita","stateId":2037,"stateCode":"M","stateName":"Miranda","countryId":239,"countryCode":"VE","countryName":"Venezuela","latitude":"10.48830000","longitude":"-66.78608000","wikiDataId":"Q3131511"},{"id":130097,"name":"Los Dos Caminos","stateId":2037,"stateCode":"M","stateName":"Miranda","countryId":239,"countryCode":"VE","countryName":"Venezuela","latitude":"10.49389000","longitude":"-66.82863000","wikiDataId":"Q5411186"},{"id":130100,"name":"Los Teques","stateId":2037,"stateCode":"M","stateName":"Miranda","countryId":239,"countryCode":"VE","countryName":"Venezuela","latitude":"10.34447000","longitude":"-67.04325000","wikiDataId":"Q695631"},{"id":130126,"name":"Ocumare del Tuy","stateId":2037,"stateCode":"M","stateName":"Miranda","countryId":239,"countryCode":"VE","countryName":"Venezuela","latitude":"10.11820000","longitude":"-66.77513000","wikiDataId":"Q1972757"},{"id":130129,"name":"Petare","stateId":2037,"stateCode":"M","stateName":"Miranda","countryId":239,"countryCode":"VE","countryName":"Venezuela","latitude":"10.47679000","longitude":"-66.80786000","wikiDataId":"Q983946"},{"id":130139,"name":"San Antonio de Los Altos","stateId":2037,"stateCode":"M","stateName":"Miranda","countryId":239,"countryCode":"VE","countryName":"Venezuela","latitude":"10.38853000","longitude":"-66.95179000","wikiDataId":"Q2895437"},{"id":130155,"name":"Santa Teresa del Tuy","stateId":2037,"stateCode":"M","stateName":"Miranda","countryId":239,"countryCode":"VE","countryName":"Venezuela","latitude":"10.23291000","longitude":"-66.66474000","wikiDataId":"Q1390081"},{"id":130056,"name":"Caripito","stateId":2054,"stateCode":"N","stateName":"Monagas","countryId":239,"countryCode":"VE","countryName":"Venezuela","latitude":"10.11135000","longitude":"-63.09985000","wikiDataId":"Q2938844"},{"id":130107,"name":"Maturín","stateId":2054,"stateCode":"N","stateName":"Monagas","countryId":239,"countryCode":"VE","countryName":"Venezuela","latitude":"9.74569000","longitude":"-63.18323000","wikiDataId":"Q842779"},{"id":130117,"name":"Municipio Maturín","stateId":2054,"stateCode":"N","stateName":"Monagas","countryId":239,"countryCode":"VE","countryName":"Venezuela","latitude":"9.40000000","longitude":"-63.03333000","wikiDataId":"Q3300002"},{"id":130122,"name":"Municipio Uracoa","stateId":2054,"stateCode":"N","stateName":"Monagas","countryId":239,"countryCode":"VE","countryName":"Venezuela","latitude":"8.99960000","longitude":"-62.35164000","wikiDataId":"Q2635968"},{"id":130087,"name":"Juan Griego","stateId":2052,"stateCode":"O","stateName":"Nueva Esparta","countryId":239,"countryCode":"VE","countryName":"Venezuela","latitude":"11.08172000","longitude":"-63.96549000","wikiDataId":"Q3131511"},{"id":130088,"name":"La Asunción","stateId":2052,"stateCode":"O","stateName":"Nueva Esparta","countryId":239,"countryCode":"VE","countryName":"Venezuela","latitude":"11.03333000","longitude":"-63.86278000","wikiDataId":"Q3131511"},{"id":130130,"name":"Porlamar","stateId":2052,"stateCode":"O","stateName":"Nueva Esparta","countryId":239,"countryCode":"VE","countryName":"Venezuela","latitude":"10.95771000","longitude":"-63.86971000","wikiDataId":"Q953449"},{"id":130038,"name":"Acarigua","stateId":2036,"stateCode":"P","stateName":"Portuguesa","countryId":239,"countryCode":"VE","countryName":"Venezuela","latitude":"9.55451000","longitude":"-69.19564000","wikiDataId":"Q338059"},{"id":130043,"name":"Araure","stateId":2036,"stateCode":"P","stateName":"Portuguesa","countryId":239,"countryCode":"VE","countryName":"Venezuela","latitude":"9.58144000","longitude":"-69.23851000","wikiDataId":"Q626670"},{"id":130082,"name":"Guanare","stateId":2036,"stateCode":"P","stateName":"Portuguesa","countryId":239,"countryCode":"VE","countryName":"Venezuela","latitude":"9.04183000","longitude":"-69.74206000","wikiDataId":"Q733005"},{"id":130168,"name":"Villa Bruzual","stateId":2036,"stateCode":"P","stateName":"Portuguesa","countryId":239,"countryCode":"VE","countryName":"Venezuela","latitude":"9.33186000","longitude":"-69.11968000","wikiDataId":"Q430981"},{"id":130059,"name":"Carúpano","stateId":2056,"stateCode":"R","stateName":"Sucre","countryId":239,"countryCode":"VE","countryName":"Venezuela","latitude":"10.66516000","longitude":"-63.25387000","wikiDataId":"Q153511"},{"id":130072,"name":"Cumaná","stateId":2056,"stateCode":"R","stateName":"Sucre","countryId":239,"countryCode":"VE","countryName":"Venezuela","latitude":"10.45397000","longitude":"-64.18256000","wikiDataId":"Q1134454"},{"id":130086,"name":"Güiria","stateId":2056,"stateCode":"R","stateName":"Sucre","countryId":239,"countryCode":"VE","countryName":"Venezuela","latitude":"10.57721000","longitude":"-62.29841000","wikiDataId":"Q1000143"},{"id":130123,"name":"Municipio Valdez","stateId":2056,"stateCode":"R","stateName":"Sucre","countryId":239,"countryCode":"VE","countryName":"Venezuela","latitude":"10.57945000","longitude":"-62.30029000","wikiDataId":"Q2230534"},{"id":130070,"name":"Colón","stateId":2048,"stateCode":"S","stateName":"Táchira","countryId":239,"countryCode":"VE","countryName":"Venezuela","latitude":"8.03125000","longitude":"-72.26053000","wikiDataId":"Q3072164"},{"id":130090,"name":"La Fría","stateId":2048,"stateCode":"S","stateName":"Táchira","countryId":239,"countryCode":"VE","countryName":"Venezuela","latitude":"8.21523000","longitude":"-72.24888000","wikiDataId":"Q525112"},{"id":130091,"name":"La Grita","stateId":2048,"stateCode":"S","stateName":"Táchira","countryId":239,"countryCode":"VE","countryName":"Venezuela","latitude":"8.13316000","longitude":"-71.98390000","wikiDataId":"Q3134346"},{"id":130114,"name":"Municipio José María Vargas","stateId":2048,"stateCode":"S","stateName":"Táchira","countryId":239,"countryCode":"VE","countryName":"Venezuela","latitude":"8.03514000","longitude":"-72.05675000","wikiDataId":"Q2545115"},{"id":130138,"name":"Rubio","stateId":2048,"stateCode":"S","stateName":"Táchira","countryId":239,"countryCode":"VE","countryName":"Venezuela","latitude":"7.70131000","longitude":"-72.35569000","wikiDataId":"Q1002638"},{"id":130140,"name":"San Antonio del Táchira","stateId":2048,"stateCode":"S","stateName":"Táchira","countryId":239,"countryCode":"VE","countryName":"Venezuela","latitude":"7.81454000","longitude":"-72.44310000","wikiDataId":"Q2602785"},{"id":130144,"name":"San Cristóbal","stateId":2048,"stateCode":"S","stateName":"Táchira","countryId":239,"countryCode":"VE","countryName":"Venezuela","latitude":"7.76694000","longitude":"-72.22500000","wikiDataId":"Q820235"},{"id":130163,"name":"Táriba","stateId":2048,"stateCode":"S","stateName":"Táchira","countryId":239,"countryCode":"VE","countryName":"Venezuela","latitude":"7.81880000","longitude":"-72.22427000","wikiDataId":"Q167974"},{"id":130049,"name":"Boconó","stateId":2043,"stateCode":"T","stateName":"Trujillo","countryId":239,"countryCode":"VE","countryName":"Venezuela","latitude":"9.25385000","longitude":"-70.25105000","wikiDataId":"Q889344"},{"id":130120,"name":"Municipio Pampanito","stateId":2043,"stateCode":"T","stateName":"Trujillo","countryId":239,"countryCode":"VE","countryName":"Venezuela","latitude":"9.41147000","longitude":"-70.49592000","wikiDataId":"Q2596580"},{"id":130121,"name":"Municipio San Rafael de Carvajal","stateId":2043,"stateCode":"T","stateName":"Trujillo","countryId":239,"countryCode":"VE","countryName":"Venezuela","latitude":"9.30756000","longitude":"-70.58965000","wikiDataId":"Q1905292"},{"id":130159,"name":"Trujillo","stateId":2043,"stateCode":"T","stateName":"Trujillo","countryId":239,"countryCode":"VE","countryName":"Venezuela","latitude":"9.36583000","longitude":"-70.43694000","wikiDataId":"Q1020535"},{"id":130166,"name":"Valera","stateId":2043,"stateCode":"T","stateName":"Trujillo","countryId":239,"countryCode":"VE","countryName":"Venezuela","latitude":"9.31778000","longitude":"-70.60361000","wikiDataId":"Q1010367"},{"id":130066,"name":"Chivacoa","stateId":2041,"stateCode":"U","stateName":"Yaracuy","countryId":239,"countryCode":"VE","countryName":"Venezuela","latitude":"10.15951000","longitude":"-68.89453000","wikiDataId":"Q3499515"},{"id":130112,"name":"Municipio Independencia","stateId":2041,"stateCode":"U","stateName":"Yaracuy","countryId":239,"countryCode":"VE","countryName":"Venezuela","latitude":"10.33472000","longitude":"-68.75555000","wikiDataId":"Q2884525"},{"id":130125,"name":"Nirgua","stateId":2041,"stateCode":"U","stateName":"Yaracuy","countryId":239,"countryCode":"VE","countryName":"Venezuela","latitude":"10.15039000","longitude":"-68.56478000","wikiDataId":"Q1409152"},{"id":130145,"name":"San Felipe","stateId":2041,"stateCode":"U","stateName":"Yaracuy","countryId":239,"countryCode":"VE","countryName":"Venezuela","latitude":"10.33991000","longitude":"-68.74247000","wikiDataId":"Q965754"},{"id":130170,"name":"Yaritagua","stateId":2041,"stateCode":"U","stateName":"Yaracuy","countryId":239,"countryCode":"VE","countryName":"Venezuela","latitude":"10.08081000","longitude":"-69.12420000","wikiDataId":"Q1023493"},{"id":130050,"name":"Cabimas","stateId":2042,"stateCode":"V","stateName":"Zulia","countryId":239,"countryCode":"VE","countryName":"Venezuela","latitude":"10.39907000","longitude":"-71.45206000","wikiDataId":"Q723588"},{"id":130069,"name":"Ciudad Ojeda","stateId":2042,"stateCode":"V","stateName":"Zulia","countryId":239,"countryCode":"VE","countryName":"Venezuela","latitude":"10.20161000","longitude":"-71.31480000","wikiDataId":"Q953490"},{"id":130094,"name":"La Villa del Rosario","stateId":2042,"stateCode":"V","stateName":"Zulia","countryId":239,"countryCode":"VE","countryName":"Venezuela","latitude":"10.32580000","longitude":"-72.31343000","wikiDataId":"Q5410028"},{"id":130095,"name":"Lagunillas","stateId":2042,"stateCode":"V","stateName":"Zulia","countryId":239,"countryCode":"VE","countryName":"Venezuela","latitude":"10.13008000","longitude":"-71.25946000","wikiDataId":"Q5410028"},{"id":130101,"name":"Machiques","stateId":2042,"stateCode":"V","stateName":"Zulia","countryId":239,"countryCode":"VE","countryName":"Venezuela","latitude":"10.06077000","longitude":"-72.55212000","wikiDataId":"Q3236167"},{"id":130103,"name":"Maracaibo","stateId":2042,"stateCode":"V","stateName":"Zulia","countryId":239,"countryCode":"VE","countryName":"Venezuela","latitude":"10.66663000","longitude":"-71.61245000","wikiDataId":"Q171632"},{"id":130143,"name":"San Carlos del Zulia","stateId":2042,"stateCode":"V","stateName":"Zulia","countryId":239,"countryCode":"VE","countryName":"Venezuela","latitude":"9.00098000","longitude":"-71.92683000","wikiDataId":"Q1005022"},{"id":130154,"name":"Santa Rita","stateId":2042,"stateCode":"V","stateName":"Zulia","countryId":239,"countryCode":"VE","countryName":"Venezuela","latitude":"10.53642000","longitude":"-71.51104000","wikiDataId":"Q1027004"}]