[{"id":39145,"name":"Naitasiri Province","stateId":1929,"stateCode":"C","stateName":"Central Division","countryId":73,"countryCode":"FJ","countryName":"Fiji Islands","latitude":"-17.83333000","longitude":"178.25000000","wikiDataId":"Q1365284"},{"id":39146,"name":"Namosi Province","stateId":1929,"stateCode":"C","stateName":"Central Division","countryId":73,"countryCode":"FJ","countryName":"Fiji Islands","latitude":"-18.05000000","longitude":"178.13333000","wikiDataId":"Q1365295"},{"id":39149,"name":"Rewa Province","stateId":1929,"stateCode":"C","stateName":"Central Division","countryId":73,"countryCode":"FJ","countryName":"Fiji Islands","latitude":"-18.08333000","longitude":"178.33333000","wikiDataId":"Q1365257"},{"id":39150,"name":"Serua Province","stateId":1929,"stateCode":"C","stateName":"Central Division","countryId":73,"countryCode":"FJ","countryName":"Fiji Islands","latitude":"-18.16667000","longitude":"178.00000000","wikiDataId":"Q1208362"},{"id":39151,"name":"Suva","stateId":1929,"stateCode":"C","stateName":"Central Division","countryId":73,"countryCode":"FJ","countryName":"Fiji Islands","latitude":"-18.14161000","longitude":"178.44149000","wikiDataId":"Q38807"},{"id":39152,"name":"Tailevu Province","stateId":1929,"stateCode":"C","stateName":"Central Division","countryId":73,"countryCode":"FJ","countryName":"Fiji Islands","latitude":"-17.83333000","longitude":"178.50000000","wikiDataId":"Q1365322"},{"id":39137,"name":"Kadavu Province","stateId":1932,"stateCode":"E","stateName":"Eastern Division","countryId":73,"countryCode":"FJ","countryName":"Fiji Islands","latitude":"-18.99331000","longitude":"178.22021000","wikiDataId":"Q676046"},{"id":39139,"name":"Lau Province","stateId":1932,"stateCode":"E","stateName":"Eastern Division","countryId":73,"countryCode":"FJ","countryName":"Fiji Islands","latitude":"-18.20488000","longitude":"-178.79251000","wikiDataId":"Q513104"},{"id":39141,"name":"Levuka","stateId":1932,"stateCode":"E","stateName":"Eastern Division","countryId":73,"countryCode":"FJ","countryName":"Fiji Islands","latitude":"-18.06667000","longitude":"179.31667000","wikiDataId":"Q856662"},{"id":39142,"name":"Lomaiviti Province","stateId":1932,"stateCode":"E","stateName":"Eastern Division","countryId":73,"countryCode":"FJ","countryName":"Fiji Islands","latitude":"-17.66667000","longitude":"178.80000000","wikiDataId":"Q2144922"},{"id":39135,"name":"Bua Province","stateId":1921,"stateCode":"N","stateName":"Northern Division","countryId":73,"countryCode":"FJ","countryName":"Fiji Islands","latitude":"-16.83333000","longitude":"178.75000000","wikiDataId":"Q1365265"},{"id":39136,"name":"Cakaudrove Province","stateId":1921,"stateCode":"N","stateName":"Northern Division","countryId":73,"countryCode":"FJ","countryName":"Fiji Islands","latitude":"-16.66667000","longitude":"179.41667000","wikiDataId":"Q676046"},{"id":39138,"name":"Labasa","stateId":1921,"stateCode":"N","stateName":"Northern Division","countryId":73,"countryCode":"FJ","countryName":"Fiji Islands","latitude":"-16.43320000","longitude":"179.36451000","wikiDataId":"Q579556"},{"id":39143,"name":"Macuata Province","stateId":1921,"stateCode":"N","stateName":"Northern Division","countryId":73,"countryCode":"FJ","countryName":"Fiji Islands","latitude":"-16.50000000","longitude":"179.25000000","wikiDataId":"Q1365304"},{"id":39133,"name":"Ba","stateId":1923,"stateCode":"W","stateName":"Western Division","countryId":73,"countryCode":"FJ","countryName":"Fiji Islands","latitude":"-17.53430000","longitude":"177.67407000","wikiDataId":"Q26713"},{"id":39134,"name":"Ba Province","stateId":1923,"stateCode":"W","stateName":"Western Division","countryId":73,"countryCode":"FJ","countryName":"Fiji Islands","latitude":"-17.66667000","longitude":"177.66667000","wikiDataId":"Q797434"},{"id":39140,"name":"Lautoka","stateId":1923,"stateCode":"W","stateName":"Western Division","countryId":73,"countryCode":"FJ","countryName":"Fiji Islands","latitude":"-17.61686000","longitude":"177.45049000","wikiDataId":"Q856662"},{"id":39144,"name":"Nadi","stateId":1923,"stateCode":"W","stateName":"Western Division","countryId":73,"countryCode":"FJ","countryName":"Fiji Islands","latitude":"-17.80309000","longitude":"177.41617000","wikiDataId":"Q619443"},{"id":39147,"name":"Nandronga and Navosa Province","stateId":1923,"stateCode":"W","stateName":"Western Division","countryId":73,"countryCode":"FJ","countryName":"Fiji Islands","latitude":"-18.00000000","longitude":"177.66667000","wikiDataId":"Q952528"},{"id":39148,"name":"Ra Province","stateId":1923,"stateCode":"W","stateName":"Western Division","countryId":73,"countryCode":"FJ","countryName":"Fiji Islands","latitude":"-17.50000000","longitude":"178.16667000","wikiDataId":"Q1208350"}]