[{"id":19157,"name":"Bogo","stateId":2656,"stateCode":"EN","stateName":"Far North","countryId":38,"countryCode":"CM","countryName":"Cameroon","latitude":"10.73360000","longitude":"14.60928000","wikiDataId":"Q23676899"},{"id":19186,"name":"Kaélé","stateId":2656,"stateCode":"EN","stateName":"Far North","countryId":38,"countryCode":"CM","countryName":"Cameroon","latitude":"10.10917000","longitude":"14.45083000","wikiDataId":"Q2443778"},{"id":19189,"name":"Kousséri","stateId":2656,"stateCode":"EN","stateName":"Far North","countryId":38,"countryCode":"CM","countryName":"Cameroon","latitude":"12.07689000","longitude":"15.03063000","wikiDataId":"Q697662"},{"id":19190,"name":"Koza","stateId":2656,"stateCode":"EN","stateName":"Far North","countryId":38,"countryCode":"CM","countryName":"Cameroon","latitude":"10.86846000","longitude":"13.88205000","wikiDataId":"Q23672974"},{"id":19199,"name":"Makary","stateId":2656,"stateCode":"EN","stateName":"Far North","countryId":38,"countryCode":"CM","countryName":"Cameroon","latitude":"12.57535000","longitude":"14.45483000","wikiDataId":"Q6738809"},{"id":19202,"name":"Maroua","stateId":2656,"stateCode":"EN","stateName":"Far North","countryId":38,"countryCode":"CM","countryName":"Cameroon","latitude":"10.59095000","longitude":"14.31593000","wikiDataId":"Q818824"},{"id":19206,"name":"Mayo-Sava","stateId":2656,"stateCode":"EN","stateName":"Far North","countryId":38,"countryCode":"CM","countryName":"Cameroon","latitude":"11.10682000","longitude":"14.20560000","wikiDataId":"Q613340"},{"id":19207,"name":"Mayo-Tsanaga","stateId":2656,"stateCode":"EN","stateName":"Far North","countryId":38,"countryCode":"CM","countryName":"Cameroon","latitude":"10.58221000","longitude":"13.79351000","wikiDataId":"Q613340"},{"id":19220,"name":"Mindif","stateId":2656,"stateCode":"EN","stateName":"Far North","countryId":38,"countryCode":"CM","countryName":"Cameroon","latitude":"10.39757000","longitude":"14.43626000","wikiDataId":"Q2445046"},{"id":19223,"name":"Mokolo","stateId":2656,"stateCode":"EN","stateName":"Far North","countryId":38,"countryCode":"CM","countryName":"Cameroon","latitude":"10.74244000","longitude":"13.80227000","wikiDataId":"Q2708658"},{"id":19224,"name":"Mora","stateId":2656,"stateCode":"EN","stateName":"Far North","countryId":38,"countryCode":"CM","countryName":"Cameroon","latitude":"11.04611000","longitude":"14.14011000","wikiDataId":"Q2708675"},{"id":19265,"name":"Yagoua","stateId":2656,"stateCode":"EN","stateName":"Far North","countryId":38,"countryCode":"CM","countryName":"Cameroon","latitude":"10.34107000","longitude":"15.23288000","wikiDataId":"Q523657"}]