[{"id":97680,"name":"Arshan’","stateId":1883,"stateCode":"KL","stateName":"Republic of Kalmykia","countryId":182,"countryCode":"RU","countryName":"Russia","latitude":"46.27320000","longitude":"44.22000000","wikiDataId":"Q4071009"},{"id":98389,"name":"Elista","stateId":1883,"stateCode":"KL","stateName":"Republic of Kalmykia","countryId":182,"countryCode":"RU","countryName":"Russia","latitude":"46.30778000","longitude":"44.25583000","wikiDataId":"Q3977"},{"id":98562,"name":"Gorodoviki","stateId":1883,"stateCode":"KL","stateName":"Republic of Kalmykia","countryId":182,"countryCode":"RU","countryName":"Russia","latitude":"46.13528000","longitude":"41.96556000","wikiDataId":"Q37804341"},{"id":98563,"name":"Gorodovikovsk","stateId":1883,"stateCode":"KL","stateName":"Republic of Kalmykia","countryId":182,"countryCode":"RU","countryName":"Russia","latitude":"46.08785000","longitude":"41.93353000","wikiDataId":"Q134519"},{"id":98636,"name":"Iki-Burul","stateId":1883,"stateCode":"KL","stateName":"Republic of Kalmykia","countryId":182,"countryCode":"RU","countryName":"Russia","latitude":"45.82083000","longitude":"44.64722000","wikiDataId":"Q4198991"},{"id":98637,"name":"Iki-Burul’skiy Rayon","stateId":1883,"stateCode":"KL","stateName":"Republic of Kalmykia","countryId":182,"countryCode":"RU","countryName":"Russia","latitude":"45.83333000","longitude":"44.66667000","wikiDataId":"Q4198991"},{"id":98901,"name":"Kaspiyskiy","stateId":1883,"stateCode":"KL","stateName":"Republic of Kalmykia","countryId":182,"countryCode":"RU","countryName":"Russia","latitude":"45.39288000","longitude":"47.37073000","wikiDataId":"Q156614"},{"id":99174,"name":"Komsomol’skiy","stateId":1883,"stateCode":"KL","stateName":"Republic of Kalmykia","countryId":182,"countryCode":"RU","countryName":"Russia","latitude":"45.33000000","longitude":"46.04280000","wikiDataId":"Q35698950"},{"id":99773,"name":"Malyye Derbety","stateId":1883,"stateCode":"KL","stateName":"Republic of Kalmykia","countryId":182,"countryCode":"RU","countryName":"Russia","latitude":"47.95472000","longitude":"44.68083000","wikiDataId":"Q4278606"},{"id":100852,"name":"Priyutnoye","stateId":1883,"stateCode":"KL","stateName":"Republic of Kalmykia","countryId":182,"countryCode":"RU","countryName":"Russia","latitude":"46.10111000","longitude":"43.50722000","wikiDataId":"Q4379447"},{"id":101065,"name":"Sadovoye","stateId":1883,"stateCode":"KL","stateName":"Republic of Kalmykia","countryId":182,"countryCode":"RU","countryName":"Russia","latitude":"47.77720000","longitude":"44.52080000","wikiDataId":"Q4404723"},{"id":101123,"name":"Sarpinskiy Rayon","stateId":1883,"stateCode":"KL","stateName":"Republic of Kalmykia","countryId":182,"countryCode":"RU","countryName":"Russia","latitude":"47.83333000","longitude":"44.83333000","wikiDataId":"Q717145"},{"id":101516,"name":"Sovetskoye","stateId":1883,"stateCode":"KL","stateName":"Republic of Kalmykia","countryId":182,"countryCode":"RU","countryName":"Russia","latitude":"47.30868000","longitude":"44.52162000","wikiDataId":"Q37957269"},{"id":101921,"name":"Troitskoye","stateId":1883,"stateCode":"KL","stateName":"Republic of Kalmykia","countryId":182,"countryCode":"RU","countryName":"Russia","latitude":"46.42060000","longitude":"44.25910000","wikiDataId":"Q37956346"},{"id":101936,"name":"Tsagan Aman","stateId":1883,"stateCode":"KL","stateName":"Republic of Kalmykia","countryId":182,"countryCode":"RU","countryName":"Russia","latitude":"47.56390000","longitude":"46.72180000","wikiDataId":"Q37956312"},{"id":102508,"name":"Yashalta","stateId":1883,"stateCode":"KL","stateName":"Republic of Kalmykia","countryId":182,"countryCode":"RU","countryName":"Russia","latitude":"46.33950000","longitude":"42.27620000","wikiDataId":"Q29385"},{"id":102509,"name":"Yashaltinskiy Rayon","stateId":1883,"stateCode":"KL","stateName":"Republic of Kalmykia","countryId":182,"countryCode":"RU","countryName":"Russia","latitude":"46.25000000","longitude":"42.50000000","wikiDataId":"Q717121"},{"id":102511,"name":"Yashkul’","stateId":1883,"stateCode":"KL","stateName":"Republic of Kalmykia","countryId":182,"countryCode":"RU","countryName":"Russia","latitude":"46.17110000","longitude":"45.34350000","wikiDataId":"Q33523089"}]