[{"id":68015,"name":"Abasolo","stateId":3469,"stateCode":"GUA","stateName":"Guanajuato","countryId":142,"countryCode":"MX","countryName":"Mexico","latitude":"20.44997000","longitude":"-101.53073000","wikiDataId":"Q2991444"},{"id":68087,"name":"Acámbaro","stateId":3469,"stateCode":"GUA","stateName":"Guanajuato","countryId":142,"countryCode":"MX","countryName":"Mexico","latitude":"20.03085000","longitude":"-100.72194000","wikiDataId":"Q947689"},{"id":68088,"name":"Adjuntas del Río","stateId":3469,"stateCode":"GUA","stateName":"Guanajuato","countryId":142,"countryCode":"MX","countryName":"Mexico","latitude":"21.11667000","longitude":"-100.86806000","wikiDataId":"Q20205435"},{"id":68125,"name":"Aguas Buenas","stateId":3469,"stateCode":"GUA","stateName":"Guanajuato","countryId":142,"countryCode":"MX","countryName":"Mexico","latitude":"20.97028000","longitude":"-101.37250000","wikiDataId":"Q20133038"},{"id":68181,"name":"Alcocer","stateId":3469,"stateCode":"GUA","stateName":"Guanajuato","countryId":142,"countryCode":"MX","countryName":"Mexico","latitude":"20.86867000","longitude":"-100.70456000","wikiDataId":"Q20134076"},{"id":68185,"name":"Aldama","stateId":3469,"stateCode":"GUA","stateName":"Guanajuato","countryId":142,"countryCode":"MX","countryName":"Mexico","latitude":"20.81641000","longitude":"-101.31467000","wikiDataId":"Q20205452"},{"id":68191,"name":"Alfaro","stateId":3469,"stateCode":"GUA","stateName":"Guanajuato","countryId":142,"countryCode":"MX","countryName":"Mexico","latitude":"21.14941000","longitude":"-101.60611000","wikiDataId":"Q27796636"},{"id":68253,"name":"Ameche","stateId":3469,"stateCode":"GUA","stateName":"Guanajuato","countryId":142,"countryCode":"MX","countryName":"Mexico","latitude":"20.55261000","longitude":"-100.58367000","wikiDataId":"Q4064121"},{"id":68296,"name":"Apaseo el Alto","stateId":3469,"stateCode":"GUA","stateName":"Guanajuato","countryId":142,"countryCode":"MX","countryName":"Mexico","latitude":"20.45798000","longitude":"-100.62081000","wikiDataId":"Q2651599"},{"id":68297,"name":"Apaseo el Grande","stateId":3469,"stateCode":"GUA","stateName":"Guanajuato","countryId":142,"countryCode":"MX","countryName":"Mexico","latitude":"20.54495000","longitude":"-100.68462000","wikiDataId":"Q2651604"},{"id":68329,"name":"Arandas","stateId":3469,"stateCode":"GUA","stateName":"Guanajuato","countryId":142,"countryCode":"MX","countryName":"Mexico","latitude":"20.72468000","longitude":"-101.37296000","wikiDataId":"Q625719"},{"id":68392,"name":"Atarjea","stateId":3469,"stateCode":"GUA","stateName":"Guanajuato","countryId":142,"countryCode":"MX","countryName":"Mexico","latitude":"21.26777000","longitude":"-99.71914000","wikiDataId":"Q2651750"},{"id":68505,"name":"Bajío de Bonillas","stateId":3469,"stateCode":"GUA","stateName":"Guanajuato","countryId":142,"countryCode":"MX","countryName":"Mexico","latitude":"20.94944000","longitude":"-101.49528000","wikiDataId":"Q20140376"},{"id":68523,"name":"Barretos","stateId":3469,"stateCode":"GUA","stateName":"Guanajuato","countryId":142,"countryCode":"MX","countryName":"Mexico","latitude":"20.93933000","longitude":"-101.64282000","wikiDataId":"Q20141424"},{"id":68543,"name":"Barrio de Guadalupe del Mezquitillo","stateId":3469,"stateCode":"GUA","stateName":"Guanajuato","countryId":142,"countryCode":"MX","countryName":"Mexico","latitude":"20.94417000","longitude":"-101.80083000","wikiDataId":"Q20205514"},{"id":68562,"name":"Barrón","stateId":3469,"stateCode":"GUA","stateName":"Guanajuato","countryId":142,"countryCode":"MX","countryName":"Mexico","latitude":"20.67667000","longitude":"-101.08423000","wikiDataId":"Q20274769"},{"id":68640,"name":"Boquillas","stateId":3469,"stateCode":"GUA","stateName":"Guanajuato","countryId":142,"countryCode":"MX","countryName":"Mexico","latitude":"20.41642000","longitude":"-101.43333000","wikiDataId":"Q8250809"},{"id":68681,"name":"Buenavista de Cortés","stateId":3469,"stateCode":"GUA","stateName":"Guanajuato","countryId":142,"countryCode":"MX","countryName":"Mexico","latitude":"20.37326000","longitude":"-101.87021000","wikiDataId":"Q20145986"},{"id":68733,"name":"Caleras de Ameche","stateId":3469,"stateCode":"GUA","stateName":"Guanajuato","countryId":142,"countryCode":"MX","countryName":"Mexico","latitude":"20.56133000","longitude":"-100.56013000","wikiDataId":"Q20147578"},{"id":68754,"name":"Calzada del Tepozán","stateId":3469,"stateCode":"GUA","stateName":"Guanajuato","countryId":142,"countryCode":"MX","countryName":"Mexico","latitude":"20.73762000","longitude":"-101.88299000","wikiDataId":"Q2656541"},{"id":68874,"name":"Cañada de Bustos","stateId":3469,"stateCode":"GUA","stateName":"Guanajuato","countryId":142,"countryCode":"MX","countryName":"Mexico","latitude":"20.90436000","longitude":"-101.31260000","wikiDataId":"Q56605930"},{"id":68875,"name":"Cañada de Caracheo","stateId":3469,"stateCode":"GUA","stateName":"Guanajuato","countryId":142,"countryCode":"MX","countryName":"Mexico","latitude":"20.37552000","longitude":"-100.94549000","wikiDataId":"Q20205614"},{"id":68879,"name":"Cañada de Negros","stateId":3469,"stateCode":"GUA","stateName":"Guanajuato","countryId":142,"countryCode":"MX","countryName":"Mexico","latitude":"20.92636000","longitude":"-101.92115000","wikiDataId":"Q20205614"},{"id":68813,"name":"Capulín de Bustos","stateId":3469,"stateCode":"GUA","stateName":"Guanajuato","countryId":142,"countryCode":"MX","countryName":"Mexico","latitude":"20.88242000","longitude":"-101.30680000","wikiDataId":"Q590948"},{"id":69660,"name":"Cárdenas","stateId":3469,"stateCode":"GUA","stateName":"Guanajuato","countryId":142,"countryCode":"MX","countryName":"Mexico","latitude":"20.63012000","longitude":"-101.22040000","wikiDataId":"Q1962471"},{"id":68842,"name":"Carrizal Grande","stateId":3469,"stateCode":"GUA","stateName":"Guanajuato","countryId":142,"countryCode":"MX","countryName":"Mexico","latitude":"20.70634000","longitude":"-101.30600000","wikiDataId":"Q3894268"},{"id":68891,"name":"Celaya","stateId":3469,"stateCode":"GUA","stateName":"Guanajuato","countryId":142,"countryCode":"MX","countryName":"Mexico","latitude":"20.52353000","longitude":"-100.81570000","wikiDataId":"Q580649"},{"id":68899,"name":"Centro Familiar la Soledad","stateId":3469,"stateCode":"GUA","stateName":"Guanajuato","countryId":142,"countryCode":"MX","countryName":"Mexico","latitude":"21.13500000","longitude":"-101.74972000","wikiDataId":"Q20205738"},{"id":68904,"name":"Cerano","stateId":3469,"stateCode":"GUA","stateName":"Guanajuato","countryId":142,"countryCode":"MX","countryName":"Mexico","latitude":"20.10877000","longitude":"-101.38710000","wikiDataId":"Q978419"},{"id":68910,"name":"Cerrito de Gasca","stateId":3469,"stateCode":"GUA","stateName":"Guanajuato","countryId":142,"countryCode":"MX","countryName":"Mexico","latitude":"20.61829000","longitude":"-101.06200000","wikiDataId":"Q20275367"},{"id":68915,"name":"Cerritos","stateId":3469,"stateCode":"GUA","stateName":"Guanajuato","countryId":142,"countryCode":"MX","countryName":"Mexico","latitude":"20.88552000","longitude":"-100.59880000","wikiDataId":"Q20257423"},{"id":68923,"name":"Cerro Colorado","stateId":3469,"stateCode":"GUA","stateName":"Guanajuato","countryId":142,"countryCode":"MX","countryName":"Mexico","latitude":"20.40111000","longitude":"-101.32451000","wikiDataId":"Q27772333"},{"id":68928,"name":"Cerro Gordo","stateId":3469,"stateCode":"GUA","stateName":"Guanajuato","countryId":142,"countryCode":"MX","countryName":"Mexico","latitude":"20.59294000","longitude":"-101.12684000","wikiDataId":"Q20257879"},{"id":68971,"name":"Chamácuaro","stateId":3469,"stateCode":"GUA","stateName":"Guanajuato","countryId":142,"countryCode":"MX","countryName":"Mexico","latitude":"20.10444000","longitude":"-100.82756000","wikiDataId":"Q1061542"},{"id":68997,"name":"Charco de Pantoja","stateId":3469,"stateCode":"GUA","stateName":"Guanajuato","countryId":142,"countryCode":"MX","countryName":"Mexico","latitude":"20.38949000","longitude":"-101.35436000","wikiDataId":"Q20220502"},{"id":69029,"name":"Chichimequillas","stateId":3469,"stateCode":"GUA","stateName":"Guanajuato","countryId":142,"countryCode":"MX","countryName":"Mexico","latitude":"21.03716000","longitude":"-101.44274000","wikiDataId":"Q2889052"},{"id":69094,"name":"Chirimoya (Estación Chirimoya)","stateId":3469,"stateCode":"GUA","stateName":"Guanajuato","countryId":142,"countryCode":"MX","countryName":"Mexico","latitude":"21.59278000","longitude":"-101.09139000","wikiDataId":"Q20205833"},{"id":69124,"name":"Churipitzeo","stateId":3469,"stateCode":"GUA","stateName":"Guanajuato","countryId":142,"countryCode":"MX","countryName":"Mexico","latitude":"20.41185000","longitude":"-101.74206000","wikiDataId":"Q10748091"},{"id":69129,"name":"Cieneguilla","stateId":3469,"stateCode":"GUA","stateName":"Guanajuato","countryId":142,"countryCode":"MX","countryName":"Mexico","latitude":"21.24833000","longitude":"-100.27389000","wikiDataId":"Q20205838"},{"id":69168,"name":"Ciudad Manuel Doblado","stateId":3469,"stateCode":"GUA","stateName":"Guanajuato","countryId":142,"countryCode":"MX","countryName":"Mexico","latitude":"20.72888000","longitude":"-101.95226000","wikiDataId":"Q18671878"},{"id":69205,"name":"Coachiti","stateId":3469,"stateCode":"GUA","stateName":"Guanajuato","countryId":142,"countryCode":"MX","countryName":"Mexico","latitude":"20.55944000","longitude":"-100.58944000","wikiDataId":"Q20276075"},{"id":69264,"name":"Colonia 18 de Marzo","stateId":3469,"stateCode":"GUA","stateName":"Guanajuato","countryId":142,"countryCode":"MX","countryName":"Mexico","latitude":"20.55556000","longitude":"-101.03556000","wikiDataId":"Q20205861"},{"id":69302,"name":"Colonia Fraccionamiento el Puente","stateId":3469,"stateCode":"GUA","stateName":"Guanajuato","countryId":142,"countryCode":"MX","countryName":"Mexico","latitude":"20.52361000","longitude":"-100.89667000","wikiDataId":"Q20129124"},{"id":69304,"name":"Colonia Francisco Javier Mina","stateId":3469,"stateCode":"GUA","stateName":"Guanajuato","countryId":142,"countryCode":"MX","countryName":"Mexico","latitude":"20.97944000","longitude":"-101.41639000","wikiDataId":"Q20276342"},{"id":69393,"name":"Colonia la Calzada (La Olla)","stateId":3469,"stateCode":"GUA","stateName":"Guanajuato","countryId":142,"countryCode":"MX","countryName":"Mexico","latitude":"20.50278000","longitude":"-100.95889000","wikiDataId":"Q20205905"},{"id":69319,"name":"Colonia Latinoamericana","stateId":3469,"stateCode":"GUA","stateName":"Guanajuato","countryId":142,"countryCode":"MX","countryName":"Mexico","latitude":"21.03028000","longitude":"-101.70583000","wikiDataId":"Q20276399"},{"id":69332,"name":"Colonia Morelos","stateId":3469,"stateCode":"GUA","stateName":"Guanajuato","countryId":142,"countryCode":"MX","countryName":"Mexico","latitude":"20.36832000","longitude":"-101.89937000","wikiDataId":"Q20130901"},{"id":69336,"name":"Colonia Morelos de Guadalupe de Rivera","stateId":3469,"stateCode":"GUA","stateName":"Guanajuato","countryId":142,"countryCode":"MX","countryName":"Mexico","latitude":"20.59556000","longitude":"-101.44833000","wikiDataId":"Q20205923"},{"id":69341,"name":"Colonia Nuevo México","stateId":3469,"stateCode":"GUA","stateName":"Guanajuato","countryId":142,"countryCode":"MX","countryName":"Mexico","latitude":"20.98475000","longitude":"-101.48502000","wikiDataId":"Q20209086"},{"id":69345,"name":"Colonia Padre Hidalgo","stateId":3469,"stateCode":"GUA","stateName":"Guanajuato","countryId":142,"countryCode":"MX","countryName":"Mexico","latitude":"21.17056000","longitude":"-100.93556000","wikiDataId":"Q20276453"},{"id":69349,"name":"Colonia Patria Nueva","stateId":3469,"stateCode":"GUA","stateName":"Guanajuato","countryId":142,"countryCode":"MX","countryName":"Mexico","latitude":"20.52833000","longitude":"-100.87944000","wikiDataId":"Q20205933"},{"id":69350,"name":"Colonia Pedro María Anaya","stateId":3469,"stateCode":"GUA","stateName":"Guanajuato","countryId":142,"countryCode":"MX","countryName":"Mexico","latitude":"20.52611000","longitude":"-100.87778000","wikiDataId":"Q20205935"},{"id":69353,"name":"Colonia Rafael Corrales Ayala","stateId":3469,"stateCode":"GUA","stateName":"Guanajuato","countryId":142,"countryCode":"MX","countryName":"Mexico","latitude":"20.90194000","longitude":"-101.51611000","wikiDataId":"Q20205937"},{"id":69367,"name":"Colonia San Luis Rey","stateId":3469,"stateCode":"GUA","stateName":"Guanajuato","countryId":142,"countryCode":"MX","countryName":"Mexico","latitude":"20.93556000","longitude":"-100.73611000","wikiDataId":"Q20205943"},{"id":69421,"name":"Comanjilla","stateId":3469,"stateCode":"GUA","stateName":"Guanajuato","countryId":142,"countryCode":"MX","countryName":"Mexico","latitude":"21.06510000","longitude":"-101.47303000","wikiDataId":"Q20132978"},{"id":69428,"name":"Comonfort","stateId":3469,"stateCode":"GUA","stateName":"Guanajuato","countryId":142,"countryCode":"MX","countryName":"Mexico","latitude":"20.72278000","longitude":"-100.75946000","wikiDataId":"Q2651278"},{"id":69482,"name":"Coroneo","stateId":3469,"stateCode":"GUA","stateName":"Guanajuato","countryId":142,"countryCode":"MX","countryName":"Mexico","latitude":"20.20001000","longitude":"-100.36546000","wikiDataId":"Q2651332"},{"id":69488,"name":"Corral de Piedras de Arriba","stateId":3469,"stateCode":"GUA","stateName":"Guanajuato","countryId":142,"countryCode":"MX","countryName":"Mexico","latitude":"20.97577000","longitude":"-100.59474000","wikiDataId":"Q20134517"},{"id":69490,"name":"Corralejo de Arriba","stateId":3469,"stateCode":"GUA","stateName":"Guanajuato","countryId":142,"countryCode":"MX","countryName":"Mexico","latitude":"20.89667000","longitude":"-100.65444000","wikiDataId":"Q20134699"},{"id":69494,"name":"Cortazar","stateId":3469,"stateCode":"GUA","stateName":"Guanajuato","countryId":142,"countryCode":"MX","countryName":"Mexico","latitude":"20.48362000","longitude":"-100.96237000","wikiDataId":"Q25425552"},{"id":69565,"name":"Cuarta Brigada","stateId":3469,"stateCode":"GUA","stateName":"Guanajuato","countryId":142,"countryCode":"MX","countryName":"Mexico","latitude":"20.62194000","longitude":"-101.28001000","wikiDataId":"Q20205980"},{"id":69605,"name":"Cuchicuato","stateId":3469,"stateCode":"GUA","stateName":"Guanajuato","countryId":142,"countryCode":"MX","countryName":"Mexico","latitude":"20.66092000","longitude":"-101.46203000","wikiDataId":"Q20205992"},{"id":69616,"name":"Cuerámaro","stateId":3469,"stateCode":"GUA","stateName":"Guanajuato","countryId":142,"countryCode":"MX","countryName":"Mexico","latitude":"20.62546000","longitude":"-101.67242000","wikiDataId":"Q2651369"},{"id":69620,"name":"Cuesta de Peñones","stateId":3469,"stateCode":"GUA","stateName":"Guanajuato","countryId":142,"countryCode":"MX","countryName":"Mexico","latitude":"21.08400000","longitude":"-100.23671000","wikiDataId":"Q20137970"},{"id":69642,"name":"Cupareo","stateId":3469,"stateCode":"GUA","stateName":"Guanajuato","countryId":142,"countryCode":"MX","countryName":"Mexico","latitude":"20.22876000","longitude":"-101.01806000","wikiDataId":"Q5194433"},{"id":69670,"name":"De Parral","stateId":3469,"stateCode":"GUA","stateName":"Guanajuato","countryId":142,"countryCode":"MX","countryName":"Mexico","latitude":"20.45611000","longitude":"-101.00778000","wikiDataId":"Q20138703"},{"id":69674,"name":"Delgado de Abajo","stateId":3469,"stateCode":"GUA","stateName":"Guanajuato","countryId":142,"countryCode":"MX","countryName":"Mexico","latitude":"20.71749000","longitude":"-100.89338000","wikiDataId":"Q20269102"},{"id":69675,"name":"Delgado de Arriba","stateId":3469,"stateCode":"GUA","stateName":"Guanajuato","countryId":142,"countryCode":"MX","countryName":"Mexico","latitude":"20.72222000","longitude":"-100.90080000","wikiDataId":"Q20269102"},{"id":69680,"name":"Derramadero Segundo (Infiernillo)","stateId":3469,"stateCode":"GUA","stateName":"Guanajuato","countryId":142,"countryCode":"MX","countryName":"Mexico","latitude":"21.09750000","longitude":"-100.51417000","wikiDataId":"Q20276863"},{"id":69699,"name":"Doctor Mora","stateId":3469,"stateCode":"GUA","stateName":"Guanajuato","countryId":142,"countryCode":"MX","countryName":"Mexico","latitude":"21.14246000","longitude":"-100.31966000","wikiDataId":"Q2448224"},{"id":69706,"name":"Dolores Hidalgo Cuna de la Independencia Nacional","stateId":3469,"stateCode":"GUA","stateName":"Guanajuato","countryId":142,"countryCode":"MX","countryName":"Mexico","latitude":"21.15611000","longitude":"-100.93250000","wikiDataId":"Q17487868"},{"id":69710,"name":"Don Diego","stateId":3469,"stateCode":"GUA","stateName":"Guanajuato","countryId":142,"countryCode":"MX","countryName":"Mexico","latitude":"20.69791000","longitude":"-100.90209000","wikiDataId":"Q20139549"},{"id":69711,"name":"Don Francisco","stateId":3469,"stateCode":"GUA","stateName":"Guanajuato","countryId":142,"countryCode":"MX","countryName":"Mexico","latitude":"20.90281000","longitude":"-100.91873000","wikiDataId":"Q20139549"},{"id":69730,"name":"Duarte","stateId":3469,"stateCode":"GUA","stateName":"Guanajuato","countryId":142,"countryCode":"MX","countryName":"Mexico","latitude":"21.08712000","longitude":"-101.52431000","wikiDataId":"Q20206023"},{"id":69769,"name":"Ejido Jesús María","stateId":3469,"stateCode":"GUA","stateName":"Guanajuato","countryId":142,"countryCode":"MX","countryName":"Mexico","latitude":"21.14194000","longitude":"-100.91167000","wikiDataId":"Q20141362"},{"id":69814,"name":"Ejido la Joya","stateId":3469,"stateCode":"GUA","stateName":"Guanajuato","countryId":142,"countryCode":"MX","countryName":"Mexico","latitude":"21.14325000","longitude":"-101.73922000","wikiDataId":"Q20141412"},{"id":69823,"name":"El Acebuche","stateId":3469,"stateCode":"GUA","stateName":"Guanajuato","countryId":142,"countryCode":"MX","countryName":"Mexico","latitude":"20.22311000","longitude":"-100.74196000","wikiDataId":"Q1144317"},{"id":69860,"name":"El Canario","stateId":3469,"stateCode":"GUA","stateName":"Guanajuato","countryId":142,"countryCode":"MX","countryName":"Mexico","latitude":"20.15694000","longitude":"-101.33556000","wikiDataId":"Q20147644"},{"id":69865,"name":"El Capulín","stateId":3469,"stateCode":"GUA","stateName":"Guanajuato","countryId":142,"countryCode":"MX","countryName":"Mexico","latitude":"21.04043000","longitude":"-100.32220000","wikiDataId":"Q50012184"},{"id":69868,"name":"El Caracol","stateId":3469,"stateCode":"GUA","stateName":"Guanajuato","countryId":142,"countryCode":"MX","countryName":"Mexico","latitude":"20.56718000","longitude":"-100.98290000","wikiDataId":"Q20262807"},{"id":69872,"name":"El Carmen","stateId":3469,"stateCode":"GUA","stateName":"Guanajuato","countryId":142,"countryCode":"MX","countryName":"Mexico","latitude":"20.64009000","longitude":"-101.37259000","wikiDataId":"Q20262807"},{"id":69880,"name":"El Carretón","stateId":3469,"stateCode":"GUA","stateName":"Guanajuato","countryId":142,"countryCode":"MX","countryName":"Mexico","latitude":"21.63045000","longitude":"-100.98064000","wikiDataId":"Q20277649"},{"id":69883,"name":"El Carrizalito","stateId":3469,"stateCode":"GUA","stateName":"Guanajuato","countryId":142,"countryCode":"MX","countryName":"Mexico","latitude":"20.70371000","longitude":"-101.32439000","wikiDataId":"Q27767960"},{"id":69887,"name":"El Castillo","stateId":3469,"stateCode":"GUA","stateName":"Guanajuato","countryId":142,"countryCode":"MX","countryName":"Mexico","latitude":"20.58072000","longitude":"-100.49297000","wikiDataId":"Q20222798"},{"id":69852,"name":"El CERESO","stateId":3469,"stateCode":"GUA","stateName":"Guanajuato","countryId":142,"countryCode":"MX","countryName":"Mexico","latitude":"21.02222000","longitude":"-101.68917000","wikiDataId":"Q20277795"},{"id":69901,"name":"El Chinaco (El Pujido)","stateId":3469,"stateCode":"GUA","stateName":"Guanajuato","countryId":142,"countryCode":"MX","countryName":"Mexico","latitude":"20.52222000","longitude":"-100.91972000","wikiDataId":"Q20206225"},{"id":69909,"name":"El Coecillo","stateId":3469,"stateCode":"GUA","stateName":"Guanajuato","countryId":142,"countryCode":"MX","countryName":"Mexico","latitude":"20.97651000","longitude":"-101.45010000","wikiDataId":"Q20206482"},{"id":69925,"name":"El Copalillo","stateId":3469,"stateCode":"GUA","stateName":"Guanajuato","countryId":142,"countryCode":"MX","countryName":"Mexico","latitude":"20.72745000","longitude":"-101.34570000","wikiDataId":"Q20278187"},{"id":69944,"name":"El Divisador","stateId":3469,"stateCode":"GUA","stateName":"Guanajuato","countryId":142,"countryCode":"MX","countryName":"Mexico","latitude":"20.57722000","longitude":"-101.15806000","wikiDataId":"Q20206330"},{"id":69957,"name":"El Escoplo","stateId":3469,"stateCode":"GUA","stateName":"Guanajuato","countryId":142,"countryCode":"MX","countryName":"Mexico","latitude":"20.91004000","longitude":"-101.51127000","wikiDataId":"Q20238057"},{"id":69959,"name":"El Espejo","stateId":3469,"stateCode":"GUA","stateName":"Guanajuato","countryId":142,"countryCode":"MX","countryName":"Mexico","latitude":"20.44094000","longitude":"-100.55417000","wikiDataId":"Q20227835"},{"id":69968,"name":"El Fresno","stateId":3469,"stateCode":"GUA","stateName":"Guanajuato","countryId":142,"countryCode":"MX","countryName":"Mexico","latitude":"20.27322000","longitude":"-100.49154000","wikiDataId":"Q20206608"},{"id":69975,"name":"El Gallinero","stateId":3469,"stateCode":"GUA","stateName":"Guanajuato","countryId":142,"countryCode":"MX","countryName":"Mexico","latitude":"21.18208000","longitude":"-100.95996000","wikiDataId":"Q1324181"},{"id":69992,"name":"El Huizache","stateId":3469,"stateCode":"GUA","stateName":"Guanajuato","countryId":142,"countryCode":"MX","countryName":"Mexico","latitude":"20.41934000","longitude":"-100.95978000","wikiDataId":"Q5822143"},{"id":69997,"name":"El Jaguey","stateId":3469,"stateCode":"GUA","stateName":"Guanajuato","countryId":142,"countryCode":"MX","countryName":"Mexico","latitude":"20.91499000","longitude":"-101.63426000","wikiDataId":"Q20238098"},{"id":70020,"name":"El Llanito","stateId":3469,"stateCode":"GUA","stateName":"Guanajuato","countryId":142,"countryCode":"MX","countryName":"Mexico","latitude":"21.12143000","longitude":"-100.95110000","wikiDataId":"Q20223530"},{"id":70029,"name":"El Maguey","stateId":3469,"stateCode":"GUA","stateName":"Guanajuato","countryId":142,"countryCode":"MX","countryName":"Mexico","latitude":"20.98035000","longitude":"-101.84651000","wikiDataId":"Q20238120"},{"id":70036,"name":"El Mezquitillo","stateId":3469,"stateCode":"GUA","stateName":"Guanajuato","countryId":142,"countryCode":"MX","countryName":"Mexico","latitude":"20.96213000","longitude":"-101.80857000","wikiDataId":"Q20206792"},{"id":70049,"name":"El Moral","stateId":3469,"stateCode":"GUA","stateName":"Guanajuato","countryId":142,"countryCode":"MX","countryName":"Mexico","latitude":"20.13030000","longitude":"-101.28862000","wikiDataId":"Q20223726"},{"id":70053,"name":"El Nacimiento","stateId":3469,"stateCode":"GUA","stateName":"Guanajuato","countryId":142,"countryCode":"MX","countryName":"Mexico","latitude":"20.53596000","longitude":"-100.61017000","wikiDataId":"Q20246282"},{"id":70054,"name":"El Naranjillo","stateId":3469,"stateCode":"GUA","stateName":"Guanajuato","countryId":142,"countryCode":"MX","countryName":"Mexico","latitude":"20.71417000","longitude":"-101.00056000","wikiDataId":"Q20206594"},{"id":70102,"name":"El Picacho","stateId":3469,"stateCode":"GUA","stateName":"Guanajuato","countryId":142,"countryCode":"MX","countryName":"Mexico","latitude":"20.71016000","longitude":"-100.63704000","wikiDataId":"Q4359610"},{"id":70141,"name":"El Puesto","stateId":3469,"stateCode":"GUA","stateName":"Guanajuato","countryId":142,"countryCode":"MX","countryName":"Mexico","latitude":"20.46890000","longitude":"-100.82763000","wikiDataId":"Q20224156"},{"id":70149,"name":"El Recuerdo de Ancón (Xoconoxtle de Arriba)","stateId":3469,"stateCode":"GUA","stateName":"Guanajuato","countryId":142,"countryCode":"MX","countryName":"Mexico","latitude":"20.63806000","longitude":"-101.12694000","wikiDataId":"Q20206785"},{"id":70156,"name":"El Refugio de los Sauces","stateId":3469,"stateCode":"GUA","stateName":"Guanajuato","countryId":142,"countryCode":"MX","countryName":"Mexico","latitude":"21.01488000","longitude":"-101.53084000","wikiDataId":"Q20280633"},{"id":70181,"name":"El Sabino","stateId":3469,"stateCode":"GUA","stateName":"Guanajuato","countryId":142,"countryCode":"MX","countryName":"Mexico","latitude":"20.28131000","longitude":"-101.00224000","wikiDataId":"Q1858643"},{"id":70192,"name":"El Salto de Espejo","stateId":3469,"stateCode":"GUA","stateName":"Guanajuato","countryId":142,"countryCode":"MX","countryName":"Mexico","latitude":"20.45045000","longitude":"-100.50587000","wikiDataId":"Q20206883"},{"id":70195,"name":"El Salvador (Ranchito San José del Carmen)","stateId":3469,"stateCode":"GUA","stateName":"Guanajuato","countryId":142,"countryCode":"MX","countryName":"Mexico","latitude":"20.28750000","longitude":"-100.87722000","wikiDataId":"Q20206889"},{"id":70201,"name":"El Sauz (El Sauz de Villaseñor)","stateId":3469,"stateCode":"GUA","stateName":"Guanajuato","countryId":142,"countryCode":"MX","countryName":"Mexico","latitude":"20.41056000","longitude":"-100.79667000","wikiDataId":"Q20206915"},{"id":70212,"name":"El Tecolote","stateId":3469,"stateCode":"GUA","stateName":"Guanajuato","countryId":142,"countryCode":"MX","countryName":"Mexico","latitude":"20.88407000","longitude":"-101.92432000","wikiDataId":"Q20207142"},{"id":70216,"name":"El Tejocote (El Domingo)","stateId":3469,"stateCode":"GUA","stateName":"Guanajuato","countryId":142,"countryCode":"MX","countryName":"Mexico","latitude":"21.67611000","longitude":"-100.91500000","wikiDataId":"Q20257968"},{"id":70245,"name":"El Tunal","stateId":3469,"stateCode":"GUA","stateName":"Guanajuato","countryId":142,"countryCode":"MX","countryName":"Mexico","latitude":"20.56944000","longitude":"-100.61995000","wikiDataId":"Q2990973"},{"id":70248,"name":"El Varal","stateId":3469,"stateCode":"GUA","stateName":"Guanajuato","countryId":142,"countryCode":"MX","countryName":"Mexico","latitude":"20.34845000","longitude":"-101.60028000","wikiDataId":"Q20130874"},{"id":70257,"name":"El Vicarlo","stateId":3469,"stateCode":"GUA","stateName":"Guanajuato","countryId":142,"countryCode":"MX","countryName":"Mexico","latitude":"20.58211000","longitude":"-100.67120000","wikiDataId":"Q20219114"},{"id":70261,"name":"El Zapote","stateId":3469,"stateCode":"GUA","stateName":"Guanajuato","countryId":142,"countryCode":"MX","countryName":"Mexico","latitude":"21.73563000","longitude":"-101.04905000","wikiDataId":"Q20219114"},{"id":70299,"name":"Empalme Escobedo","stateId":3469,"stateCode":"GUA","stateName":"Guanajuato","countryId":142,"countryCode":"MX","countryName":"Mexico","latitude":"20.67250000","longitude":"-100.74675000","wikiDataId":"Q20207060"},{"id":70341,"name":"Estación Corralejo","stateId":3469,"stateCode":"GUA","stateName":"Guanajuato","countryId":142,"countryCode":"MX","countryName":"Mexico","latitude":"20.47000000","longitude":"-101.61639000","wikiDataId":"Q20281645"},{"id":70360,"name":"Estación de San Francisco","stateId":3469,"stateCode":"GUA","stateName":"Guanajuato","countryId":142,"countryCode":"MX","countryName":"Mexico","latitude":"21.03722000","longitude":"-101.82472000","wikiDataId":"Q20135887"},{"id":70344,"name":"Estación Joaquín","stateId":3469,"stateCode":"GUA","stateName":"Guanajuato","countryId":142,"countryCode":"MX","countryName":"Mexico","latitude":"20.56082000","longitude":"-101.51993000","wikiDataId":"Q20135893"},{"id":70361,"name":"Estación la Piedad","stateId":3469,"stateCode":"GUA","stateName":"Guanajuato","countryId":142,"countryCode":"MX","countryName":"Mexico","latitude":"20.36750000","longitude":"-101.99806000","wikiDataId":"Q20207085"},{"id":70350,"name":"Estación Pénjamo","stateId":3469,"stateCode":"GUA","stateName":"Guanajuato","countryId":142,"countryCode":"MX","countryName":"Mexico","latitude":"20.39470000","longitude":"-101.69188000","wikiDataId":"Q20259332"},{"id":70364,"name":"Estancia del Llano","stateId":3469,"stateCode":"GUA","stateName":"Guanajuato","countryId":142,"countryCode":"MX","countryName":"Mexico","latitude":"20.51101000","longitude":"-100.72637000","wikiDataId":"Q20207085"},{"id":70367,"name":"Estanzuela de Romero","stateId":3469,"stateCode":"GUA","stateName":"Guanajuato","countryId":142,"countryCode":"MX","countryName":"Mexico","latitude":"20.18477000","longitude":"-100.50448000","wikiDataId":"Q20259160"},{"id":70372,"name":"Estrada","stateId":3469,"stateCode":"GUA","stateName":"Guanajuato","countryId":142,"countryCode":"MX","countryName":"Mexico","latitude":"20.52918000","longitude":"-100.86550000","wikiDataId":"Q27798278"},{"id":70384,"name":"Ex-Hacienda del Copal","stateId":3469,"stateCode":"GUA","stateName":"Guanajuato","countryId":142,"countryCode":"MX","countryName":"Mexico","latitude":"20.74083000","longitude":"-101.33528000","wikiDataId":"Q20207099"},{"id":70499,"name":"Fábrica de Melchor","stateId":3469,"stateCode":"GUA","stateName":"Guanajuato","countryId":142,"countryCode":"MX","countryName":"Mexico","latitude":"21.67223000","longitude":"-100.90171000","wikiDataId":"Q2445418"},{"id":70451,"name":"Fraccionamiento la Mezquitera","stateId":3469,"stateCode":"GUA","stateName":"Guanajuato","countryId":142,"countryCode":"MX","countryName":"Mexico","latitude":"21.00972000","longitude":"-101.83472000","wikiDataId":"Q20207165"},{"id":70456,"name":"Fraccionamiento las Liebres","stateId":3469,"stateCode":"GUA","stateName":"Guanajuato","countryId":142,"countryCode":"MX","countryName":"Mexico","latitude":"20.64750000","longitude":"-101.39556000","wikiDataId":"Q20139111"},{"id":70431,"name":"Fraccionamiento Paraíso Real","stateId":3469,"stateCode":"GUA","stateName":"Guanajuato","countryId":142,"countryCode":"MX","countryName":"Mexico","latitude":"21.11250000","longitude":"-101.58083000","wikiDataId":"Q20282101"},{"id":70432,"name":"Fraccionamiento Paseo de las Torres","stateId":3469,"stateCode":"GUA","stateName":"Guanajuato","countryId":142,"countryCode":"MX","countryName":"Mexico","latitude":"21.16833000","longitude":"-101.75806000","wikiDataId":"Q20207178"},{"id":70433,"name":"Fraccionamiento Praderas de la Venta","stateId":3469,"stateCode":"GUA","stateName":"Guanajuato","countryId":142,"countryCode":"MX","countryName":"Mexico","latitude":"20.53611000","longitude":"-101.00000000","wikiDataId":"Q20207180"},{"id":70445,"name":"Fraccionamiento Villa Jardín","stateId":3469,"stateCode":"GUA","stateName":"Guanajuato","countryId":142,"countryCode":"MX","countryName":"Mexico","latitude":"20.99167000","longitude":"-101.85194000","wikiDataId":"Q20139433"},{"id":70446,"name":"Fraccionamiento Villas de Guanajuato","stateId":3469,"stateCode":"GUA","stateName":"Guanajuato","countryId":142,"countryCode":"MX","countryName":"Mexico","latitude":"20.96028000","longitude":"-101.29806000","wikiDataId":"Q20207186"},{"id":70485,"name":"Franco","stateId":3469,"stateCode":"GUA","stateName":"Guanajuato","countryId":142,"countryCode":"MX","countryName":"Mexico","latitude":"20.94327000","longitude":"-101.46180000","wikiDataId":"Q5484072"},{"id":70486,"name":"Franco Tavera","stateId":3469,"stateCode":"GUA","stateName":"Guanajuato","countryId":142,"countryCode":"MX","countryName":"Mexico","latitude":"20.60595000","longitude":"-100.92700000","wikiDataId":"Q20140081"},{"id":70495,"name":"Frías","stateId":3469,"stateCode":"GUA","stateName":"Guanajuato","countryId":142,"countryCode":"MX","countryName":"Mexico","latitude":"20.79945000","longitude":"-101.99644000","wikiDataId":"Q1470224"},{"id":70505,"name":"Gachupines","stateId":3469,"stateCode":"GUA","stateName":"Guanajuato","countryId":142,"countryCode":"MX","countryName":"Mexico","latitude":"21.76259000","longitude":"-101.56247000","wikiDataId":"Q20282296"},{"id":70513,"name":"Galerade Panales","stateId":3469,"stateCode":"GUA","stateName":"Guanajuato","countryId":142,"countryCode":"MX","countryName":"Mexico","latitude":"20.29452000","longitude":"-100.81452000","wikiDataId":"Q2990972"},{"id":70521,"name":"Gasca","stateId":3469,"stateCode":"GUA","stateName":"Guanajuato","countryId":142,"countryCode":"MX","countryName":"Mexico","latitude":"20.60444000","longitude":"-100.85639000","wikiDataId":"Q20140711"},{"id":70522,"name":"Gavia de Rionda","stateId":3469,"stateCode":"GUA","stateName":"Guanajuato","countryId":142,"countryCode":"MX","countryName":"Mexico","latitude":"20.83357000","longitude":"-101.61647000","wikiDataId":"Q20140711"},{"id":70574,"name":"Guadalupe","stateId":3469,"stateCode":"GUA","stateName":"Guanajuato","countryId":142,"countryCode":"MX","countryName":"Mexico","latitude":"21.71644000","longitude":"-100.97645000","wikiDataId":"Q938835"},{"id":70609,"name":"Guadalupe de Paso Blanco","stateId":3469,"stateCode":"GUA","stateName":"Guanajuato","countryId":142,"countryCode":"MX","countryName":"Mexico","latitude":"20.75498000","longitude":"-101.40345000","wikiDataId":"Q20143066"},{"id":70610,"name":"Guadalupe de Rivera","stateId":3469,"stateCode":"GUA","stateName":"Guanajuato","countryId":142,"countryCode":"MX","countryName":"Mexico","latitude":"20.60499000","longitude":"-101.46745000","wikiDataId":"Q20143066"},{"id":70611,"name":"Guadalupe de Tambula","stateId":3469,"stateCode":"GUA","stateName":"Guanajuato","countryId":142,"countryCode":"MX","countryName":"Mexico","latitude":"20.86645000","longitude":"-100.57620000","wikiDataId":"Q20143066"},{"id":70612,"name":"Guadalupe del Monte","stateId":3469,"stateCode":"GUA","stateName":"Guanajuato","countryId":142,"countryCode":"MX","countryName":"Mexico","latitude":"20.55688000","longitude":"-100.64064000","wikiDataId":"Q20143066"},{"id":70618,"name":"Guanajuato","stateId":3469,"stateCode":"GUA","stateName":"Guanajuato","countryId":142,"countryCode":"MX","countryName":"Mexico","latitude":"21.01858000","longitude":"-101.25910000","wikiDataId":"Q61306"},{"id":70650,"name":"Hacienda Arriba","stateId":3469,"stateCode":"GUA","stateName":"Guanajuato","countryId":142,"countryCode":"MX","countryName":"Mexico","latitude":"21.23366000","longitude":"-101.70393000","wikiDataId":"Q20227981"},{"id":70659,"name":"Hacienda de la Bolsa","stateId":3469,"stateCode":"GUA","stateName":"Guanajuato","countryId":142,"countryCode":"MX","countryName":"Mexico","latitude":"20.37524000","longitude":"-101.10425000","wikiDataId":"Q20207402"},{"id":70658,"name":"Hacienda de Márquez","stateId":3469,"stateCode":"GUA","stateName":"Guanajuato","countryId":142,"countryCode":"MX","countryName":"Mexico","latitude":"20.78037000","longitude":"-101.35979000","wikiDataId":"Q20207402"},{"id":70712,"name":"Hoya de Cintora (La Hoya de Arriba)","stateId":3469,"stateCode":"GUA","stateName":"Guanajuato","countryId":142,"countryCode":"MX","countryName":"Mexico","latitude":"20.36444000","longitude":"-101.20833000","wikiDataId":"Q20207417"},{"id":70734,"name":"Huanímaro","stateId":3469,"stateCode":"GUA","stateName":"Guanajuato","countryId":142,"countryCode":"MX","countryName":"Mexico","latitude":"20.36783000","longitude":"-101.49869000","wikiDataId":"Q2651183"},{"id":70803,"name":"Huitzatarito","stateId":3469,"stateCode":"GUA","stateName":"Guanajuato","countryId":142,"countryCode":"MX","countryName":"Mexico","latitude":"20.49213000","longitude":"-101.57064000","wikiDataId":"Q27769233"},{"id":70832,"name":"Ibarrilla","stateId":3469,"stateCode":"GUA","stateName":"Guanajuato","countryId":142,"countryCode":"MX","countryName":"Mexico","latitude":"21.18664000","longitude":"-101.64576000","wikiDataId":"Q20283240"},{"id":70880,"name":"Irámuco","stateId":3469,"stateCode":"GUA","stateName":"Guanajuato","countryId":142,"countryCode":"MX","countryName":"Mexico","latitude":"19.96156000","longitude":"-100.92202000","wikiDataId":"Q11019532"},{"id":70876,"name":"Irapuato","stateId":3469,"stateCode":"GUA","stateName":"Guanajuato","countryId":142,"countryCode":"MX","countryName":"Mexico","latitude":"20.67675000","longitude":"-101.35628000","wikiDataId":"Q816845"},{"id":70982,"name":"Jalpilla","stateId":3469,"stateCode":"GUA","stateName":"Guanajuato","countryId":142,"countryCode":"MX","countryName":"Mexico","latitude":"20.73129000","longitude":"-100.72090000","wikiDataId":"Q6126975"},{"id":70995,"name":"Jamaica","stateId":3469,"stateCode":"GUA","stateName":"Guanajuato","countryId":142,"countryCode":"MX","countryName":"Mexico","latitude":"21.14364000","longitude":"-100.73430000","wikiDataId":"Q20210485"},{"id":71004,"name":"Jaral del Progreso","stateId":3469,"stateCode":"GUA","stateName":"Guanajuato","countryId":142,"countryCode":"MX","countryName":"Mexico","latitude":"20.37237000","longitude":"-101.06249000","wikiDataId":"Q2651205"},{"id":71013,"name":"Jauregui","stateId":3469,"stateCode":"GUA","stateName":"Guanajuato","countryId":142,"countryCode":"MX","countryName":"Mexico","latitude":"20.59280000","longitude":"-100.71940000","wikiDataId":"Q20148773"},{"id":71021,"name":"Jerécuaro","stateId":3469,"stateCode":"GUA","stateName":"Guanajuato","countryId":142,"countryCode":"MX","countryName":"Mexico","latitude":"20.15467000","longitude":"-100.50860000","wikiDataId":"Q2651217"},{"id":71038,"name":"Jesús del Monte","stateId":3469,"stateCode":"GUA","stateName":"Guanajuato","countryId":142,"countryCode":"MX","countryName":"Mexico","latitude":"20.91504000","longitude":"-101.74129000","wikiDataId":"Q20149010"},{"id":71149,"name":"Jícamas","stateId":3469,"stateCode":"GUA","stateName":"Guanajuato","countryId":142,"countryCode":"MX","countryName":"Mexico","latitude":"20.27602000","longitude":"-101.35916000","wikiDataId":"Q20230341"},{"id":71066,"name":"Jocoqui","stateId":3469,"stateCode":"GUA","stateName":"Guanajuato","countryId":142,"countryCode":"MX","countryName":"Mexico","latitude":"20.58201000","longitude":"-100.69870000","wikiDataId":"Q20284346"},{"id":71123,"name":"Juan Martín","stateId":3469,"stateCode":"GUA","stateName":"Guanajuato","countryId":142,"countryCode":"MX","countryName":"Mexico","latitude":"20.47301000","longitude":"-100.74691000","wikiDataId":"Q20269406"},{"id":71144,"name":"Juventino Rosas","stateId":3469,"stateCode":"GUA","stateName":"Guanajuato","countryId":142,"countryCode":"MX","countryName":"Mexico","latitude":"20.64337000","longitude":"-100.99286000","wikiDataId":"Q20207490"},{"id":71170,"name":"La Aldea","stateId":3469,"stateCode":"GUA","stateName":"Guanajuato","countryId":142,"countryCode":"MX","countryName":"Mexico","latitude":"20.90166000","longitude":"-101.47852000","wikiDataId":"Q20285593"},{"id":71174,"name":"La Angostura","stateId":3469,"stateCode":"GUA","stateName":"Guanajuato","countryId":142,"countryCode":"MX","countryName":"Mexico","latitude":"20.27733000","longitude":"-101.11005000","wikiDataId":"Q20285739"},{"id":71178,"name":"La Aurora","stateId":3469,"stateCode":"GUA","stateName":"Guanajuato","countryId":142,"countryCode":"MX","countryName":"Mexico","latitude":"20.62667000","longitude":"-100.75750000","wikiDataId":"Q20285931"},{"id":71189,"name":"La Caja","stateId":3469,"stateCode":"GUA","stateName":"Guanajuato","countryId":142,"countryCode":"MX","countryName":"Mexico","latitude":"20.71146000","longitude":"-101.43769000","wikiDataId":"Q20286483"},{"id":71190,"name":"La Calera","stateId":3469,"stateCode":"GUA","stateName":"Guanajuato","countryId":142,"countryCode":"MX","countryName":"Mexico","latitude":"20.80119000","longitude":"-101.33207000","wikiDataId":"Q20207583"},{"id":71203,"name":"La Capilla","stateId":3469,"stateCode":"GUA","stateName":"Guanajuato","countryId":142,"countryCode":"MX","countryName":"Mexico","latitude":"20.55655000","longitude":"-101.30019000","wikiDataId":"Q20207631"},{"id":71216,"name":"La Ciénega","stateId":3469,"stateCode":"GUA","stateName":"Guanajuato","countryId":142,"countryCode":"MX","countryName":"Mexico","latitude":"21.30050000","longitude":"-100.48027000","wikiDataId":"Q20219425"},{"id":71214,"name":"La Cieneguita","stateId":3469,"stateCode":"GUA","stateName":"Guanajuato","countryId":142,"countryCode":"MX","countryName":"Mexico","latitude":"20.94630000","longitude":"-100.78966000","wikiDataId":"Q20264429"},{"id":71224,"name":"La Compañía","stateId":3469,"stateCode":"GUA","stateName":"Guanajuato","countryId":142,"countryCode":"MX","countryName":"Mexico","latitude":"20.37760000","longitude":"-101.15852000","wikiDataId":"Q1798725"},{"id":71251,"name":"La Cruz","stateId":3469,"stateCode":"GUA","stateName":"Guanajuato","countryId":142,"countryCode":"MX","countryName":"Mexico","latitude":"20.45694000","longitude":"-100.79583000","wikiDataId":"Q20207715"},{"id":71252,"name":"La Cruz del Palmar","stateId":3469,"stateCode":"GUA","stateName":"Guanajuato","countryId":142,"countryCode":"MX","countryName":"Mexico","latitude":"20.96973000","longitude":"-100.84354000","wikiDataId":"Q20207715"},{"id":71255,"name":"La Cuevita","stateId":3469,"stateCode":"GUA","stateName":"Guanajuato","countryId":142,"countryCode":"MX","countryName":"Mexico","latitude":"20.33872000","longitude":"-100.57891000","wikiDataId":"Q20269663"},{"id":71262,"name":"La Ermita","stateId":3469,"stateCode":"GUA","stateName":"Guanajuato","countryId":142,"countryCode":"MX","countryName":"Mexico","latitude":"21.15194000","longitude":"-101.73306000","wikiDataId":"Q20207750"},{"id":71266,"name":"La Escondida","stateId":3469,"stateCode":"GUA","stateName":"Guanajuato","countryId":142,"countryCode":"MX","countryName":"Mexico","latitude":"21.68723000","longitude":"-101.53446000","wikiDataId":"Q20228063"},{"id":71285,"name":"La Estancia de San José del Carmen","stateId":3469,"stateCode":"GUA","stateName":"Guanajuato","countryId":142,"countryCode":"MX","countryName":"Mexico","latitude":"20.29555000","longitude":"-100.86083000","wikiDataId":"Q20289643"},{"id":71288,"name":"La Estrella","stateId":3469,"stateCode":"GUA","stateName":"Guanajuato","countryId":142,"countryCode":"MX","countryName":"Mexico","latitude":"20.39050000","longitude":"-101.92109000","wikiDataId":"Q20289643"},{"id":71299,"name":"La Gavia","stateId":3469,"stateCode":"GUA","stateName":"Guanajuato","countryId":142,"countryCode":"MX","countryName":"Mexico","latitude":"20.39431000","longitude":"-100.88122000","wikiDataId":"Q15241114"},{"id":71334,"name":"La Joya de Calvillo","stateId":3469,"stateCode":"GUA","stateName":"Guanajuato","countryId":142,"countryCode":"MX","countryName":"Mexico","latitude":"20.74883000","longitude":"-101.60847000","wikiDataId":"Q20238842"},{"id":71338,"name":"La Labor","stateId":3469,"stateCode":"GUA","stateName":"Guanajuato","countryId":142,"countryCode":"MX","countryName":"Mexico","latitude":"20.53388000","longitude":"-100.70200000","wikiDataId":"Q20251616"},{"id":71341,"name":"La Laborcita","stateId":3469,"stateCode":"GUA","stateName":"Guanajuato","countryId":142,"countryCode":"MX","countryName":"Mexico","latitude":"21.10636000","longitude":"-101.55170000","wikiDataId":"Q20251621"},{"id":71350,"name":"La Laja","stateId":3469,"stateCode":"GUA","stateName":"Guanajuato","countryId":142,"countryCode":"MX","countryName":"Mexico","latitude":"20.52946000","longitude":"-100.76170000","wikiDataId":"Q20226680"},{"id":71362,"name":"La Lobera","stateId":3469,"stateCode":"GUA","stateName":"Guanajuato","countryId":142,"countryCode":"MX","countryName":"Mexico","latitude":"20.35815000","longitude":"-101.54030000","wikiDataId":"Q20246456"},{"id":71376,"name":"La Luz","stateId":3469,"stateCode":"GUA","stateName":"Guanajuato","countryId":142,"countryCode":"MX","countryName":"Mexico","latitude":"20.55386000","longitude":"-101.18097000","wikiDataId":"Q20221430"},{"id":71402,"name":"La Moncada","stateId":3469,"stateCode":"GUA","stateName":"Guanajuato","countryId":142,"countryCode":"MX","countryName":"Mexico","latitude":"20.28348000","longitude":"-100.80502000","wikiDataId":"Q4251713"},{"id":71409,"name":"La Norita","stateId":3469,"stateCode":"GUA","stateName":"Guanajuato","countryId":142,"countryCode":"MX","countryName":"Mexico","latitude":"20.55409000","longitude":"-100.51660000","wikiDataId":"Q20264981"},{"id":71412,"name":"La Ordeña","stateId":3469,"stateCode":"GUA","stateName":"Guanajuato","countryId":142,"countryCode":"MX","countryName":"Mexico","latitude":"20.68988000","longitude":"-101.11830000","wikiDataId":"Q20129072"},{"id":71415,"name":"La Ortiga","stateId":3469,"stateCode":"GUA","stateName":"Guanajuato","countryId":142,"countryCode":"MX","countryName":"Mexico","latitude":"19.96222000","longitude":"-101.00056000","wikiDataId":"Q20129271"},{"id":71421,"name":"La Palma","stateId":3469,"stateCode":"GUA","stateName":"Guanajuato","countryId":142,"countryCode":"MX","countryName":"Mexico","latitude":"20.51560000","longitude":"-100.69787000","wikiDataId":"Q20246488"},{"id":71429,"name":"La Palmita (La Palmita de San Gabriel)","stateId":3469,"stateCode":"GUA","stateName":"Guanajuato","countryId":142,"countryCode":"MX","countryName":"Mexico","latitude":"20.49806000","longitude":"-100.87806000","wikiDataId":"Q20208146"},{"id":71470,"name":"La Purísima","stateId":3469,"stateCode":"GUA","stateName":"Guanajuato","countryId":142,"countryCode":"MX","countryName":"Mexico","latitude":"20.51444000","longitude":"-100.67250000","wikiDataId":"Q20134250"},{"id":71481,"name":"La Sabana","stateId":3469,"stateCode":"GUA","stateName":"Guanajuato","countryId":142,"countryCode":"MX","countryName":"Mexico","latitude":"21.19956000","longitude":"-100.68956000","wikiDataId":"Q20293754"},{"id":71484,"name":"La Sardina","stateId":3469,"stateCode":"GUA","stateName":"Guanajuato","countryId":142,"countryCode":"MX","countryName":"Mexico","latitude":"20.88118000","longitude":"-101.66440000","wikiDataId":"Q20135754"},{"id":71485,"name":"La Sauceda","stateId":3469,"stateCode":"GUA","stateName":"Guanajuato","countryId":142,"countryCode":"MX","countryName":"Mexico","latitude":"20.89831000","longitude":"-101.19124000","wikiDataId":"Q20135754"},{"id":71491,"name":"La Soledad","stateId":3469,"stateCode":"GUA","stateName":"Guanajuato","countryId":142,"countryCode":"MX","countryName":"Mexico","latitude":"20.60792000","longitude":"-101.41558000","wikiDataId":"Q20264282"},{"id":71504,"name":"La Tinaja","stateId":3469,"stateCode":"GUA","stateName":"Guanajuato","countryId":142,"countryCode":"MX","countryName":"Mexico","latitude":"20.49028000","longitude":"-101.21556000","wikiDataId":"Q20208282"},{"id":71511,"name":"La Trinidad","stateId":3469,"stateCode":"GUA","stateName":"Guanajuato","countryId":142,"countryCode":"MX","countryName":"Mexico","latitude":"20.56333000","longitude":"-100.78361000","wikiDataId":"Q20137782"},{"id":71539,"name":"Labor de Peralta","stateId":3469,"stateCode":"GUA","stateName":"Guanajuato","countryId":142,"countryCode":"MX","countryName":"Mexico","latitude":"20.40885000","longitude":"-101.40901000","wikiDataId":"Q20139688"},{"id":71544,"name":"Ladrilleras del Refugio","stateId":3469,"stateCode":"GUA","stateName":"Guanajuato","countryId":142,"countryCode":"MX","countryName":"Mexico","latitude":"21.08472000","longitude":"-101.55361000","wikiDataId":"Q20139999"},{"id":71552,"name":"Laguna de Guadalupe","stateId":3469,"stateCode":"GUA","stateName":"Guanajuato","countryId":142,"countryCode":"MX","countryName":"Mexico","latitude":"21.80046000","longitude":"-101.35689000","wikiDataId":"Q20227219"},{"id":71548,"name":"Laguna Larga","stateId":3469,"stateCode":"GUA","stateName":"Guanajuato","countryId":142,"countryCode":"MX","countryName":"Mexico","latitude":"20.54131000","longitude":"-101.48451000","wikiDataId":"Q20227219"},{"id":71549,"name":"Laguna Larga de Cortés","stateId":3469,"stateCode":"GUA","stateName":"Guanajuato","countryId":142,"countryCode":"MX","countryName":"Mexico","latitude":"20.39270000","longitude":"-101.94062000","wikiDataId":"Q20227219"},{"id":71570,"name":"Landín","stateId":3469,"stateCode":"GUA","stateName":"Guanajuato","countryId":142,"countryCode":"MX","countryName":"Mexico","latitude":"20.75392000","longitude":"-100.90592000","wikiDataId":"Q3846402"},{"id":71657,"name":"Las Ánimas","stateId":3469,"stateCode":"GUA","stateName":"Guanajuato","countryId":142,"countryCode":"MX","countryName":"Mexico","latitude":"20.39709000","longitude":"-101.79964000","wikiDataId":"Q20215030"},{"id":71584,"name":"Las Cañas","stateId":3469,"stateCode":"GUA","stateName":"Guanajuato","countryId":142,"countryCode":"MX","countryName":"Mexico","latitude":"20.29586000","longitude":"-101.41823000","wikiDataId":"Q20142051"},{"id":71605,"name":"Las Huertas Tercera Sección","stateId":3469,"stateCode":"GUA","stateName":"Guanajuato","countryId":142,"countryCode":"MX","countryName":"Mexico","latitude":"20.65278000","longitude":"-101.39306000","wikiDataId":"Q20295595"},{"id":71610,"name":"Las Liebres","stateId":3469,"stateCode":"GUA","stateName":"Guanajuato","countryId":142,"countryCode":"MX","countryName":"Mexico","latitude":"20.83532000","longitude":"-101.47062000","wikiDataId":"Q20145836"},{"id":71620,"name":"Las Masas (La Luz Masas)","stateId":3469,"stateCode":"GUA","stateName":"Guanajuato","countryId":142,"countryCode":"MX","countryName":"Mexico","latitude":"20.59917000","longitude":"-101.54278000","wikiDataId":"Q20208457"},{"id":71646,"name":"Las Trojas","stateId":3469,"stateCode":"GUA","stateName":"Guanajuato","countryId":142,"countryCode":"MX","countryName":"Mexico","latitude":"20.71111000","longitude":"-100.78083000","wikiDataId":"Q20208516"},{"id":71666,"name":"León","stateId":3469,"stateCode":"GUA","stateName":"Guanajuato","countryId":142,"countryCode":"MX","countryName":"Mexico","latitude":"21.09309000","longitude":"-101.64501000","wikiDataId":"Q9022143"},{"id":71668,"name":"León de los Aldama","stateId":3469,"stateCode":"GUA","stateName":"Guanajuato","countryId":142,"countryCode":"MX","countryName":"Mexico","latitude":"21.12908000","longitude":"-101.67374000","wikiDataId":"Q189128"},{"id":71701,"name":"Lo de Juárez","stateId":3469,"stateCode":"GUA","stateName":"Guanajuato","countryId":142,"countryCode":"MX","countryName":"Mexico","latitude":"20.76833000","longitude":"-101.34111000","wikiDataId":"Q20282632"},{"id":71735,"name":"Loma de la Esperanza","stateId":3469,"stateCode":"GUA","stateName":"Guanajuato","countryId":142,"countryCode":"MX","countryName":"Mexico","latitude":"20.65927000","longitude":"-101.55670000","wikiDataId":"Q20208609"},{"id":71733,"name":"Loma de Yerbabuena","stateId":3469,"stateCode":"GUA","stateName":"Guanajuato","countryId":142,"countryCode":"MX","countryName":"Mexico","latitude":"21.06056000","longitude":"-101.44944000","wikiDataId":"Q20208609"},{"id":71734,"name":"Loma de Zempoala","stateId":3469,"stateCode":"GUA","stateName":"Guanajuato","countryId":142,"countryCode":"MX","countryName":"Mexico","latitude":"20.29182000","longitude":"-101.08023000","wikiDataId":"Q20208609"},{"id":71723,"name":"Loma Pelada","stateId":3469,"stateCode":"GUA","stateName":"Guanajuato","countryId":142,"countryCode":"MX","countryName":"Mexico","latitude":"20.57222000","longitude":"-101.29417000","wikiDataId":"Q20128412"},{"id":71724,"name":"Loma Tendida","stateId":3469,"stateCode":"GUA","stateName":"Guanajuato","countryId":142,"countryCode":"MX","countryName":"Mexico","latitude":"20.37560000","longitude":"-101.31057000","wikiDataId":"Q20128412"},{"id":71871,"name":"Los Ángeles","stateId":3469,"stateCode":"GUA","stateName":"Guanajuato","countryId":142,"countryCode":"MX","countryName":"Mexico","latitude":"20.55361000","longitude":"-100.94167000","wikiDataId":"Q20208663"},{"id":71772,"name":"Los Arcos","stateId":3469,"stateCode":"GUA","stateName":"Guanajuato","countryId":142,"countryCode":"MX","countryName":"Mexico","latitude":"21.04928000","longitude":"-101.68864000","wikiDataId":"Q20270237"},{"id":71796,"name":"Los Desmontes","stateId":3469,"stateCode":"GUA","stateName":"Guanajuato","countryId":142,"countryCode":"MX","countryName":"Mexico","latitude":"19.95662000","longitude":"-100.73917000","wikiDataId":"Q20246588"},{"id":71798,"name":"Los Dolores (Las Quince Letras)","stateId":3469,"stateCode":"GUA","stateName":"Guanajuato","countryId":142,"countryCode":"MX","countryName":"Mexico","latitude":"21.31778000","longitude":"-100.56583000","wikiDataId":"Q20208699"},{"id":71799,"name":"Los Dulces Nombres","stateId":3469,"stateCode":"GUA","stateName":"Guanajuato","countryId":142,"countryCode":"MX","countryName":"Mexico","latitude":"20.64806000","longitude":"-100.96472000","wikiDataId":"Q20208702"},{"id":71801,"name":"Los Fierros","stateId":3469,"stateCode":"GUA","stateName":"Guanajuato","countryId":142,"countryCode":"MX","countryName":"Mexico","latitude":"20.19353000","longitude":"-100.75941000","wikiDataId":"Q20208711"},{"id":71802,"name":"Los Galvan","stateId":3469,"stateCode":"GUA","stateName":"Guanajuato","countryId":142,"countryCode":"MX","countryName":"Mexico","latitude":"21.06377000","longitude":"-100.80114000","wikiDataId":"Q20208711"},{"id":71812,"name":"Los Lorenzos","stateId":3469,"stateCode":"GUA","stateName":"Guanajuato","countryId":142,"countryCode":"MX","countryName":"Mexico","latitude":"21.07229000","longitude":"-101.37580000","wikiDataId":"Q20137356"},{"id":71813,"name":"Los Mancera","stateId":3469,"stateCode":"GUA","stateName":"Guanajuato","countryId":142,"countryCode":"MX","countryName":"Mexico","latitude":"20.47028000","longitude":"-100.80389000","wikiDataId":"Q20285155"},{"id":71815,"name":"Los Medranos","stateId":3469,"stateCode":"GUA","stateName":"Guanajuato","countryId":142,"countryCode":"MX","countryName":"Mexico","latitude":"20.88283000","longitude":"-101.43640000","wikiDataId":"Q20270389"},{"id":71822,"name":"Los Nicolases","stateId":3469,"stateCode":"GUA","stateName":"Guanajuato","countryId":142,"countryCode":"MX","countryName":"Mexico","latitude":"20.85806000","longitude":"-101.31750000","wikiDataId":"Q20285360"},{"id":71824,"name":"Los Ocotes","stateId":3469,"stateCode":"GUA","stateName":"Guanajuato","countryId":142,"countryCode":"MX","countryName":"Mexico","latitude":"20.41560000","longitude":"-101.96108000","wikiDataId":"Q20285372"},{"id":71838,"name":"Los Prietos","stateId":3469,"stateCode":"GUA","stateName":"Guanajuato","countryId":142,"countryCode":"MX","countryName":"Mexico","latitude":"20.57513000","longitude":"-101.26574000","wikiDataId":"Q20140826"},{"id":71841,"name":"Los Ramírez","stateId":3469,"stateCode":"GUA","stateName":"Guanajuato","countryId":142,"countryCode":"MX","countryName":"Mexico","latitude":"21.01942000","longitude":"-101.64411000","wikiDataId":"Q3311869"},{"id":71843,"name":"Los Remedios","stateId":3469,"stateCode":"GUA","stateName":"Guanajuato","countryId":142,"countryCode":"MX","countryName":"Mexico","latitude":"21.18492000","longitude":"-100.19919000","wikiDataId":"Q3311869"},{"id":71855,"name":"Los Rodríguez","stateId":3469,"stateCode":"GUA","stateName":"Guanajuato","countryId":142,"countryCode":"MX","countryName":"Mexico","latitude":"21.04311000","longitude":"-100.64361000","wikiDataId":"Q992162"},{"id":71876,"name":"Loza de Barrera","stateId":3469,"stateCode":"GUA","stateName":"Guanajuato","countryId":142,"countryCode":"MX","countryName":"Mexico","latitude":"20.98461000","longitude":"-101.52972000","wikiDataId":"Q20208663"},{"id":71877,"name":"Loza de los Padres","stateId":3469,"stateCode":"GUA","stateName":"Guanajuato","countryId":142,"countryCode":"MX","countryName":"Mexico","latitude":"21.07181000","longitude":"-101.54603000","wikiDataId":"Q20208663"},{"id":71879,"name":"Lucio Blanco (Los Gavilanes)","stateId":3469,"stateCode":"GUA","stateName":"Guanajuato","countryId":142,"countryCode":"MX","countryName":"Mexico","latitude":"21.11528000","longitude":"-101.55111000","wikiDataId":"Q20208864"},{"id":71933,"name":"Magdalena de Araceo","stateId":3469,"stateCode":"GUA","stateName":"Guanajuato","countryId":142,"countryCode":"MX","countryName":"Mexico","latitude":"20.30935000","longitude":"-101.17861000","wikiDataId":"Q3891472"},{"id":71944,"name":"Malagana (San Antonio del Monte)","stateId":3469,"stateCode":"GUA","stateName":"Guanajuato","countryId":142,"countryCode":"MX","countryName":"Mexico","latitude":"21.04670000","longitude":"-101.75350000","wikiDataId":"Q20286876"},{"id":71959,"name":"Manuel Doblado","stateId":3469,"stateCode":"GUA","stateName":"Guanajuato","countryId":142,"countryCode":"MX","countryName":"Mexico","latitude":"20.72085000","longitude":"-101.85600000","wikiDataId":"Q2447549"},{"id":71980,"name":"Maravatío del Encinal","stateId":3469,"stateCode":"GUA","stateName":"Guanajuato","countryId":142,"countryCode":"MX","countryName":"Mexico","latitude":"20.20513000","longitude":"-100.96211000","wikiDataId":"Q20145024"},{"id":71989,"name":"Marfil","stateId":3469,"stateCode":"GUA","stateName":"Guanajuato","countryId":142,"countryCode":"MX","countryName":"Mexico","latitude":"20.99165000","longitude":"-101.28434000","wikiDataId":"Q20145219"},{"id":71999,"name":"Marroquín","stateId":3469,"stateCode":"GUA","stateName":"Guanajuato","countryId":142,"countryCode":"MX","countryName":"Mexico","latitude":"20.51138000","longitude":"-100.55946000","wikiDataId":"Q1179985"},{"id":72065,"name":"Medina","stateId":3469,"stateCode":"GUA","stateName":"Guanajuato","countryId":142,"countryCode":"MX","countryName":"Mexico","latitude":"21.14972000","longitude":"-101.62250000","wikiDataId":"Q20208919"},{"id":72066,"name":"Medio Sitio","stateId":3469,"stateCode":"GUA","stateName":"Guanajuato","countryId":142,"countryCode":"MX","countryName":"Mexico","latitude":"20.86948000","longitude":"-101.35689000","wikiDataId":"Q20208922"},{"id":72074,"name":"Menores","stateId":3469,"stateCode":"GUA","stateName":"Guanajuato","countryId":142,"countryCode":"MX","countryName":"Mexico","latitude":"20.92028000","longitude":"-101.39500000","wikiDataId":"Q20208924"},{"id":72078,"name":"Merino","stateId":3469,"stateCode":"GUA","stateName":"Guanajuato","countryId":142,"countryCode":"MX","countryName":"Mexico","latitude":"20.49424000","longitude":"-100.88411000","wikiDataId":"Q1921059"},{"id":72101,"name":"Mexicanos","stateId":3469,"stateCode":"GUA","stateName":"Guanajuato","countryId":142,"countryCode":"MX","countryName":"Mexico","latitude":"20.52903000","longitude":"-101.07064000","wikiDataId":"Q20252198"},{"id":72110,"name":"Mezquite de Luna","stateId":3469,"stateCode":"GUA","stateName":"Guanajuato","countryId":142,"countryCode":"MX","countryName":"Mexico","latitude":"20.29765000","longitude":"-101.89260000","wikiDataId":"Q20287344"},{"id":72111,"name":"Mezquite de Sotelo","stateId":3469,"stateCode":"GUA","stateName":"Guanajuato","countryId":142,"countryCode":"MX","countryName":"Mexico","latitude":"21.00825000","longitude":"-101.50287000","wikiDataId":"Q20287344"},{"id":72109,"name":"Mezquite Gordo","stateId":3469,"stateCode":"GUA","stateName":"Guanajuato","countryId":142,"countryCode":"MX","countryName":"Mexico","latitude":"20.81463000","longitude":"-101.49277000","wikiDataId":"Q20148222"},{"id":72148,"name":"Mineral de la Luz","stateId":3469,"stateCode":"GUA","stateName":"Guanajuato","countryId":142,"countryCode":"MX","countryName":"Mexico","latitude":"21.06456000","longitude":"-101.33806000","wikiDataId":"Q3844842"},{"id":72160,"name":"Misión de Chichimecas","stateId":3469,"stateCode":"GUA","stateName":"Guanajuato","countryId":142,"countryCode":"MX","countryName":"Mexico","latitude":"21.28496000","longitude":"-100.48658000","wikiDataId":"Q20234895"},{"id":72185,"name":"Molino de San José","stateId":3469,"stateCode":"GUA","stateName":"Guanajuato","countryId":142,"countryCode":"MX","countryName":"Mexico","latitude":"21.57083000","longitude":"-101.26389000","wikiDataId":"Q20149774"},{"id":72186,"name":"Molino de Santa Ana","stateId":3469,"stateCode":"GUA","stateName":"Guanajuato","countryId":142,"countryCode":"MX","countryName":"Mexico","latitude":"20.82874000","longitude":"-101.34929000","wikiDataId":"Q20149774"},{"id":72197,"name":"Monte Blanco","stateId":3469,"stateCode":"GUA","stateName":"Guanajuato","countryId":142,"countryCode":"MX","countryName":"Mexico","latitude":"20.35472000","longitude":"-101.52750000","wikiDataId":"Q20270673"},{"id":72209,"name":"Monte del Coecillo","stateId":3469,"stateCode":"GUA","stateName":"Guanajuato","countryId":142,"countryCode":"MX","countryName":"Mexico","latitude":"20.97900000","longitude":"-101.43542000","wikiDataId":"Q20270682"},{"id":72201,"name":"Monte Grande","stateId":3469,"stateCode":"GUA","stateName":"Guanajuato","countryId":142,"countryCode":"MX","countryName":"Mexico","latitude":"20.99806000","longitude":"-101.86333000","wikiDataId":"Q20253183"},{"id":72223,"name":"Morales","stateId":3469,"stateCode":"GUA","stateName":"Guanajuato","countryId":142,"countryCode":"MX","countryName":"Mexico","latitude":"20.77821000","longitude":"-100.80932000","wikiDataId":"Q20209008"},{"id":72238,"name":"Moroleón","stateId":3469,"stateCode":"GUA","stateName":"Guanajuato","countryId":142,"countryCode":"MX","countryName":"Mexico","latitude":"20.12571000","longitude":"-101.19208000","wikiDataId":"Q605127"},{"id":72314,"name":"Neutla","stateId":3469,"stateCode":"GUA","stateName":"Guanajuato","countryId":142,"countryCode":"MX","countryName":"Mexico","latitude":"20.70800000","longitude":"-100.83957000","wikiDataId":"Q3947701"},{"id":72331,"name":"Nigromante","stateId":3469,"stateCode":"GUA","stateName":"Guanajuato","countryId":142,"countryCode":"MX","countryName":"Mexico","latitude":"20.96194000","longitude":"-100.78028000","wikiDataId":"Q20209025"},{"id":72435,"name":"Obrajuelo","stateId":3469,"stateCode":"GUA","stateName":"Guanajuato","countryId":142,"countryCode":"MX","countryName":"Mexico","latitude":"20.10820000","longitude":"-100.84950000","wikiDataId":"Q20209121"},{"id":72441,"name":"Ocampo","stateId":3469,"stateCode":"GUA","stateName":"Guanajuato","countryId":142,"countryCode":"MX","countryName":"Mexico","latitude":"21.64653000","longitude":"-101.48012000","wikiDataId":"Q27783444"},{"id":72489,"name":"Ojo de Agua de Ballesteros","stateId":3469,"stateCode":"GUA","stateName":"Guanajuato","countryId":142,"countryCode":"MX","countryName":"Mexico","latitude":"20.22821000","longitude":"-100.82424000","wikiDataId":"Q1030019"},{"id":72495,"name":"Ojo de Agua de la Trinidad","stateId":3469,"stateCode":"GUA","stateName":"Guanajuato","countryId":142,"countryCode":"MX","countryName":"Mexico","latitude":"20.39356000","longitude":"-100.63255000","wikiDataId":"Q20289789"},{"id":72492,"name":"Ojo de Agua de Mendoza","stateId":3469,"stateCode":"GUA","stateName":"Guanajuato","countryId":142,"countryCode":"MX","countryName":"Mexico","latitude":"20.16585000","longitude":"-100.56909000","wikiDataId":"Q1030019"},{"id":72496,"name":"Ojo de Agua del Refugio","stateId":3469,"stateCode":"GUA","stateName":"Guanajuato","countryId":142,"countryCode":"MX","countryName":"Mexico","latitude":"21.01386000","longitude":"-100.31687000","wikiDataId":"Q20289789"},{"id":72483,"name":"Ojo Seco","stateId":3469,"stateCode":"GUA","stateName":"Guanajuato","countryId":142,"countryCode":"MX","countryName":"Mexico","latitude":"20.38687000","longitude":"-100.79659000","wikiDataId":"Q20260103"},{"id":72517,"name":"Orduña de Abajo","stateId":3469,"stateCode":"GUA","stateName":"Guanajuato","countryId":142,"countryCode":"MX","countryName":"Mexico","latitude":"20.75806000","longitude":"-100.78278000","wikiDataId":"Q20291218"},{"id":72518,"name":"Orduña de Arriba","stateId":3469,"stateCode":"GUA","stateName":"Guanajuato","countryId":142,"countryCode":"MX","countryName":"Mexico","latitude":"20.76583000","longitude":"-100.79262000","wikiDataId":"Q20291218"},{"id":72537,"name":"Otates","stateId":3469,"stateCode":"GUA","stateName":"Guanajuato","countryId":142,"countryCode":"MX","countryName":"Mexico","latitude":"20.40064000","longitude":"-101.48169000","wikiDataId":"Q27768276"},{"id":72601,"name":"Palmillas de San Juan","stateId":3469,"stateCode":"GUA","stateName":"Guanajuato","countryId":142,"countryCode":"MX","countryName":"Mexico","latitude":"20.76873000","longitude":"-100.86432000","wikiDataId":"Q20291801"},{"id":72608,"name":"Palo Colorado","stateId":3469,"stateCode":"GUA","stateName":"Guanajuato","countryId":142,"countryCode":"MX","countryName":"Mexico","latitude":"21.00836000","longitude":"-100.72917000","wikiDataId":"Q20209262"},{"id":72621,"name":"Panales Jamaica (Cañones)","stateId":3469,"stateCode":"GUA","stateName":"Guanajuato","countryId":142,"countryCode":"MX","countryName":"Mexico","latitude":"20.29556000","longitude":"-100.82306000","wikiDataId":"Q7129907"},{"id":72663,"name":"Parácuaro","stateId":3469,"stateCode":"GUA","stateName":"Guanajuato","countryId":142,"countryCode":"MX","countryName":"Mexico","latitude":"20.14381000","longitude":"-100.76352000","wikiDataId":"Q20209278"},{"id":72649,"name":"Parangarico","stateId":3469,"stateCode":"GUA","stateName":"Guanajuato","countryId":142,"countryCode":"MX","countryName":"Mexico","latitude":"20.19232000","longitude":"-101.16550000","wikiDataId":"Q20292812"},{"id":72692,"name":"Paso de Pirules","stateId":3469,"stateCode":"GUA","stateName":"Guanajuato","countryId":142,"countryCode":"MX","countryName":"Mexico","latitude":"20.95028000","longitude":"-101.29972000","wikiDataId":"Q20209300"},{"id":72716,"name":"Paxtle","stateId":3469,"stateCode":"GUA","stateName":"Guanajuato","countryId":142,"countryCode":"MX","countryName":"Mexico","latitude":"21.05897000","longitude":"-101.40390000","wikiDataId":"Q20243657"},{"id":73011,"name":"Pénjamo","stateId":3469,"stateCode":"GUA","stateName":"Guanajuato","countryId":142,"countryCode":"MX","countryName":"Mexico","latitude":"20.43108000","longitude":"-101.72261000","wikiDataId":"Q1962279"},{"id":72754,"name":"Peñuelas","stateId":3469,"stateCode":"GUA","stateName":"Guanajuato","countryId":142,"countryCode":"MX","countryName":"Mexico","latitude":"20.71676000","longitude":"-101.29749000","wikiDataId":"Q3845591"},{"id":72731,"name":"Peralta","stateId":3469,"stateCode":"GUA","stateName":"Guanajuato","countryId":142,"countryCode":"MX","countryName":"Mexico","latitude":"20.47350000","longitude":"-101.40811000","wikiDataId":"Q3888788"},{"id":72773,"name":"Piedras de Lumbre","stateId":3469,"stateCode":"GUA","stateName":"Guanajuato","countryId":142,"countryCode":"MX","countryName":"Mexico","latitude":"20.25097000","longitude":"-100.59972000","wikiDataId":"Q1856408"},{"id":72771,"name":"Piedras Negras","stateId":3469,"stateCode":"GUA","stateName":"Guanajuato","countryId":142,"countryCode":"MX","countryName":"Mexico","latitude":"20.43059000","longitude":"-101.39158000","wikiDataId":"Q20271428"},{"id":72792,"name":"Piñícuaro","stateId":3469,"stateCode":"GUA","stateName":"Guanajuato","countryId":142,"countryCode":"MX","countryName":"Mexico","latitude":"20.04751000","longitude":"-101.24097000","wikiDataId":"Q2991688"},{"id":72800,"name":"Plan de Ayala","stateId":3469,"stateCode":"GUA","stateName":"Guanajuato","countryId":142,"countryCode":"MX","countryName":"Mexico","latitude":"21.07209000","longitude":"-101.72165000","wikiDataId":"Q20295585"},{"id":72794,"name":"Plan Guanajuato (La Sandía)","stateId":3469,"stateCode":"GUA","stateName":"Guanajuato","countryId":142,"countryCode":"MX","countryName":"Mexico","latitude":"20.92167000","longitude":"-101.69694000","wikiDataId":"Q20209361"},{"id":72805,"name":"Plancarte","stateId":3469,"stateCode":"GUA","stateName":"Guanajuato","countryId":142,"countryCode":"MX","countryName":"Mexico","latitude":"20.58681000","longitude":"-100.79620000","wikiDataId":"Q20271516"},{"id":72864,"name":"Potrerillos (Guanajal)","stateId":3469,"stateCode":"GUA","stateName":"Guanajuato","countryId":142,"countryCode":"MX","countryName":"Mexico","latitude":"21.08154000","longitude":"-101.86986000","wikiDataId":"Q20209379"},{"id":72874,"name":"Pozos","stateId":3469,"stateCode":"GUA","stateName":"Guanajuato","countryId":142,"countryCode":"MX","countryName":"Mexico","latitude":"20.62003000","longitude":"-100.89560000","wikiDataId":"Q20221982"},{"id":72883,"name":"Prados del Rosario","stateId":3469,"stateCode":"GUA","stateName":"Guanajuato","countryId":142,"countryCode":"MX","countryName":"Mexico","latitude":"21.02194000","longitude":"-100.39250000","wikiDataId":"Q20296920"},{"id":72887,"name":"Presa Blanca","stateId":3469,"stateCode":"GUA","stateName":"Guanajuato","countryId":142,"countryCode":"MX","countryName":"Mexico","latitude":"20.64146000","longitude":"-100.79241000","wikiDataId":"Q20266054"},{"id":72896,"name":"Primera Fracción de Crespo","stateId":3469,"stateCode":"GUA","stateName":"Guanajuato","countryId":142,"countryCode":"MX","countryName":"Mexico","latitude":"20.49638000","longitude":"-100.85150000","wikiDataId":"Q20297094"},{"id":72922,"name":"Providencia","stateId":3469,"stateCode":"GUA","stateName":"Guanajuato","countryId":142,"countryCode":"MX","countryName":"Mexico","latitude":"20.35439000","longitude":"-101.01895000","wikiDataId":"Q27949082"},{"id":72923,"name":"Providencia de Nápoles","stateId":3469,"stateCode":"GUA","stateName":"Guanajuato","countryId":142,"countryCode":"MX","countryName":"Mexico","latitude":"21.02297000","longitude":"-101.45775000","wikiDataId":"Q27949082"},{"id":72941,"name":"Pueblo Nuevo","stateId":3469,"stateCode":"GUA","stateName":"Guanajuato","countryId":142,"countryCode":"MX","countryName":"Mexico","latitude":"20.52516000","longitude":"-101.37196000","wikiDataId":"Q27781567"},{"id":72959,"name":"Puentecillas","stateId":3469,"stateCode":"GUA","stateName":"Guanajuato","countryId":142,"countryCode":"MX","countryName":"Mexico","latitude":"20.93187000","longitude":"-101.27873000","wikiDataId":"Q6091388"},{"id":72963,"name":"Puerta del Monte","stateId":3469,"stateCode":"GUA","stateName":"Guanajuato","countryId":142,"countryCode":"MX","countryName":"Mexico","latitude":"20.25853000","longitude":"-101.02597000","wikiDataId":"Q20234619"},{"id":72996,"name":"Purísima de Bustos","stateId":3469,"stateCode":"GUA","stateName":"Guanajuato","countryId":142,"countryCode":"MX","countryName":"Mexico","latitude":"21.03150000","longitude":"-101.87833000","wikiDataId":"Q49998444"},{"id":72997,"name":"Purísima de Covarrubias","stateId":3469,"stateCode":"GUA","stateName":"Guanajuato","countryId":142,"countryCode":"MX","countryName":"Mexico","latitude":"20.61932000","longitude":"-101.48340000","wikiDataId":"Q49998444"},{"id":72999,"name":"Purísima del Progreso","stateId":3469,"stateCode":"GUA","stateName":"Guanajuato","countryId":142,"countryCode":"MX","countryName":"Mexico","latitude":"20.79333000","longitude":"-101.33028000","wikiDataId":"Q20209598"},{"id":73000,"name":"Purísima del Rincón","stateId":3469,"stateCode":"GUA","stateName":"Guanajuato","countryId":142,"countryCode":"MX","countryName":"Mexico","latitude":"20.94704000","longitude":"-101.90939000","wikiDataId":"Q948895"},{"id":72989,"name":"Puroagua","stateId":3469,"stateCode":"GUA","stateName":"Guanajuato","countryId":142,"countryCode":"MX","countryName":"Mexico","latitude":"20.07913000","longitude":"-100.45291000","wikiDataId":"Q20271772"},{"id":73078,"name":"Rancho de Guadalupe","stateId":3469,"stateCode":"GUA","stateName":"Guanajuato","countryId":142,"countryCode":"MX","countryName":"Mexico","latitude":"21.21639000","longitude":"-101.01000000","wikiDataId":"Q20209654"},{"id":73068,"name":"Rancho Nuevo de la Cruz","stateId":3469,"stateCode":"GUA","stateName":"Guanajuato","countryId":142,"countryCode":"MX","countryName":"Mexico","latitude":"20.65105000","longitude":"-101.51786000","wikiDataId":"Q20222184"},{"id":73069,"name":"Rancho Nuevo de la Luz","stateId":3469,"stateCode":"GUA","stateName":"Guanajuato","countryId":142,"countryCode":"MX","countryName":"Mexico","latitude":"20.96246000","longitude":"-101.64573000","wikiDataId":"Q20222184"},{"id":73070,"name":"Rancho Nuevo del Llanito","stateId":3469,"stateCode":"GUA","stateName":"Guanajuato","countryId":142,"countryCode":"MX","countryName":"Mexico","latitude":"20.82361000","longitude":"-101.36861000","wikiDataId":"Q20209794"},{"id":73074,"name":"Rancho Viejo","stateId":3469,"stateCode":"GUA","stateName":"Guanajuato","countryId":142,"countryCode":"MX","countryName":"Mexico","latitude":"21.02091000","longitude":"-100.77142000","wikiDataId":"Q20219583"},{"id":73124,"name":"Rincón de Cano","stateId":3469,"stateCode":"GUA","stateName":"Guanajuato","countryId":142,"countryCode":"MX","countryName":"Mexico","latitude":"21.05519000","longitude":"-100.24196000","wikiDataId":"Q20272150"},{"id":73132,"name":"Rincón de Parangueo","stateId":3469,"stateCode":"GUA","stateName":"Guanajuato","countryId":142,"countryCode":"MX","countryName":"Mexico","latitude":"20.42193000","longitude":"-101.25101000","wikiDataId":"Q20285479"},{"id":73134,"name":"Rincón de Tamayo","stateId":3469,"stateCode":"GUA","stateName":"Guanajuato","countryId":142,"countryCode":"MX","countryName":"Mexico","latitude":"20.42344000","longitude":"-100.75470000","wikiDataId":"Q7334633"},{"id":73137,"name":"Rincón del Centeno","stateId":3469,"stateCode":"GUA","stateName":"Guanajuato","countryId":142,"countryCode":"MX","countryName":"Mexico","latitude":"20.66076000","longitude":"-100.88532000","wikiDataId":"Q20128492"},{"id":73115,"name":"Rinconadas del Bosque","stateId":3469,"stateCode":"GUA","stateName":"Guanajuato","countryId":142,"countryCode":"MX","countryName":"Mexico","latitude":"20.08528000","longitude":"-101.19833000","wikiDataId":"Q20129167"},{"id":73180,"name":"Río Laja","stateId":3469,"stateCode":"GUA","stateName":"Guanajuato","countryId":142,"countryCode":"MX","countryName":"Mexico","latitude":"21.20326000","longitude":"-100.92339000","wikiDataId":"Q6115313"},{"id":73144,"name":"Rizos de la Joya (Rizos del Saucillo)","stateId":3469,"stateCode":"GUA","stateName":"Guanajuato","countryId":142,"countryCode":"MX","countryName":"Mexico","latitude":"21.14861000","longitude":"-101.76194000","wikiDataId":"Q20209908"},{"id":73156,"name":"Romita","stateId":3469,"stateCode":"GUA","stateName":"Guanajuato","countryId":142,"countryCode":"MX","countryName":"Mexico","latitude":"20.87127000","longitude":"-101.51683000","wikiDataId":"Q2651353"},{"id":73157,"name":"Roque","stateId":3469,"stateCode":"GUA","stateName":"Guanajuato","countryId":142,"countryCode":"MX","countryName":"Mexico","latitude":"20.58228000","longitude":"-100.83727000","wikiDataId":"Q20209915"},{"id":73209,"name":"Salamanca","stateId":3469,"stateCode":"GUA","stateName":"Guanajuato","countryId":142,"countryCode":"MX","countryName":"Mexico","latitude":"20.57196000","longitude":"-101.19154000","wikiDataId":"Q1801321"},{"id":73220,"name":"Salitrillo","stateId":3469,"stateCode":"GUA","stateName":"Guanajuato","countryId":142,"countryCode":"MX","countryName":"Mexico","latitude":"21.03629000","longitude":"-101.45650000","wikiDataId":"Q20286817"},{"id":73231,"name":"Salvatierra","stateId":3469,"stateCode":"GUA","stateName":"Guanajuato","countryId":142,"countryCode":"MX","countryName":"Mexico","latitude":"20.21322000","longitude":"-100.88023000","wikiDataId":"Q2447267"},{"id":73258,"name":"San Agustín de las Flores","stateId":3469,"stateCode":"GUA","stateName":"Guanajuato","countryId":142,"countryCode":"MX","countryName":"Mexico","latitude":"21.00727000","longitude":"-101.43710000","wikiDataId":"Q1193972"},{"id":73279,"name":"San Andrés Enguaro","stateId":3469,"stateCode":"GUA","stateName":"Guanajuato","countryId":142,"countryCode":"MX","countryName":"Mexico","latitude":"20.19472000","longitude":"-101.23639000","wikiDataId":"Q20133225"},{"id":74512,"name":"San Ángel","stateId":3469,"stateCode":"GUA","stateName":"Guanajuato","countryId":142,"countryCode":"MX","countryName":"Mexico","latitude":"20.90193000","longitude":"-101.91895000","wikiDataId":"Q20295679"},{"id":73327,"name":"San Antonio Calichar","stateId":3469,"stateCode":"GUA","stateName":"Guanajuato","countryId":142,"countryCode":"MX","countryName":"Mexico","latitude":"20.49669000","longitude":"-100.51775000","wikiDataId":"Q20287325"},{"id":73364,"name":"San Antonio de Corrales","stateId":3469,"stateCode":"GUA","stateName":"Guanajuato","countryId":142,"countryCode":"MX","countryName":"Mexico","latitude":"20.74556000","longitude":"-100.96361000","wikiDataId":"Q20134058"},{"id":73375,"name":"San Antonio de los Morales","stateId":3469,"stateCode":"GUA","stateName":"Guanajuato","countryId":142,"countryCode":"MX","countryName":"Mexico","latitude":"20.58055000","longitude":"-100.91020000","wikiDataId":"Q20134232"},{"id":73377,"name":"San Antonio de los Tepetates","stateId":3469,"stateCode":"GUA","stateName":"Guanajuato","countryId":142,"countryCode":"MX","countryName":"Mexico","latitude":"21.04472000","longitude":"-101.67611000","wikiDataId":"Q20209988"},{"id":73366,"name":"San Antonio de Romerillo","stateId":3469,"stateCode":"GUA","stateName":"Guanajuato","countryId":142,"countryCode":"MX","countryName":"Mexico","latitude":"20.60784000","longitude":"-100.94854000","wikiDataId":"Q20134058"},{"id":73383,"name":"San Antonio el Chico","stateId":3469,"stateCode":"GUA","stateName":"Guanajuato","countryId":142,"countryCode":"MX","countryName":"Mexico","latitude":"20.62798000","longitude":"-101.28373000","wikiDataId":"Q20134455"},{"id":73387,"name":"San Antonio el Rico","stateId":3469,"stateCode":"GUA","stateName":"Guanajuato","countryId":142,"countryCode":"MX","countryName":"Mexico","latitude":"20.82308000","longitude":"-101.37161000","wikiDataId":"Q20243891"},{"id":73332,"name":"San Antonio Eménguaro","stateId":3469,"stateCode":"GUA","stateName":"Guanajuato","countryId":142,"countryCode":"MX","countryName":"Mexico","latitude":"20.13997000","longitude":"-100.87874000","wikiDataId":"Q20133984"},{"id":73334,"name":"San Antonio Gallardo","stateId":3469,"stateCode":"GUA","stateName":"Guanajuato","countryId":142,"countryCode":"MX","countryName":"Mexico","latitude":"20.62833000","longitude":"-100.76778000","wikiDataId":"Q20209997"},{"id":73345,"name":"San Antonio Primero","stateId":3469,"stateCode":"GUA","stateName":"Guanajuato","countryId":142,"countryCode":"MX","countryName":"Mexico","latitude":"21.09417000","longitude":"-100.52844000","wikiDataId":"Q20231554"},{"id":73355,"name":"San Antonio Texas","stateId":3469,"stateCode":"GUA","stateName":"Guanajuato","countryId":142,"countryCode":"MX","countryName":"Mexico","latitude":"20.98556000","longitude":"-101.49000000","wikiDataId":"Q20287801"},{"id":73411,"name":"San Bartolo de Berrios","stateId":3469,"stateCode":"GUA","stateName":"Guanajuato","countryId":142,"countryCode":"MX","countryName":"Mexico","latitude":"21.61240000","longitude":"-101.06845000","wikiDataId":"Q27796601"},{"id":73419,"name":"San Bartolomé Aguas Calientes","stateId":3469,"stateCode":"GUA","stateName":"Guanajuato","countryId":142,"countryCode":"MX","countryName":"Mexico","latitude":"20.49556000","longitude":"-100.54833000","wikiDataId":"Q20136079"},{"id":73438,"name":"San Bernardo","stateId":3469,"stateCode":"GUA","stateName":"Guanajuato","countryId":142,"countryCode":"MX","countryName":"Mexico","latitude":"20.96764000","longitude":"-101.86972000","wikiDataId":"Q7413455"},{"id":73442,"name":"San Bernardo Peña Blanca","stateId":3469,"stateCode":"GUA","stateName":"Guanajuato","countryId":142,"countryCode":"MX","countryName":"Mexico","latitude":"20.46167000","longitude":"-101.48250000","wikiDataId":"Q20136219"},{"id":73465,"name":"San Cayetano","stateId":3469,"stateCode":"GUA","stateName":"Guanajuato","countryId":142,"countryCode":"MX","countryName":"Mexico","latitude":"20.60357000","longitude":"-100.82021000","wikiDataId":"Q3846926"},{"id":73472,"name":"San Cristóbal","stateId":3469,"stateCode":"GUA","stateName":"Guanajuato","countryId":142,"countryCode":"MX","countryName":"Mexico","latitude":"20.65787000","longitude":"-101.47683000","wikiDataId":"Q20288570"},{"id":73489,"name":"San Diego","stateId":3469,"stateCode":"GUA","stateName":"Guanajuato","countryId":142,"countryCode":"MX","countryName":"Mexico","latitude":"20.88838000","longitude":"-101.40973000","wikiDataId":"Q20136860"},{"id":73495,"name":"San Diego de Alcalá","stateId":3469,"stateCode":"GUA","stateName":"Guanajuato","countryId":142,"countryCode":"MX","countryName":"Mexico","latitude":"20.03062000","longitude":"-100.86350000","wikiDataId":"Q20288618"},{"id":73496,"name":"San Diego de la Unión","stateId":3469,"stateCode":"GUA","stateName":"Guanajuato","countryId":142,"countryCode":"MX","countryName":"Mexico","latitude":"21.46749000","longitude":"-100.87310000","wikiDataId":"Q2651955"},{"id":73505,"name":"San Elías","stateId":3469,"stateCode":"GUA","stateName":"Guanajuato","countryId":142,"countryCode":"MX","countryName":"Mexico","latitude":"20.63529000","longitude":"-100.84120000","wikiDataId":"Q558469"},{"id":73511,"name":"San Felipe","stateId":3469,"stateCode":"GUA","stateName":"Guanajuato","countryId":142,"countryCode":"MX","countryName":"Mexico","latitude":"21.47831000","longitude":"-101.21566000","wikiDataId":"Q2651377"},{"id":73521,"name":"San Felipe Quiriceo","stateId":3469,"stateCode":"GUA","stateName":"Guanajuato","countryId":142,"countryCode":"MX","countryName":"Mexico","latitude":"20.44303000","longitude":"-101.28960000","wikiDataId":"Q20288838"},{"id":73542,"name":"San Francisco","stateId":3469,"stateCode":"GUA","stateName":"Guanajuato","countryId":142,"countryCode":"MX","countryName":"Mexico","latitude":"21.63387000","longitude":"-101.05884000","wikiDataId":"Q20289530"},{"id":73546,"name":"San Francisco (Baños de Agua Caliente)","stateId":3469,"stateCode":"GUA","stateName":"Guanajuato","countryId":142,"countryCode":"MX","countryName":"Mexico","latitude":"21.07389000","longitude":"-101.47278000","wikiDataId":"Q20210071"},{"id":73611,"name":"San Francisco de Durán","stateId":3469,"stateCode":"GUA","stateName":"Guanajuato","countryId":142,"countryCode":"MX","countryName":"Mexico","latitude":"21.00513000","longitude":"-101.61990000","wikiDataId":"Q2466659"},{"id":73621,"name":"San Francisco del Rincón","stateId":3469,"stateCode":"GUA","stateName":"Guanajuato","countryId":142,"countryCode":"MX","countryName":"Mexico","latitude":"21.01843000","longitude":"-101.85515000","wikiDataId":"Q2384255"},{"id":73625,"name":"San Gabriel","stateId":3469,"stateCode":"GUA","stateName":"Guanajuato","countryId":142,"countryCode":"MX","countryName":"Mexico","latitude":"21.12949000","longitude":"-100.83496000","wikiDataId":"Q20137671"},{"id":73633,"name":"San Gabriel y San Ignacio","stateId":3469,"stateCode":"GUA","stateName":"Guanajuato","countryId":142,"countryCode":"MX","countryName":"Mexico","latitude":"20.44028000","longitude":"-101.60816000","wikiDataId":"Q20138857"},{"id":73640,"name":"San Gregorio","stateId":3469,"stateCode":"GUA","stateName":"Guanajuato","countryId":142,"countryCode":"MX","countryName":"Mexico","latitude":"20.54694000","longitude":"-101.62847000","wikiDataId":"Q50024814"},{"id":73651,"name":"San Ignacio","stateId":3469,"stateCode":"GUA","stateName":"Guanajuato","countryId":142,"countryCode":"MX","countryName":"Mexico","latitude":"21.28194000","longitude":"-100.53722000","wikiDataId":"Q20210090"},{"id":73654,"name":"San Ignacio de Hidalgo","stateId":3469,"stateCode":"GUA","stateName":"Guanajuato","countryId":142,"countryCode":"MX","countryName":"Mexico","latitude":"20.91167000","longitude":"-101.86056000","wikiDataId":"Q20139219"},{"id":73655,"name":"San Ignacio de Rivera (Ojo de Agua)","stateId":3469,"stateCode":"GUA","stateName":"Guanajuato","countryId":142,"countryCode":"MX","countryName":"Mexico","latitude":"20.55926000","longitude":"-101.46127000","wikiDataId":"Q20289811"},{"id":73656,"name":"San Ignacio de San José Parangueo","stateId":3469,"stateCode":"GUA","stateName":"Guanajuato","countryId":142,"countryCode":"MX","countryName":"Mexico","latitude":"20.41473000","longitude":"-101.29780000","wikiDataId":"Q20289811"},{"id":73686,"name":"San Isidro de Gamboa","stateId":3469,"stateCode":"GUA","stateName":"Guanajuato","countryId":142,"countryCode":"MX","countryName":"Mexico","latitude":"20.39501000","longitude":"-100.52705000","wikiDataId":"Q20272402"},{"id":73687,"name":"San Isidro de la Concepción","stateId":3469,"stateCode":"GUA","stateName":"Guanajuato","countryId":142,"countryCode":"MX","countryName":"Mexico","latitude":"20.62776000","longitude":"-100.78570000","wikiDataId":"Q20272402"},{"id":73688,"name":"San Isidro de la Estacada","stateId":3469,"stateCode":"GUA","stateName":"Guanajuato","countryId":142,"countryCode":"MX","countryName":"Mexico","latitude":"21.14746000","longitude":"-100.68473000","wikiDataId":"Q20139538"},{"id":73689,"name":"San Isidro de los Sauces","stateId":3469,"stateCode":"GUA","stateName":"Guanajuato","countryId":142,"countryCode":"MX","countryName":"Mexico","latitude":"21.02103000","longitude":"-101.53724000","wikiDataId":"Q20139538"},{"id":73697,"name":"San Javier","stateId":3469,"stateCode":"GUA","stateName":"Guanajuato","countryId":142,"countryCode":"MX","countryName":"Mexico","latitude":"20.66729000","longitude":"-101.42940000","wikiDataId":"Q1193686"},{"id":73724,"name":"San Jerónimo de Araceo","stateId":3469,"stateCode":"GUA","stateName":"Guanajuato","countryId":142,"countryCode":"MX","countryName":"Mexico","latitude":"20.32507000","longitude":"-101.18195000","wikiDataId":"Q20140755"},{"id":73807,"name":"San José de Agua Azul","stateId":3469,"stateCode":"GUA","stateName":"Guanajuato","countryId":142,"countryCode":"MX","countryName":"Mexico","latitude":"20.48662000","longitude":"-100.65587000","wikiDataId":"Q20272442"},{"id":73809,"name":"San José de Ayala","stateId":3469,"stateCode":"GUA","stateName":"Guanajuato","countryId":142,"countryCode":"MX","countryName":"Mexico","latitude":"20.38709000","longitude":"-101.44143000","wikiDataId":"Q20290911"},{"id":73811,"name":"San José de Bernalejo (El Guayabo)","stateId":3469,"stateCode":"GUA","stateName":"Guanajuato","countryId":142,"countryCode":"MX","countryName":"Mexico","latitude":"20.64000000","longitude":"-101.40139000","wikiDataId":"Q20210141"},{"id":73813,"name":"San José de Cervera","stateId":3469,"stateCode":"GUA","stateName":"Guanajuato","countryId":142,"countryCode":"MX","countryName":"Mexico","latitude":"20.96778000","longitude":"-101.30250000","wikiDataId":"Q20210142"},{"id":73814,"name":"San José de Durán (Los Troncoso)","stateId":3469,"stateCode":"GUA","stateName":"Guanajuato","countryId":142,"countryCode":"MX","countryName":"Mexico","latitude":"21.06306000","longitude":"-101.67417000","wikiDataId":"Q20141489"},{"id":73820,"name":"San José de Guanajuato","stateId":3469,"stateCode":"GUA","stateName":"Guanajuato","countryId":142,"countryCode":"MX","countryName":"Mexico","latitude":"20.55601000","longitude":"-100.89277000","wikiDataId":"Q3850526"},{"id":73831,"name":"San José de la Montaña","stateId":3469,"stateCode":"GUA","stateName":"Guanajuato","countryId":142,"countryCode":"MX","countryName":"Mexico","latitude":"20.60037000","longitude":"-101.07228000","wikiDataId":"Q20141628"},{"id":73833,"name":"San José de las Pilas","stateId":3469,"stateCode":"GUA","stateName":"Guanajuato","countryId":142,"countryCode":"MX","countryName":"Mexico","latitude":"20.65227000","longitude":"-101.04523000","wikiDataId":"Q20141628"},{"id":73822,"name":"San José de Llanos","stateId":3469,"stateCode":"GUA","stateName":"Guanajuato","countryId":142,"countryCode":"MX","countryName":"Mexico","latitude":"20.85568000","longitude":"-101.30897000","wikiDataId":"Q3850526"},{"id":73823,"name":"San José de Mendoza","stateId":3469,"stateCode":"GUA","stateName":"Guanajuato","countryId":142,"countryCode":"MX","countryName":"Mexico","latitude":"20.68965000","longitude":"-101.21353000","wikiDataId":"Q3850526"},{"id":73824,"name":"San José de Rancho Nuevo (Los Arrieros)","stateId":3469,"stateCode":"GUA","stateName":"Guanajuato","countryId":142,"countryCode":"MX","countryName":"Mexico","latitude":"21.59639000","longitude":"-101.00389000","wikiDataId":"Q20210189"},{"id":73835,"name":"San José del Cerrito de Camargo","stateId":3469,"stateCode":"GUA","stateName":"Guanajuato","countryId":142,"countryCode":"MX","countryName":"Mexico","latitude":"20.41917000","longitude":"-101.04222000","wikiDataId":"Q20210201"},{"id":73837,"name":"San José del Potrero","stateId":3469,"stateCode":"GUA","stateName":"Guanajuato","countryId":142,"countryCode":"MX","countryName":"Mexico","latitude":"21.12815000","longitude":"-101.59737000","wikiDataId":"Q20142142"},{"id":73842,"name":"San José del Rodeo","stateId":3469,"stateCode":"GUA","stateName":"Guanajuato","countryId":142,"countryCode":"MX","countryName":"Mexico","latitude":"20.92083000","longitude":"-101.21639000","wikiDataId":"Q20291320"},{"id":73845,"name":"San José del Torreón","stateId":3469,"stateCode":"GUA","stateName":"Guanajuato","countryId":142,"countryCode":"MX","countryName":"Mexico","latitude":"21.47444000","longitude":"-101.47056000","wikiDataId":"Q20291331"},{"id":73850,"name":"San José el Nuevo","stateId":3469,"stateCode":"GUA","stateName":"Guanajuato","countryId":142,"countryCode":"MX","countryName":"Mexico","latitude":"20.44389000","longitude":"-100.77194000","wikiDataId":"Q20210223"},{"id":73769,"name":"San José Iturbide","stateId":3469,"stateCode":"GUA","stateName":"Guanajuato","countryId":142,"countryCode":"MX","countryName":"Mexico","latitude":"21.00153000","longitude":"-100.38416000","wikiDataId":"Q2651304"},{"id":73786,"name":"San José Temascatío","stateId":3469,"stateCode":"GUA","stateName":"Guanajuato","countryId":142,"countryCode":"MX","countryName":"Mexico","latitude":"20.69183000","longitude":"-101.26028000","wikiDataId":"Q20142914"},{"id":73798,"name":"San José Viborillas","stateId":3469,"stateCode":"GUA","stateName":"Guanajuato","countryId":142,"countryCode":"MX","countryName":"Mexico","latitude":"20.56778000","longitude":"-100.63361000","wikiDataId":"Q20142990"},{"id":73871,"name":"San Juan Bautista Cacalote","stateId":3469,"stateCode":"GUA","stateName":"Guanajuato","countryId":142,"countryCode":"MX","countryName":"Mexico","latitude":"20.34806000","longitude":"-100.78833000","wikiDataId":"Q20143475"},{"id":73959,"name":"San Juan de Abajo","stateId":3469,"stateCode":"GUA","stateName":"Guanajuato","countryId":142,"countryCode":"MX","countryName":"Mexico","latitude":"21.05623000","longitude":"-101.63544000","wikiDataId":"Q20264084"},{"id":73966,"name":"San Juan de la Vega","stateId":3469,"stateCode":"GUA","stateName":"Guanajuato","countryId":142,"countryCode":"MX","countryName":"Mexico","latitude":"20.62521000","longitude":"-100.76141000","wikiDataId":"Q7414639"},{"id":73962,"name":"San Juan de Otates","stateId":3469,"stateCode":"GUA","stateName":"Guanajuato","countryId":142,"countryCode":"MX","countryName":"Mexico","latitude":"21.11562000","longitude":"-101.55773000","wikiDataId":"Q3844941"},{"id":73974,"name":"San Juan del Llanito","stateId":3469,"stateCode":"GUA","stateName":"Guanajuato","countryId":142,"countryCode":"MX","countryName":"Mexico","latitude":"20.51369000","longitude":"-100.53980000","wikiDataId":"Q1656559"},{"id":73893,"name":"San Juan Grande","stateId":3469,"stateCode":"GUA","stateName":"Guanajuato","countryId":142,"countryCode":"MX","countryName":"Mexico","latitude":"20.37627000","longitude":"-101.52677000","wikiDataId":"Q20272500"},{"id":73903,"name":"San Juan Jaripeo","stateId":3469,"stateCode":"GUA","stateName":"Guanajuato","countryId":142,"countryCode":"MX","countryName":"Mexico","latitude":"20.00601000","longitude":"-100.76052000","wikiDataId":"Q20240175"},{"id":73914,"name":"San Juan Pan de Arriba","stateId":3469,"stateCode":"GUA","stateName":"Guanajuato","countryId":142,"countryCode":"MX","countryName":"Mexico","latitude":"21.47151000","longitude":"-100.92021000","wikiDataId":"Q3888616"},{"id":73991,"name":"San Lorenzo","stateId":3469,"stateCode":"GUA","stateName":"Guanajuato","countryId":142,"countryCode":"MX","countryName":"Mexico","latitude":"20.46687000","longitude":"-100.71970000","wikiDataId":"Q3890961"},{"id":74023,"name":"San Lucas","stateId":3469,"stateCode":"GUA","stateName":"Guanajuato","countryId":142,"countryCode":"MX","countryName":"Mexico","latitude":"20.29341000","longitude":"-100.55238000","wikiDataId":"Q3294614"},{"id":74060,"name":"San Luis de la Paz","stateId":3469,"stateCode":"GUA","stateName":"Guanajuato","countryId":142,"countryCode":"MX","countryName":"Mexico","latitude":"21.29771000","longitude":"-100.51736000","wikiDataId":"Q20292996"},{"id":74228,"name":"San Miguel de Allende","stateId":3469,"stateCode":"GUA","stateName":"Guanajuato","countryId":142,"countryCode":"MX","countryName":"Mexico","latitude":"20.91528000","longitude":"-100.74389000","wikiDataId":"Q753891"},{"id":74233,"name":"San Miguel del Arenal","stateId":3469,"stateCode":"GUA","stateName":"Guanajuato","countryId":142,"countryCode":"MX","countryName":"Mexico","latitude":"20.99083000","longitude":"-101.48556000","wikiDataId":"Q20210287"},{"id":74176,"name":"San Miguel Eménguaro","stateId":3469,"stateCode":"GUA","stateName":"Guanajuato","countryId":142,"countryCode":"MX","countryName":"Mexico","latitude":"20.16402000","longitude":"-100.88596000","wikiDataId":"Q3890953"},{"id":74191,"name":"San Miguel Octopan","stateId":3469,"stateCode":"GUA","stateName":"Guanajuato","countryId":142,"countryCode":"MX","countryName":"Mexico","latitude":"20.57428000","longitude":"-100.74780000","wikiDataId":"Q20147160"},{"id":74270,"name":"San Nicolás de la Condesa","stateId":3469,"stateCode":"GUA","stateName":"Guanajuato","countryId":142,"countryCode":"MX","countryName":"Mexico","latitude":"20.23259000","longitude":"-100.78108000","wikiDataId":"Q9073655"},{"id":74272,"name":"San Nicolás de los Agustinos","stateId":3469,"stateCode":"GUA","stateName":"Guanajuato","countryId":142,"countryCode":"MX","countryName":"Mexico","latitude":"20.24614000","longitude":"-100.96679000","wikiDataId":"Q20147758"},{"id":74275,"name":"San Nicolás del Cármen","stateId":3469,"stateCode":"GUA","stateName":"Guanajuato","countryId":142,"countryCode":"MX","countryName":"Mexico","latitude":"21.27405000","longitude":"-100.55032000","wikiDataId":"Q549962"},{"id":74258,"name":"San Nicolás Parangueo","stateId":3469,"stateCode":"GUA","stateName":"Guanajuato","countryId":142,"countryCode":"MX","countryName":"Mexico","latitude":"20.39356000","longitude":"-101.25364000","wikiDataId":"Q20147741"},{"id":74263,"name":"San Nicolás Temascatío","stateId":3469,"stateCode":"GUA","stateName":"Guanajuato","countryId":142,"countryCode":"MX","countryName":"Mexico","latitude":"20.72486000","longitude":"-101.24874000","wikiDataId":"Q20147816"},{"id":74298,"name":"San Pablo Pejo","stateId":3469,"stateCode":"GUA","stateName":"Guanajuato","countryId":142,"countryCode":"MX","countryName":"Mexico","latitude":"20.03375000","longitude":"-100.93763000","wikiDataId":"Q284128"},{"id":74404,"name":"San Pedro de Ibarra","stateId":3469,"stateCode":"GUA","stateName":"Guanajuato","countryId":142,"countryCode":"MX","countryName":"Mexico","latitude":"21.48320000","longitude":"-101.54046000","wikiDataId":"Q20240295"},{"id":74409,"name":"San Pedro de los Naranjos","stateId":3469,"stateCode":"GUA","stateName":"Guanajuato","countryId":142,"countryCode":"MX","countryName":"Mexico","latitude":"20.22716000","longitude":"-100.93782000","wikiDataId":"Q20294630"},{"id":74378,"name":"San Pedro Tenango","stateId":3469,"stateCode":"GUA","stateName":"Guanajuato","countryId":142,"countryCode":"MX","countryName":"Mexico","latitude":"20.50769000","longitude":"-100.63247000","wikiDataId":"Q20231859"},{"id":74440,"name":"San Roque","stateId":3469,"stateCode":"GUA","stateName":"Guanajuato","countryId":142,"countryCode":"MX","countryName":"Mexico","latitude":"20.59966000","longitude":"-101.34182000","wikiDataId":"Q4497283"},{"id":74442,"name":"San Roque de Montes","stateId":3469,"stateCode":"GUA","stateName":"Guanajuato","countryId":142,"countryCode":"MX","countryName":"Mexico","latitude":"21.01000000","longitude":"-101.81083000","wikiDataId":"Q20295297"},{"id":74443,"name":"San Roque de Torres","stateId":3469,"stateCode":"GUA","stateName":"Guanajuato","countryId":142,"countryCode":"MX","countryName":"Mexico","latitude":"20.97138000","longitude":"-101.85290000","wikiDataId":"Q20210343"},{"id":74450,"name":"San Salvador Torrecillas","stateId":3469,"stateCode":"GUA","stateName":"Guanajuato","countryId":142,"countryCode":"MX","countryName":"Mexico","latitude":"20.55981000","longitude":"-100.95784000","wikiDataId":"Q20295356"},{"id":74478,"name":"San Sebastián de Salitre","stateId":3469,"stateCode":"GUA","stateName":"Guanajuato","countryId":142,"countryCode":"MX","countryName":"Mexico","latitude":"21.10278000","longitude":"-100.48086000","wikiDataId":"Q20231890"},{"id":74494,"name":"San Vicente","stateId":3469,"stateCode":"GUA","stateName":"Guanajuato","countryId":142,"countryCode":"MX","countryName":"Mexico","latitude":"20.82864000","longitude":"-101.34130000","wikiDataId":"Q20295752"},{"id":74507,"name":"San Vicente de Flores","stateId":3469,"stateCode":"GUA","stateName":"Guanajuato","countryId":142,"countryCode":"MX","countryName":"Mexico","latitude":"20.62172000","longitude":"-101.25296000","wikiDataId":"Q20295627"},{"id":74523,"name":"Santa Ana","stateId":3469,"stateCode":"GUA","stateName":"Guanajuato","countryId":142,"countryCode":"MX","countryName":"Mexico","latitude":"21.05917000","longitude":"-101.67583000","wikiDataId":"Q20296010"},{"id":74544,"name":"Santa Ana Pacueco","stateId":3469,"stateCode":"GUA","stateName":"Guanajuato","countryId":142,"countryCode":"MX","countryName":"Mexico","latitude":"20.34722000","longitude":"-102.01583000","wikiDataId":"Q6120236"},{"id":74558,"name":"Santa Anita","stateId":3469,"stateCode":"GUA","stateName":"Guanajuato","countryId":142,"countryCode":"MX","countryName":"Mexico","latitude":"20.47028000","longitude":"-100.81500000","wikiDataId":"Q20296094"},{"id":74566,"name":"Santa Bárbara","stateId":3469,"stateCode":"GUA","stateName":"Guanajuato","countryId":142,"countryCode":"MX","countryName":"Mexico","latitude":"21.53716000","longitude":"-101.37787000","wikiDataId":"Q49997885"},{"id":74579,"name":"Santa Catarina","stateId":3469,"stateCode":"GUA","stateName":"Guanajuato","countryId":142,"countryCode":"MX","countryName":"Mexico","latitude":"21.15134000","longitude":"-100.06954000","wikiDataId":"Q2991533"},{"id":74599,"name":"Santa Clara","stateId":3469,"stateCode":"GUA","stateName":"Guanajuato","countryId":142,"countryCode":"MX","countryName":"Mexico","latitude":"20.17904000","longitude":"-101.43350000","wikiDataId":"Q7419328"},{"id":74648,"name":"Santa Cruz de Juventino Rosas","stateId":3469,"stateCode":"GUA","stateName":"Guanajuato","countryId":142,"countryCode":"MX","countryName":"Mexico","latitude":"20.63658000","longitude":"-100.97956000","wikiDataId":"Q2447599"},{"id":74659,"name":"Santa Fe de la Purísima","stateId":3469,"stateCode":"GUA","stateName":"Guanajuato","countryId":142,"countryCode":"MX","countryName":"Mexico","latitude":"20.49556000","longitude":"-100.89278000","wikiDataId":"Q20297210"},{"id":74816,"name":"Santa María del Refugio","stateId":3469,"stateCode":"GUA","stateName":"Guanajuato","countryId":142,"countryCode":"MX","countryName":"Mexico","latitude":"20.44030000","longitude":"-100.80032000","wikiDataId":"Q2001105"},{"id":74838,"name":"Santa Rosa","stateId":3469,"stateCode":"GUA","stateName":"Guanajuato","countryId":142,"countryCode":"MX","countryName":"Mexico","latitude":"21.55181000","longitude":"-101.09210000","wikiDataId":"Q20283239"},{"id":74850,"name":"Santa Rosa de Lima","stateId":3469,"stateCode":"GUA","stateName":"Guanajuato","countryId":142,"countryCode":"MX","countryName":"Mexico","latitude":"21.07179000","longitude":"-101.19723000","wikiDataId":"Q20282952"},{"id":74852,"name":"Santa Rosa de Rivas","stateId":3469,"stateCode":"GUA","stateName":"Guanajuato","countryId":142,"countryCode":"MX","countryName":"Mexico","latitude":"20.78112000","longitude":"-101.53632000","wikiDataId":"Q20282983"},{"id":74853,"name":"Santa Rosa los Angeles","stateId":3469,"stateCode":"GUA","stateName":"Guanajuato","countryId":142,"countryCode":"MX","countryName":"Mexico","latitude":"20.56585000","longitude":"-100.92356000","wikiDataId":"Q20282983"},