[{"id":63244,"name":"Ami","stateId":851,"stateCode":"08","stateName":"Ibaraki Prefecture","countryId":109,"countryCode":"JP","countryName":"Japan","latitude":"36.03333000","longitude":"140.20000000","wikiDataId":"Q1203814"},{"id":63281,"name":"Bandō","stateId":851,"stateCode":"08","stateName":"Ibaraki Prefecture","countryId":109,"countryCode":"JP","countryName":"Japan","latitude":"36.06997000","longitude":"139.86705000","wikiDataId":"Q583931"},{"id":63282,"name":"Bandō-shi","stateId":851,"stateCode":"08","stateName":"Ibaraki Prefecture","countryId":109,"countryCode":"JP","countryName":"Japan","latitude":"36.06384000","longitude":"139.88787000","wikiDataId":"Q583931"},{"id":63300,"name":"Chikusei","stateId":851,"stateCode":"08","stateName":"Ibaraki Prefecture","countryId":109,"countryCode":"JP","countryName":"Japan","latitude":"36.31600000","longitude":"139.98238000","wikiDataId":"Q694322"},{"id":63301,"name":"Chikusei-shi","stateId":851,"stateCode":"08","stateName":"Ibaraki Prefecture","countryId":109,"countryCode":"JP","countryName":"Japan","latitude":"36.28938000","longitude":"139.98692000","wikiDataId":"Q694322"},{"id":63317,"name":"Daigo","stateId":851,"stateCode":"08","stateName":"Ibaraki Prefecture","countryId":109,"countryCode":"JP","countryName":"Japan","latitude":"36.76667000","longitude":"140.35000000","wikiDataId":"Q1346817"},{"id":63331,"name":"Edosaki","stateId":851,"stateCode":"08","stateName":"Ibaraki Prefecture","countryId":109,"countryCode":"JP","countryName":"Japan","latitude":"35.95000000","longitude":"140.31667000","wikiDataId":"Q5340204"},{"id":63354,"name":"Fujishiro","stateId":851,"stateCode":"08","stateName":"Ibaraki Prefecture","countryId":109,"countryCode":"JP","countryName":"Japan","latitude":"35.91667000","longitude":"140.11667000","wikiDataId":"Q5507483"},{"id":63376,"name":"Funaishikawa","stateId":851,"stateCode":"08","stateName":"Ibaraki Prefecture","countryId":109,"countryCode":"JP","countryName":"Japan","latitude":"36.46667000","longitude":"140.56667000","wikiDataId":"Q661038"},{"id":63504,"name":"Hitachi","stateId":851,"stateCode":"08","stateName":"Ibaraki Prefecture","countryId":109,"countryCode":"JP","countryName":"Japan","latitude":"36.60000000","longitude":"140.65000000","wikiDataId":"Q386968"},{"id":63505,"name":"Hitachi-Naka","stateId":851,"stateCode":"08","stateName":"Ibaraki Prefecture","countryId":109,"countryCode":"JP","countryName":"Japan","latitude":"36.39659000","longitude":"140.53479000","wikiDataId":"Q386968"},{"id":63506,"name":"Hitachi-ota","stateId":851,"stateCode":"08","stateName":"Ibaraki Prefecture","countryId":109,"countryCode":"JP","countryName":"Japan","latitude":"36.55130000","longitude":"140.52821000","wikiDataId":"Q838663"},{"id":63507,"name":"Hitachi-shi","stateId":851,"stateCode":"08","stateName":"Ibaraki Prefecture","countryId":109,"countryCode":"JP","countryName":"Japan","latitude":"36.62492000","longitude":"140.61876000","wikiDataId":"Q633922"},{"id":63508,"name":"Hitachinaka-shi","stateId":851,"stateCode":"08","stateName":"Ibaraki Prefecture","countryId":109,"countryCode":"JP","countryName":"Japan","latitude":"36.39596000","longitude":"140.55789000","wikiDataId":"Q696772"},{"id":63509,"name":"Hitachiōmiya-shi","stateId":851,"stateCode":"08","stateName":"Ibaraki Prefecture","countryId":109,"countryCode":"JP","countryName":"Japan","latitude":"36.61371000","longitude":"140.33990000","wikiDataId":"Q838681"},{"id":63510,"name":"Hitachiōta-shi","stateId":851,"stateCode":"08","stateName":"Ibaraki Prefecture","countryId":109,"countryCode":"JP","countryName":"Japan","latitude":"36.64836000","longitude":"140.50536000","wikiDataId":"Q838681"},{"id":63515,"name":"Hokota-shi","stateId":851,"stateCode":"08","stateName":"Ibaraki Prefecture","countryId":109,"countryCode":"JP","countryName":"Japan","latitude":"36.17337000","longitude":"140.51993000","wikiDataId":"Q857297"},{"id":63570,"name":"Inashiki","stateId":851,"stateCode":"08","stateName":"Ibaraki Prefecture","countryId":109,"countryCode":"JP","countryName":"Japan","latitude":"35.95633000","longitude":"140.32356000","wikiDataId":"Q838675"},{"id":63571,"name":"Inashiki-shi","stateId":851,"stateCode":"08","stateName":"Ibaraki Prefecture","countryId":109,"countryCode":"JP","countryName":"Japan","latitude":"35.94563000","longitude":"140.36889000","wikiDataId":"Q838675"},{"id":63592,"name":"Ishige","stateId":851,"stateCode":"08","stateName":"Ibaraki Prefecture","countryId":109,"countryCode":"JP","countryName":"Japan","latitude":"36.11667000","longitude":"139.96667000","wikiDataId":"Q11584779"},{"id":63601,"name":"Ishioka","stateId":851,"stateCode":"08","stateName":"Ibaraki Prefecture","countryId":109,"countryCode":"JP","countryName":"Japan","latitude":"36.18333000","longitude":"140.26667000","wikiDataId":"Q819658"},{"id":63602,"name":"Ishioka-shi","stateId":851,"stateCode":"08","stateName":"Ibaraki Prefecture","countryId":109,"countryCode":"JP","countryName":"Japan","latitude":"36.22776000","longitude":"140.21786000","wikiDataId":"Q819658"},{"id":63606,"name":"Itako","stateId":851,"stateCode":"08","stateName":"Ibaraki Prefecture","countryId":109,"countryCode":"JP","countryName":"Japan","latitude":"35.93333000","longitude":"140.55000000","wikiDataId":"Q840598"},{"id":63607,"name":"Itako-shi","stateId":851,"stateCode":"08","stateName":"Ibaraki Prefecture","countryId":109,"countryCode":"JP","countryName":"Japan","latitude":"35.96100000","longitude":"140.56210000","wikiDataId":"Q840598"},{"id":63620,"name":"Iwai","stateId":851,"stateCode":"08","stateName":"Ibaraki Prefecture","countryId":109,"countryCode":"JP","countryName":"Japan","latitude":"36.05000000","longitude":"139.90000000","wikiDataId":"Q579623"},{"id":63631,"name":"Iwase","stateId":851,"stateCode":"08","stateName":"Ibaraki Prefecture","countryId":109,"countryCode":"JP","countryName":"Japan","latitude":"36.35000000","longitude":"140.10000000","wikiDataId":"Q11475420"},{"id":63653,"name":"Jōsō-shi","stateId":851,"stateCode":"08","stateName":"Ibaraki Prefecture","countryId":109,"countryCode":"JP","countryName":"Japan","latitude":"36.06409000","longitude":"139.96397000","wikiDataId":"Q582289"},{"id":63698,"name":"Kamisu-shi","stateId":851,"stateCode":"08","stateName":"Ibaraki Prefecture","countryId":109,"countryCode":"JP","countryName":"Japan","latitude":"35.85126000","longitude":"140.71171000","wikiDataId":"Q840595"},{"id":63727,"name":"Kasama","stateId":851,"stateCode":"08","stateName":"Ibaraki Prefecture","countryId":109,"countryCode":"JP","countryName":"Japan","latitude":"36.38333000","longitude":"140.26667000","wikiDataId":"Q851155"},{"id":63728,"name":"Kasama-shi","stateId":851,"stateCode":"08","stateName":"Ibaraki Prefecture","countryId":109,"countryCode":"JP","countryName":"Japan","latitude":"36.35651000","longitude":"140.26935000","wikiDataId":"Q845851"},{"id":63738,"name":"Kashima-shi","stateId":851,"stateCode":"08","stateName":"Ibaraki Prefecture","countryId":109,"countryCode":"JP","countryName":"Japan","latitude":"35.96536000","longitude":"140.64474000","wikiDataId":"Q467471"},{"id":63749,"name":"Kasumigaura","stateId":851,"stateCode":"08","stateName":"Ibaraki Prefecture","countryId":109,"countryCode":"JP","countryName":"Japan","latitude":"36.15326000","longitude":"140.24635000","wikiDataId":"Q772817"},{"id":63750,"name":"Kasumigaura-shi","stateId":851,"stateCode":"08","stateName":"Ibaraki Prefecture","countryId":109,"countryCode":"JP","countryName":"Japan","latitude":"36.10937000","longitude":"140.30205000","wikiDataId":"Q772817"},{"id":63759,"name":"Katsuta","stateId":851,"stateCode":"08","stateName":"Ibaraki Prefecture","countryId":109,"countryCode":"JP","countryName":"Japan","latitude":"36.38333000","longitude":"140.53333000","wikiDataId":"Q232628"},{"id":63802,"name":"Kitaibaraki","stateId":851,"stateCode":"08","stateName":"Ibaraki Prefecture","countryId":109,"countryCode":"JP","countryName":"Japan","latitude":"36.78671000","longitude":"140.74901000","wikiDataId":"Q817278"},{"id":63803,"name":"Kitaibaraki-shi","stateId":851,"stateCode":"08","stateName":"Ibaraki Prefecture","countryId":109,"countryCode":"JP","countryName":"Japan","latitude":"36.83987000","longitude":"140.68736000","wikiDataId":"Q838654"},{"id":63824,"name":"Koga","stateId":851,"stateCode":"08","stateName":"Ibaraki Prefecture","countryId":109,"countryCode":"JP","countryName":"Japan","latitude":"36.18333000","longitude":"139.71667000","wikiDataId":"Q213278"},{"id":63826,"name":"Koga-shi","stateId":851,"stateCode":"08","stateName":"Ibaraki Prefecture","countryId":109,"countryCode":"JP","countryName":"Japan","latitude":"36.17975000","longitude":"139.77534000","wikiDataId":"Q836836"},{"id":63914,"name":"Makabe","stateId":851,"stateCode":"08","stateName":"Ibaraki Prefecture","countryId":109,"countryCode":"JP","countryName":"Japan","latitude":"36.26667000","longitude":"140.10000000","wikiDataId":"Q431159"},{"id":63990,"name":"Mito","stateId":851,"stateCode":"08","stateName":"Ibaraki Prefecture","countryId":109,"countryCode":"JP","countryName":"Japan","latitude":"36.35000000","longitude":"140.45000000","wikiDataId":"Q242885"},{"id":63991,"name":"Mito-shi","stateId":851,"stateCode":"08","stateName":"Ibaraki Prefecture","countryId":109,"countryCode":"JP","countryName":"Japan","latitude":"36.37053000","longitude":"140.43559000","wikiDataId":"Q204249"},{"id":63993,"name":"Mitsukaidō","stateId":851,"stateCode":"08","stateName":"Ibaraki Prefecture","countryId":109,"countryCode":"JP","countryName":"Japan","latitude":"36.01667000","longitude":"139.98333000","wikiDataId":"Q35730791"},{"id":64032,"name":"Moriya","stateId":851,"stateCode":"08","stateName":"Ibaraki Prefecture","countryId":109,"countryCode":"JP","countryName":"Japan","latitude":"35.93333000","longitude":"140.00000000","wikiDataId":"Q840608"},{"id":64033,"name":"Moriya-shi","stateId":851,"stateCode":"08","stateName":"Ibaraki Prefecture","countryId":109,"countryCode":"JP","countryName":"Japan","latitude":"35.95140000","longitude":"139.97539000","wikiDataId":"Q840608"},{"id":64081,"name":"Naka","stateId":851,"stateCode":"08","stateName":"Ibaraki Prefecture","countryId":109,"countryCode":"JP","countryName":"Japan","latitude":"36.05000000","longitude":"140.16667000","wikiDataId":"Q181966"},{"id":64082,"name":"Naka-gun","stateId":851,"stateCode":"08","stateName":"Ibaraki Prefecture","countryId":109,"countryCode":"JP","countryName":"Japan","latitude":"36.46934000","longitude":"140.47943000","wikiDataId":"Q633647"},{"id":64093,"name":"Namegata","stateId":851,"stateCode":"08","stateName":"Ibaraki Prefecture","countryId":109,"countryCode":"JP","countryName":"Japan","latitude":"36.00705000","longitude":"140.49623000","wikiDataId":"Q877184"},{"id":64094,"name":"Namegata-shi","stateId":851,"stateCode":"08","stateName":"Ibaraki Prefecture","countryId":109,"countryCode":"JP","countryName":"Japan","latitude":"36.06526000","longitude":"140.47173000","wikiDataId":"Q877184"},{"id":64714,"name":"Ōarai","stateId":851,"stateCode":"08","stateName":"Ibaraki Prefecture","countryId":109,"countryCode":"JP","countryName":"Japan","latitude":"36.31409000","longitude":"140.58389000","wikiDataId":"Q1203251"},{"id":64202,"name":"Okunoya","stateId":851,"stateCode":"08","stateName":"Ibaraki Prefecture","countryId":109,"countryCode":"JP","countryName":"Japan","latitude":"36.28333000","longitude":"140.41667000","wikiDataId":"Q328615"},{"id":64205,"name":"Omitama-shi","stateId":851,"stateCode":"08","stateName":"Ibaraki Prefecture","countryId":109,"countryCode":"JP","countryName":"Japan","latitude":"36.20403000","longitude":"140.35980000","wikiDataId":"Q430584"},{"id":64742,"name":"Ōmiya","stateId":851,"stateCode":"08","stateName":"Ibaraki Prefecture","countryId":109,"countryCode":"JP","countryName":"Japan","latitude":"36.55000000","longitude":"140.41667000","wikiDataId":"Q385461"},{"id":64233,"name":"Ryūgasaki","stateId":851,"stateCode":"08","stateName":"Ibaraki Prefecture","countryId":109,"countryCode":"JP","countryName":"Japan","latitude":"35.90000000","longitude":"140.18333000","wikiDataId":"Q844138"},{"id":64234,"name":"Ryūgasaki-shi","stateId":851,"stateCode":"08","stateName":"Ibaraki Prefecture","countryId":109,"countryCode":"JP","countryName":"Japan","latitude":"35.92249000","longitude":"140.18527000","wikiDataId":"Q844138"},{"id":64255,"name":"Sakai","stateId":851,"stateCode":"08","stateName":"Ibaraki Prefecture","countryId":109,"countryCode":"JP","countryName":"Japan","latitude":"36.10000000","longitude":"139.80000000","wikiDataId":"Q850344"},{"id":64271,"name":"Sakuragawa","stateId":851,"stateCode":"08","stateName":"Ibaraki Prefecture","countryId":109,"countryCode":"JP","countryName":"Japan","latitude":"36.25052000","longitude":"140.11565000","wikiDataId":"Q990350"},{"id":64272,"name":"Sakuragawa-shi","stateId":851,"stateCode":"08","stateName":"Ibaraki Prefecture","countryId":109,"countryCode":"JP","countryName":"Japan","latitude":"36.32746000","longitude":"140.10792000","wikiDataId":"Q990350"},{"id":64332,"name":"Shimodate","stateId":851,"stateCode":"08","stateName":"Ibaraki Prefecture","countryId":109,"countryCode":"JP","countryName":"Japan","latitude":"36.30000000","longitude":"139.98333000","wikiDataId":"Q653402"},{"id":64337,"name":"Shimotsuma-shi","stateId":851,"stateCode":"08","stateName":"Ibaraki Prefecture","countryId":109,"countryCode":"JP","countryName":"Japan","latitude":"36.18743000","longitude":"139.96642000","wikiDataId":"Q533241"},{"id":64419,"name":"Takahagi","stateId":851,"stateCode":"08","stateName":"Ibaraki Prefecture","countryId":109,"countryCode":"JP","countryName":"Japan","latitude":"36.71667000","longitude":"140.71667000","wikiDataId":"Q520428"},{"id":64510,"name":"Tomobe","stateId":851,"stateCode":"08","stateName":"Ibaraki Prefecture","countryId":109,"countryCode":"JP","countryName":"Japan","latitude":"36.35000000","longitude":"140.30000000","wikiDataId":"Q1205173"},{"id":64515,"name":"Toride","stateId":851,"stateCode":"08","stateName":"Ibaraki Prefecture","countryId":109,"countryCode":"JP","countryName":"Japan","latitude":"35.90000000","longitude":"140.08333000","wikiDataId":"Q1349486"},{"id":64516,"name":"Toride-shi","stateId":851,"stateCode":"08","stateName":"Ibaraki Prefecture","countryId":109,"countryCode":"JP","countryName":"Japan","latitude":"35.91286000","longitude":"140.08009000","wikiDataId":"Q638312"},{"id":64540,"name":"Tsuchiura-shi","stateId":851,"stateCode":"08","stateName":"Ibaraki Prefecture","countryId":109,"countryCode":"JP","countryName":"Japan","latitude":"36.08333000","longitude":"140.20000000","wikiDataId":"Q653446"},{"id":64545,"name":"Tsukuba","stateId":851,"stateCode":"08","stateName":"Ibaraki Prefecture","countryId":109,"countryCode":"JP","countryName":"Japan","latitude":"36.20000000","longitude":"140.10000000","wikiDataId":"Q372517"},{"id":64546,"name":"Tsukuba-shi","stateId":851,"stateCode":"08","stateName":"Ibaraki Prefecture","countryId":109,"countryCode":"JP","countryName":"Japan","latitude":"36.10532000","longitude":"140.08174000","wikiDataId":"Q273863"},{"id":64547,"name":"Tsukubamirai","stateId":851,"stateCode":"08","stateName":"Ibaraki Prefecture","countryId":109,"countryCode":"JP","countryName":"Japan","latitude":"35.98411000","longitude":"140.00929000","wikiDataId":"Q877254"},{"id":64548,"name":"Tsukubamirai-shi","stateId":851,"stateCode":"08","stateName":"Ibaraki Prefecture","countryId":109,"countryCode":"JP","countryName":"Japan","latitude":"35.98201000","longitude":"140.03812000","wikiDataId":"Q877254"},{"id":64603,"name":"Ushiku","stateId":851,"stateCode":"08","stateName":"Ibaraki Prefecture","countryId":109,"countryCode":"JP","countryName":"Japan","latitude":"35.96667000","longitude":"140.13333000","wikiDataId":"Q844133"},{"id":64604,"name":"Ushiku-shi","stateId":851,"stateCode":"08","stateName":"Ibaraki Prefecture","countryId":109,"countryCode":"JP","countryName":"Japan","latitude":"35.97175000","longitude":"140.18578000","wikiDataId":"Q844133"},{"id":64706,"name":"Yūki","stateId":851,"stateCode":"08","stateName":"Ibaraki Prefecture","countryId":109,"countryCode":"JP","countryName":"Japan","latitude":"36.30000000","longitude":"139.88333000","wikiDataId":"Q637145"},{"id":64707,"name":"Yūki-shi","stateId":851,"stateCode":"08","stateName":"Ibaraki Prefecture","countryId":109,"countryCode":"JP","countryName":"Japan","latitude":"36.26127000","longitude":"139.86403000","wikiDataId":"Q847569"}]