[{"id":105829,"name":"Afanas’yeva","stateId":1912,"stateCode":"UA-40","stateName":"Sevastopol","countryId":230,"countryCode":"UA","countryName":"Ukraine","latitude":"54.63958000","longitude":"100.61755000","wikiDataId":"Q16015247"},{"id":105830,"name":"Alarskiy Rayon","stateId":1912,"stateCode":"UA-40","stateName":"Sevastopol","countryId":230,"countryCode":"UA","countryName":"Ukraine","latitude":"53.33333000","longitude":"103.00000000","wikiDataId":"Q940996"},{"id":105831,"name":"Alekseyevskaya","stateId":1912,"stateCode":"UA-40","stateName":"Sevastopol","countryId":230,"countryCode":"UA","countryName":"Ukraine","latitude":"57.85000000","longitude":"108.40000000","wikiDataId":"Q940996"},{"id":105832,"name":"Algatuy","stateId":1912,"stateCode":"UA-40","stateName":"Sevastopol","countryId":230,"countryCode":"UA","countryName":"Ukraine","latitude":"54.40090000","longitude":"100.25500000","wikiDataId":"Q31878637"},{"id":105833,"name":"Alzamay","stateId":1912,"stateCode":"UA-40","stateName":"Sevastopol","countryId":230,"countryCode":"UA","countryName":"Ukraine","latitude":"55.55620000","longitude":"98.66440000","wikiDataId":"Q103466"},{"id":105834,"name":"Andreyevka","stateId":1912,"stateCode":"UA-40","stateName":"Sevastopol","countryId":230,"countryCode":"UA","countryName":"Ukraine","latitude":"44.81663000","longitude":"33.56313000","wikiDataId":"Q103466"},{"id":105835,"name":"Angarsk","stateId":1912,"stateCode":"UA-40","stateName":"Sevastopol","countryId":230,"countryCode":"UA","countryName":"Ukraine","latitude":"52.53667000","longitude":"103.88639000","wikiDataId":"Q103565"},{"id":105836,"name":"Angarskiy Rayon","stateId":1912,"stateCode":"UA-40","stateName":"Sevastopol","countryId":230,"countryCode":"UA","countryName":"Ukraine","latitude":"52.33333000","longitude":"103.66667000","wikiDataId":"Q1634174"},{"id":105837,"name":"Atagay","stateId":1912,"stateCode":"UA-40","stateName":"Sevastopol","countryId":230,"countryCode":"UA","countryName":"Ukraine","latitude":"55.10330000","longitude":"99.38750000","wikiDataId":"Q3627750"},{"id":105838,"name":"Badar","stateId":1912,"stateCode":"UA-40","stateName":"Sevastopol","countryId":230,"countryCode":"UA","countryName":"Ukraine","latitude":"54.39948000","longitude":"100.59436000","wikiDataId":"Q31896722"},{"id":105839,"name":"Baklashi","stateId":1912,"stateCode":"UA-40","stateName":"Sevastopol","countryId":230,"countryCode":"UA","countryName":"Ukraine","latitude":"52.22556000","longitude":"104.04861000","wikiDataId":"Q31899721"},{"id":105840,"name":"Balagansk","stateId":1912,"stateCode":"UA-40","stateName":"Sevastopol","countryId":230,"countryCode":"UA","countryName":"Ukraine","latitude":"54.00570000","longitude":"103.05234000","wikiDataId":"Q3633196"},{"id":105841,"name":"Balaganskiy Rayon","stateId":1912,"stateCode":"UA-40","stateName":"Sevastopol","countryId":230,"countryCode":"UA","countryName":"Ukraine","latitude":"54.66667000","longitude":"102.83333000","wikiDataId":"Q1650957"},{"id":105842,"name":"Balakhninskiy","stateId":1912,"stateCode":"UA-40","stateName":"Sevastopol","countryId":230,"countryCode":"UA","countryName":"Ukraine","latitude":"58.01056000","longitude":"114.27694000","wikiDataId":"Q3633187"},{"id":105843,"name":"Balaklava","stateId":1912,"stateCode":"UA-40","stateName":"Sevastopol","countryId":230,"countryCode":"UA","countryName":"Ukraine","latitude":"44.51118000","longitude":"33.59942000","wikiDataId":"Q748363"},{"id":105844,"name":"Balaklava District","stateId":1912,"stateCode":"UA-40","stateName":"Sevastopol","countryId":230,"countryCode":"UA","countryName":"Ukraine","latitude":"44.50581000","longitude":"33.67035000","wikiDataId":"Q2036976"},{"id":105845,"name":"Bayanday","stateId":1912,"stateCode":"UA-40","stateName":"Sevastopol","countryId":230,"countryCode":"UA","countryName":"Ukraine","latitude":"53.06611000","longitude":"105.51389000","wikiDataId":"Q4080348"},{"id":105846,"name":"Bayandayevskiy Rayon","stateId":1912,"stateCode":"UA-40","stateName":"Sevastopol","countryId":230,"countryCode":"UA","countryName":"Ukraine","latitude":"53.08333000","longitude":"105.58333000","wikiDataId":"Q1651119"},{"id":105847,"name":"Baykal’sk","stateId":1912,"stateCode":"UA-40","stateName":"Sevastopol","countryId":230,"countryCode":"UA","countryName":"Ukraine","latitude":"51.51510000","longitude":"104.14020000","wikiDataId":"Q104367"},{"id":105848,"name":"Bereznyaki","stateId":1912,"stateCode":"UA-40","stateName":"Sevastopol","countryId":230,"countryCode":"UA","countryName":"Ukraine","latitude":"56.93660000","longitude":"103.58510000","wikiDataId":"Q104367"},{"id":105849,"name":"Biryusinsk","stateId":1912,"stateCode":"UA-40","stateName":"Sevastopol","countryId":230,"countryCode":"UA","countryName":"Ukraine","latitude":"55.96340000","longitude":"97.82350000","wikiDataId":"Q105141"},{"id":105850,"name":"Bodaybo","stateId":1912,"stateCode":"UA-40","stateName":"Sevastopol","countryId":230,"countryCode":"UA","countryName":"Ukraine","latitude":"57.85056000","longitude":"114.19333000","wikiDataId":"Q105272"},{"id":105851,"name":"Bokhan","stateId":1912,"stateCode":"UA-40","stateName":"Sevastopol","countryId":230,"countryCode":"UA","countryName":"Ukraine","latitude":"53.15300000","longitude":"103.77140000","wikiDataId":"Q31918182"},{"id":105852,"name":"Bokhanskiy Rayon","stateId":1912,"stateCode":"UA-40","stateName":"Sevastopol","countryId":230,"countryCode":"UA","countryName":"Ukraine","latitude":"53.16667000","longitude":"104.00000000","wikiDataId":"Q1651077"},{"id":105853,"name":"Bol’shaya Rechka","stateId":1912,"stateCode":"UA-40","stateName":"Sevastopol","countryId":230,"countryCode":"UA","countryName":"Ukraine","latitude":"51.95360000","longitude":"104.73350000","wikiDataId":"Q31918267"},{"id":105854,"name":"Bratsk","stateId":1912,"stateCode":"UA-40","stateName":"Sevastopol","countryId":230,"countryCode":"UA","countryName":"Ukraine","latitude":"56.13250000","longitude":"101.61417000","wikiDataId":"Q132732"},{"id":105855,"name":"Bratskiy Rayon","stateId":1912,"stateCode":"UA-40","stateName":"Sevastopol","countryId":230,"countryCode":"UA","countryName":"Ukraine","latitude":"56.00000000","longitude":"102.00000000","wikiDataId":"Q1651389"},{"id":105856,"name":"Budagovo","stateId":1912,"stateCode":"UA-40","stateName":"Sevastopol","countryId":230,"countryCode":"UA","countryName":"Ukraine","latitude":"54.62550000","longitude":"100.13109000","wikiDataId":"Q34787655"},{"id":105857,"name":"Cheremkhovo","stateId":1912,"stateCode":"UA-40","stateName":"Sevastopol","countryId":230,"countryCode":"UA","countryName":"Ukraine","latitude":"53.15611000","longitude":"103.06750000","wikiDataId":"Q197942"},{"id":105858,"name":"Cheremkhovskiy Rayon","stateId":1912,"stateCode":"UA-40","stateName":"Sevastopol","countryId":230,"countryCode":"UA","countryName":"Ukraine","latitude":"52.66667000","longitude":"102.33333000","wikiDataId":"Q1651996"},{"id":105859,"name":"Chunskiy","stateId":1912,"stateCode":"UA-40","stateName":"Sevastopol","countryId":230,"countryCode":"UA","countryName":"Ukraine","latitude":"56.08150000","longitude":"99.63420000","wikiDataId":"Q34794105"},{"id":105860,"name":"Dzerzhinsk","stateId":1912,"stateCode":"UA-40","stateName":"Sevastopol","countryId":230,"countryCode":"UA","countryName":"Ukraine","latitude":"52.28028000","longitude":"104.38694000","wikiDataId":"Q37784337"},{"id":105861,"name":"Ekhirit-Bulagatskiy Rayon","stateId":1912,"stateCode":"UA-40","stateName":"Sevastopol","countryId":230,"countryCode":"UA","countryName":"Ukraine","latitude":"53.00000000","longitude":"104.83333000","wikiDataId":"Q1651989"},{"id":105862,"name":"Frontovoye","stateId":1912,"stateCode":"UA-40","stateName":"Sevastopol","countryId":230,"countryCode":"UA","countryName":"Ukraine","latitude":"44.66737000","longitude":"33.73841000","wikiDataId":"Q1651989"},{"id":105863,"name":"Gadaley","stateId":1912,"stateCode":"UA-40","stateName":"Sevastopol","countryId":230,"countryCode":"UA","countryName":"Ukraine","latitude":"54.40318000","longitude":"100.74093000","wikiDataId":"Q37785350"},{"id":105864,"name":"Guran","stateId":1912,"stateCode":"UA-40","stateName":"Sevastopol","countryId":230,"countryCode":"UA","countryName":"Ukraine","latitude":"54.76127000","longitude":"100.64399000","wikiDataId":"Q37806750"},{"id":105865,"name":"Haharinskyi District","stateId":1912,"stateCode":"UA-40","stateName":"Sevastopol","countryId":230,"countryCode":"UA","countryName":"Ukraine","latitude":"44.59217000","longitude":"33.43925000","wikiDataId":"Q2636420"},{"id":105866,"name":"Ikey","stateId":1912,"stateCode":"UA-40","stateName":"Sevastopol","countryId":230,"countryCode":"UA","countryName":"Ukraine","latitude":"54.19194000","longitude":"100.08111000","wikiDataId":"Q37807338"},{"id":105867,"name":"Ilir","stateId":1912,"stateCode":"UA-40","stateName":"Sevastopol","countryId":230,"countryCode":"UA","countryName":"Ukraine","latitude":"55.22473000","longitude":"100.68498000","wikiDataId":"Q16016792"},{"id":105868,"name":"Inkerman","stateId":1912,"stateCode":"UA-40","stateName":"Sevastopol","countryId":230,"countryCode":"UA","countryName":"Ukraine","latitude":"44.61391000","longitude":"33.60980000","wikiDataId":"Q752183"},{"id":105869,"name":"Irkutsk","stateId":1912,"stateCode":"UA-40","stateName":"Sevastopol","countryId":230,"countryCode":"UA","countryName":"Ukraine","latitude":"52.29778000","longitude":"104.29639000","wikiDataId":"Q6576"},{"id":105870,"name":"Irkutskiy Rayon","stateId":1912,"stateCode":"UA-40","stateName":"Sevastopol","countryId":230,"countryCode":"UA","countryName":"Ukraine","latitude":"52.33333000","longitude":"104.66667000","wikiDataId":"Q1653084"},{"id":105871,"name":"Kacha","stateId":1912,"stateCode":"UA-40","stateName":"Sevastopol","countryId":230,"countryCode":"UA","countryName":"Ukraine","latitude":"44.77635000","longitude":"33.54387000","wikiDataId":"Q2626746"},{"id":105872,"name":"Kachug","stateId":1912,"stateCode":"UA-40","stateName":"Sevastopol","countryId":230,"countryCode":"UA","countryName":"Ukraine","latitude":"53.96056000","longitude":"105.88167000","wikiDataId":"Q37816918"},{"id":105873,"name":"Kachugskiy Rayon","stateId":1912,"stateCode":"UA-40","stateName":"Sevastopol","countryId":230,"countryCode":"UA","countryName":"Ukraine","latitude":"54.00000000","longitude":"106.50000000","wikiDataId":"Q1652525"},{"id":105874,"name":"Katangskiy Rayon","stateId":1912,"stateCode":"UA-40","stateName":"Sevastopol","countryId":230,"countryCode":"UA","countryName":"Ukraine","latitude":"61.00000000","longitude":"108.00000000","wikiDataId":"Q1652525"},{"id":105875,"name":"Kazachinsko-Lenskiy Rayon","stateId":1912,"stateCode":"UA-40","stateName":"Sevastopol","countryId":230,"countryCode":"UA","countryName":"Ukraine","latitude":"56.00000000","longitude":"108.00000000","wikiDataId":"Q1652525"},{"id":105876,"name":"Kazachinskoye","stateId":1912,"stateCode":"UA-40","stateName":"Sevastopol","countryId":230,"countryCode":"UA","countryName":"Ukraine","latitude":"56.26974000","longitude":"107.57624000","wikiDataId":"Q37824794"},{"id":105877,"name":"Khomutovo","stateId":1912,"stateCode":"UA-40","stateName":"Sevastopol","countryId":230,"countryCode":"UA","countryName":"Ukraine","latitude":"52.46583000","longitude":"104.40250000","wikiDataId":"Q35695449"},{"id":105878,"name":"Khrebtovaya","stateId":1912,"stateCode":"UA-40","stateName":"Sevastopol","countryId":230,"countryCode":"UA","countryName":"Ukraine","latitude":"56.70320000","longitude":"104.24940000","wikiDataId":"Q35695546"},{"id":105879,"name":"Khudoyelanskoye","stateId":1912,"stateCode":"UA-40","stateName":"Sevastopol","countryId":230,"countryCode":"UA","countryName":"Ukraine","latitude":"54.70375000","longitude":"99.63042000","wikiDataId":"Q35695581"},{"id":105880,"name":"Khuzhir","stateId":1912,"stateCode":"UA-40","stateName":"Sevastopol","countryId":230,"countryCode":"UA","countryName":"Ukraine","latitude":"53.19389000","longitude":"107.33972000","wikiDataId":"Q2012246"},{"id":105881,"name":"Kimil’tey","stateId":1912,"stateCode":"UA-40","stateName":"Sevastopol","countryId":230,"countryCode":"UA","countryName":"Ukraine","latitude":"54.13370000","longitude":"101.98110000","wikiDataId":"Q35696339"},{"id":105882,"name":"Kirensk","stateId":1912,"stateCode":"UA-40","stateName":"Sevastopol","countryId":230,"countryCode":"UA","countryName":"Ukraine","latitude":"57.78528000","longitude":"108.11194000","wikiDataId":"Q153412"},{"id":105883,"name":"Kirenskiy Rayon","stateId":1912,"stateCode":"UA-40","stateName":"Sevastopol","countryId":230,"countryCode":"UA","countryName":"Ukraine","latitude":"58.00000000","longitude":"109.25000000","wikiDataId":"Q1653013"},{"id":105884,"name":"Kitoy","stateId":1912,"stateCode":"UA-40","stateName":"Sevastopol","countryId":230,"countryCode":"UA","countryName":"Ukraine","latitude":"52.60000000","longitude":"103.90000000","wikiDataId":"Q35696821"},{"id":105885,"name":"Kotik","stateId":1912,"stateCode":"UA-40","stateName":"Sevastopol","countryId":230,"countryCode":"UA","countryName":"Ukraine","latitude":"54.65057000","longitude":"100.45395000","wikiDataId":"Q35700759"},{"id":105886,"name":"Kropotkin","stateId":1912,"stateCode":"UA-40","stateName":"Sevastopol","countryId":230,"countryCode":"UA","countryName":"Ukraine","latitude":"58.50944000","longitude":"115.32167000","wikiDataId":"Q35703078"},{"id":105887,"name":"Kultuk","stateId":1912,"stateCode":"UA-40","stateName":"Sevastopol","countryId":230,"countryCode":"UA","countryName":"Ukraine","latitude":"51.72083000","longitude":"103.69556000","wikiDataId":"Q35705096"},{"id":105888,"name":"Kutulik","stateId":1912,"stateCode":"UA-40","stateName":"Sevastopol","countryId":230,"countryCode":"UA","countryName":"Ukraine","latitude":"53.35080000","longitude":"102.78389000","wikiDataId":"Q35705811"},{"id":105889,"name":"Kuytun","stateId":1912,"stateCode":"UA-40","stateName":"Sevastopol","countryId":230,"countryCode":"UA","countryName":"Ukraine","latitude":"54.34241000","longitude":"101.50917000","wikiDataId":"Q35705853"},{"id":105890,"name":"Kuytunskiy Rayon","stateId":1912,"stateCode":"UA-40","stateName":"Sevastopol","countryId":230,"countryCode":"UA","countryName":"Ukraine","latitude":"54.50000000","longitude":"101.66667000","wikiDataId":"Q1652798"},{"id":105891,"name":"Kvitok","stateId":1912,"stateCode":"UA-40","stateName":"Sevastopol","countryId":230,"countryCode":"UA","countryName":"Ukraine","latitude":"56.07240000","longitude":"98.48130000","wikiDataId":"Q35706182"},{"id":105892,"name":"Lenin District","stateId":1912,"stateCode":"UA-40","stateName":"Sevastopol","countryId":230,"countryCode":"UA","countryName":"Ukraine","latitude":"44.60000000","longitude":"33.53333000","wikiDataId":"Q35706182"},{"id":105893,"name":"Lesogorsk","stateId":1912,"stateCode":"UA-40","stateName":"Sevastopol","countryId":230,"countryCode":"UA","countryName":"Ukraine","latitude":"56.04580000","longitude":"99.51360000","wikiDataId":"Q35715873"},{"id":105894,"name":"Listvyanka","stateId":1912,"stateCode":"UA-40","stateName":"Sevastopol","countryId":230,"countryCode":"UA","countryName":"Ukraine","latitude":"51.85350000","longitude":"104.86930000","wikiDataId":"Q35718194"},{"id":105895,"name":"Magistral’nyy","stateId":1912,"stateCode":"UA-40","stateName":"Sevastopol","countryId":230,"countryCode":"UA","countryName":"Ukraine","latitude":"56.17148000","longitude":"107.44166000","wikiDataId":"Q1884191"},{"id":105896,"name":"Mama","stateId":1912,"stateCode":"UA-40","stateName":"Sevastopol","countryId":230,"countryCode":"UA","countryName":"Ukraine","latitude":"58.31056000","longitude":"112.89861000","wikiDataId":"Q2706037"},{"id":105897,"name":"Mamakan","stateId":1912,"stateCode":"UA-40","stateName":"Sevastopol","countryId":230,"countryCode":"UA","countryName":"Ukraine","latitude":"57.81611000","longitude":"114.00278000","wikiDataId":"Q35723763"},{"id":105898,"name":"Mamsko-Chuyskiy Rayon","stateId":1912,"stateCode":"UA-40","stateName":"Sevastopol","countryId":230,"countryCode":"UA","countryName":"Ukraine","latitude":"58.00000000","longitude":"112.50000000","wikiDataId":"Q1653076"},{"id":105899,"name":"Manzurka","stateId":1912,"stateCode":"UA-40","stateName":"Sevastopol","countryId":230,"countryCode":"UA","countryName":"Ukraine","latitude":"53.48556000","longitude":"106.05444000","wikiDataId":"Q35724176"},{"id":105900,"name":"Markova","stateId":1912,"stateCode":"UA-40","stateName":"Sevastopol","countryId":230,"countryCode":"UA","countryName":"Ukraine","latitude":"52.20889000","longitude":"104.21083000","wikiDataId":"Q35725037"},{"id":105901,"name":"Markovo","stateId":1912,"stateCode":"UA-40","stateName":"Sevastopol","countryId":230,"countryCode":"UA","countryName":"Ukraine","latitude":"57.32056000","longitude":"107.08806000","wikiDataId":"Q35725061"},{"id":105902,"name":"Meget","stateId":1912,"stateCode":"UA-40","stateName":"Sevastopol","countryId":230,"countryCode":"UA","countryName":"Ukraine","latitude":"52.41500000","longitude":"104.04944000","wikiDataId":"Q3853955"},{"id":105903,"name":"Mishelevka","stateId":1912,"stateCode":"UA-40","stateName":"Sevastopol","countryId":230,"countryCode":"UA","countryName":"Ukraine","latitude":"52.85750000","longitude":"103.17194000","wikiDataId":"Q35730649"},{"id":105904,"name":"Mugun","stateId":1912,"stateCode":"UA-40","stateName":"Sevastopol","countryId":230,"countryCode":"UA","countryName":"Ukraine","latitude":"54.47143000","longitude":"100.24831000","wikiDataId":"Q16017061"},{"id":105905,"name":"Nakhimovskiy rayon","stateId":1912,"stateCode":"UA-40","stateName":"Sevastopol","countryId":230,"countryCode":"UA","countryName":"Ukraine","latitude":"44.69502000","longitude":"33.58092000","wikiDataId":"Q2036985"},{"id":105906,"name":"Nizhneilimskiy Rayon","stateId":1912,"stateCode":"UA-40","stateName":"Sevastopol","countryId":230,"countryCode":"UA","countryName":"Ukraine","latitude":"57.00000000","longitude":"103.50000000","wikiDataId":"Q1653255"},{"id":105907,"name":"Nizhneudinsk","stateId":1912,"stateCode":"UA-40","stateName":"Sevastopol","countryId":230,"countryCode":"UA","countryName":"Ukraine","latitude":"54.90760000","longitude":"99.02760000","wikiDataId":"Q172671"},{"id":105908,"name":"Nizhneudinskiy Rayon","stateId":1912,"stateCode":"UA-40","stateName":"Sevastopol","countryId":230,"countryCode":"UA","countryName":"Ukraine","latitude":"54.33333000","longitude":"98.50000000","wikiDataId":"Q2217289"},{"id":105909,"name":"Novaya Igirma","stateId":1912,"stateCode":"UA-40","stateName":"Sevastopol","countryId":230,"countryCode":"UA","countryName":"Ukraine","latitude":"57.13340000","longitude":"103.91120000","wikiDataId":"Q37898125"},{"id":105910,"name":"Novobiryusinskiy","stateId":1912,"stateCode":"UA-40","stateName":"Sevastopol","countryId":230,"countryCode":"UA","countryName":"Ukraine","latitude":"56.95780000","longitude":"97.70760000","wikiDataId":"Q37898328"},{"id":105911,"name":"Novonukutskiy","stateId":1912,"stateCode":"UA-40","stateName":"Sevastopol","countryId":230,"countryCode":"UA","countryName":"Ukraine","latitude":"53.70000000","longitude":"102.71170000","wikiDataId":"Q37898547"},{"id":105912,"name":"Ol’khonskiy Rayon","stateId":1912,"stateCode":"UA-40","stateName":"Sevastopol","countryId":230,"countryCode":"UA","countryName":"Ukraine","latitude":"53.00000000","longitude":"106.50000000","wikiDataId":"Q1654403"},{"id":105913,"name":"Orlinoye","stateId":1912,"stateCode":"UA-40","stateName":"Sevastopol","countryId":230,"countryCode":"UA","countryName":"Ukraine","latitude":"44.44685000","longitude":"33.77588000","wikiDataId":"Q1654403"},{"id":105914,"name":"Osa","stateId":1912,"stateCode":"UA-40","stateName":"Sevastopol","countryId":230,"countryCode":"UA","countryName":"Ukraine","latitude":"53.38722000","longitude":"103.87694000","wikiDataId":"Q37903877"},{"id":105915,"name":"Oyëk","stateId":1912,"stateCode":"UA-40","stateName":"Sevastopol","countryId":230,"countryCode":"UA","countryName":"Ukraine","latitude":"52.58611000","longitude":"104.45556000","wikiDataId":"Q37922208"},{"id":105916,"name":"Pad’ Mel’nichnaya","stateId":1912,"stateCode":"UA-40","stateName":"Sevastopol","countryId":230,"countryCode":"UA","countryName":"Ukraine","latitude":"52.16000000","longitude":"104.38000000","wikiDataId":"Q37964948"},{"id":105917,"name":"Perfilovo","stateId":1912,"stateCode":"UA-40","stateName":"Sevastopol","countryId":230,"countryCode":"UA","countryName":"Ukraine","latitude":"54.41083000","longitude":"100.48454000","wikiDataId":"Q37963583"},{"id":105918,"name":"Pivovarikha","stateId":1912,"stateCode":"UA-40","stateName":"Sevastopol","countryId":230,"countryCode":"UA","countryName":"Ukraine","latitude":"52.27056000","longitude":"104.44583000","wikiDataId":"Q37963561"},{"id":105919,"name":"Pokosnoye","stateId":1912,"stateCode":"UA-40","stateName":"Sevastopol","countryId":230,"countryCode":"UA","countryName":"Ukraine","latitude":"55.52583000","longitude":"101.05361000","wikiDataId":"Q37963557"},{"id":105920,"name":"Polyushko","stateId":1912,"stateCode":"UA-40","stateName":"Sevastopol","countryId":230,"countryCode":"UA","countryName":"Ukraine","latitude":"44.74219000","longitude":"33.58913000","wikiDataId":"Q37963557"},{"id":105921,"name":"Rudnogorsk","stateId":1912,"stateCode":"UA-40","stateName":"Sevastopol","countryId":230,"countryCode":"UA","countryName":"Ukraine","latitude":"57.26390000","longitude":"103.75190000","wikiDataId":"Q3942256"},{"id":105922,"name":"Sakharnaya Golovka","stateId":1912,"stateCode":"UA-40","stateName":"Sevastopol","countryId":230,"countryCode":"UA","countryName":"Ukraine","latitude":"44.58362000","longitude":"33.64383000","wikiDataId":"Q3942256"},{"id":105923,"name":"Sayansk","stateId":1912,"stateCode":"UA-40","stateName":"Sevastopol","countryId":230,"countryCode":"UA","countryName":"Ukraine","latitude":"54.10880000","longitude":"102.16480000","wikiDataId":"Q193586"},{"id":105924,"name":"Sevastopol","stateId":1912,"stateCode":"UA-40","stateName":"Sevastopol","countryId":230,"countryCode":"UA","countryName":"Ukraine","latitude":"44.58883000","longitude":"33.52240000","wikiDataId":"Q7525"},{"id":105925,"name":"Shamanka","stateId":1912,"stateCode":"UA-40","stateName":"Sevastopol","countryId":230,"countryCode":"UA","countryName":"Ukraine","latitude":"52.06667000","longitude":"103.82028000","wikiDataId":"Q37963466"},{"id":105926,"name":"Sheberta","stateId":1912,"stateCode":"UA-40","stateName":"Sevastopol","countryId":230,"countryCode":"UA","countryName":"Ukraine","latitude":"54.64178000","longitude":"99.89209000","wikiDataId":"Q37961379"},{"id":105927,"name":"Shelekhov","stateId":1912,"stateCode":"UA-40","stateName":"Sevastopol","countryId":230,"countryCode":"UA","countryName":"Ukraine","latitude":"52.21389000","longitude":"104.10000000","wikiDataId":"Q41993"},{"id":105928,"name":"Sheragul","stateId":1912,"stateCode":"UA-40","stateName":"Sevastopol","countryId":230,"countryCode":"UA","countryName":"Ukraine","latitude":"54.46243000","longitude":"100.90994000","wikiDataId":"Q37963442"},{"id":105929,"name":"Shestakovo","stateId":1912,"stateCode":"UA-40","stateName":"Sevastopol","countryId":230,"countryCode":"UA","countryName":"Ukraine","latitude":"56.49150000","longitude":"103.96000000","wikiDataId":"Q37963438"},{"id":105930,"name":"Shitkino","stateId":1912,"stateCode":"UA-40","stateName":"Sevastopol","countryId":230,"countryCode":"UA","countryName":"Ukraine","latitude":"56.37030000","longitude":"98.35430000","wikiDataId":"Q37961352"},{"id":105931,"name":"Shturmovoye","stateId":1912,"stateCode":"UA-40","stateName":"Sevastopol","countryId":230,"countryCode":"UA","countryName":"Ukraine","latitude":"44.56767000","longitude":"33.62245000","wikiDataId":"Q37961352"},{"id":105932,"name":"Shumskiy","stateId":1912,"stateCode":"UA-40","stateName":"Sevastopol","countryId":230,"countryCode":"UA","countryName":"Ukraine","latitude":"54.83180000","longitude":"99.13280000","wikiDataId":"Q37961328"},{"id":105933,"name":"Slyudyanka","stateId":1912,"stateCode":"UA-40","stateName":"Sevastopol","countryId":230,"countryCode":"UA","countryName":"Ukraine","latitude":"51.65944000","longitude":"103.70611000","wikiDataId":"Q181550"},{"id":105934,"name":"Slyudyanskiy Rayon","stateId":1912,"stateCode":"UA-40","stateName":"Sevastopol","countryId":230,"countryCode":"UA","countryName":"Ukraine","latitude":"51.50000000","longitude":"104.00000000","wikiDataId":"Q2217090"},{"id":105935,"name":"Smolenshchina","stateId":1912,"stateCode":"UA-40","stateName":"Sevastopol","countryId":230,"countryCode":"UA","countryName":"Ukraine","latitude":"52.25528000","longitude":"104.12806000","wikiDataId":"Q37963406"},{"id":105936,"name":"Solnechniy","stateId":1912,"stateCode":"UA-40","stateName":"Sevastopol","countryId":230,"countryCode":"UA","countryName":"Ukraine","latitude":"44.78677000","longitude":"33.61786000","wikiDataId":"Q37963406"},{"id":105937,"name":"Sredniy","stateId":1912,"stateCode":"UA-40","stateName":"Sevastopol","countryId":230,"countryCode":"UA","countryName":"Ukraine","latitude":"52.88840000","longitude":"103.49040000","wikiDataId":"Q37964945"},{"id":105938,"name":"Svirsk","stateId":1912,"stateCode":"UA-40","stateName":"Sevastopol","countryId":230,"countryCode":"UA","countryName":"Ukraine","latitude":"53.08583000","longitude":"103.33250000","wikiDataId":"Q193631"},{"id":105939,"name":"Tayshet","stateId":1912,"stateCode":"UA-40","stateName":"Sevastopol","countryId":230,"countryCode":"UA","countryName":"Ukraine","latitude":"55.93420000","longitude":"98.00440000","wikiDataId":"Q196594"},{"id":105940,"name":"Tayshetskiy Rayon","stateId":1912,"stateCode":"UA-40","stateName":"Sevastopol","countryId":230,"countryCode":"UA","countryName":"Ukraine","latitude":"56.00000000","longitude":"98.00000000","wikiDataId":"Q1655792"},{"id":105941,"name":"Tayturka","stateId":1912,"stateCode":"UA-40","stateName":"Sevastopol","countryId":230,"countryCode":"UA","countryName":"Ukraine","latitude":"52.86917000","longitude":"103.46083000","wikiDataId":"Q37963315"},{"id":105942,"name":"Tel’ma","stateId":1912,"stateCode":"UA-40","stateName":"Sevastopol","countryId":230,"countryCode":"UA","countryName":"Ukraine","latitude":"52.69810000","longitude":"103.71380000","wikiDataId":"Q37963312"},{"id":105943,"name":"Ternovka","stateId":1912,"stateCode":"UA-40","stateName":"Sevastopol","countryId":230,"countryCode":"UA","countryName":"Ukraine","latitude":"44.57922000","longitude":"33.75105000","wikiDataId":"Q37963312"},{"id":105944,"name":"Tulun","stateId":1912,"stateCode":"UA-40","stateName":"Sevastopol","countryId":230,"countryCode":"UA","countryName":"Ukraine","latitude":"54.56358000","longitude":"100.58143000","wikiDataId":"Q196709"},{"id":105945,"name":"Tulunskiy Rayon","stateId":1912,"stateCode":"UA-40","stateName":"Sevastopol","countryId":230,"countryCode":"UA","countryName":"Ukraine","latitude":"54.16667000","longitude":"100.33333000","wikiDataId":"Q1655502"},{"id":105946,"name":"Tulyushka","stateId":1912,"stateCode":"UA-40","stateName":"Sevastopol","countryId":230,"countryCode":"UA","countryName":"Ukraine","latitude":"54.45851000","longitude":"101.17054000","wikiDataId":"Q37963273"},{"id":105947,"name":"Tyret’ Pervaya","stateId":1912,"stateCode":"UA-40","stateName":"Sevastopol","countryId":230,"countryCode":"UA","countryName":"Ukraine","latitude":"53.67028000","longitude":"102.31056000","wikiDataId":"Q37963249"},{"id":105948,"name":"Uk","stateId":1912,"stateCode":"UA-40","stateName":"Sevastopol","countryId":230,"countryCode":"UA","countryName":"Ukraine","latitude":"55.07900000","longitude":"98.85860000","wikiDataId":"Q37960745"},{"id":105949,"name":"Urik","stateId":1912,"stateCode":"UA-40","stateName":"Sevastopol","countryId":230,"countryCode":"UA","countryName":"Ukraine","latitude":"52.46051000","longitude":"104.24016000","wikiDataId":"Q37963214"},{"id":105950,"name":"Usol’skiy Rayon","stateId":1912,"stateCode":"UA-40","stateName":"Sevastopol","countryId":230,"countryCode":"UA","countryName":"Ukraine","latitude":"52.50000000","longitude":"103.25000000","wikiDataId":"Q4006638"},{"id":105951,"name":"Usol’ye-Sibirskoye","stateId":1912,"stateCode":"UA-40","stateName":"Sevastopol","countryId":230,"countryCode":"UA","countryName":"Ukraine","latitude":"52.75194000","longitude":"103.64528000","wikiDataId":"Q196925"},{"id":105952,"name":"Ust’-Ilimsk","stateId":1912,"stateCode":"UA-40","stateName":"Sevastopol","countryId":230,"countryCode":"UA","countryName":"Ukraine","latitude":"58.00056000","longitude":"102.66194000","wikiDataId":"Q196946"},{"id":105953,"name":"Ust’-Kut","stateId":1912,"stateCode":"UA-40","stateName":"Sevastopol","countryId":230,"countryCode":"UA","countryName":"Ukraine","latitude":"56.79380000","longitude":"105.76720000","wikiDataId":"Q196964"},{"id":105954,"name":"Ust’-Kutskiy Rayon","stateId":1912,"stateCode":"UA-40","stateName":"Sevastopol","countryId":230,"countryCode":"UA","countryName":"Ukraine","latitude":"57.00000000","longitude":"106.00000000","wikiDataId":"Q196964"},{"id":105955,"name":"Ust’-Ordynskiy","stateId":1912,"stateCode":"UA-40","stateName":"Sevastopol","countryId":230,"countryCode":"UA","countryName":"Ukraine","latitude":"52.80500000","longitude":"104.75083000","wikiDataId":"Q958163"},{"id":105956,"name":"Ust’-Uda","stateId":1912,"stateCode":"UA-40","stateName":"Sevastopol","countryId":230,"countryCode":"UA","countryName":"Ukraine","latitude":"54.17420000","longitude":"103.03040000","wikiDataId":"Q4006652"},{"id":105957,"name":"Ust’-Udinskiy Rayon","stateId":1912,"stateCode":"UA-40","stateName":"Sevastopol","countryId":230,"countryCode":"UA","countryName":"Ukraine","latitude":"55.00000000","longitude":"103.66667000","wikiDataId":"Q4006652"},{"id":105958,"name":"Verkhnesadovoye","stateId":1912,"stateCode":"UA-40","stateName":"Sevastopol","countryId":230,"countryCode":"UA","countryName":"Ukraine","latitude":"44.68932000","longitude":"33.70207000","wikiDataId":"Q4006652"},{"id":105959,"name":"Vidim","stateId":1912,"stateCode":"UA-40","stateName":"Sevastopol","countryId":230,"countryCode":"UA","countryName":"Ukraine","latitude":"56.40880000","longitude":"103.11060000","wikiDataId":"Q37963156"},{"id":105960,"name":"Vikhorevka","stateId":1912,"stateCode":"UA-40","stateName":"Sevastopol","countryId":230,"countryCode":"UA","countryName":"Ukraine","latitude":"56.12128000","longitude":"101.17767000","wikiDataId":"Q133099"},{"id":105961,"name":"Voznesenskiy","stateId":1912,"stateCode":"UA-40","stateName":"Sevastopol","countryId":230,"countryCode":"UA","countryName":"Ukraine","latitude":"54.89680000","longitude":"99.10310000","wikiDataId":"Q37968517"},{"id":105962,"name":"Yantal’","stateId":1912,"stateCode":"UA-40","stateName":"Sevastopol","countryId":230,"countryCode":"UA","countryName":"Ukraine","latitude":"56.84710000","longitude":"105.25420000","wikiDataId":"Q37963967"},{"id":105963,"name":"Yedogon","stateId":1912,"stateCode":"UA-40","stateName":"Sevastopol","countryId":230,"countryCode":"UA","countryName":"Ukraine","latitude":"54.25490000","longitude":"100.23850000","wikiDataId":"Q37963088"},{"id":105964,"name":"Yelantsy","stateId":1912,"stateCode":"UA-40","stateName":"Sevastopol","countryId":230,"countryCode":"UA","countryName":"Ukraine","latitude":"52.80286000","longitude":"106.40466000","wikiDataId":"Q37963083"},{"id":105965,"name":"Yerbogachen","stateId":1912,"stateCode":"UA-40","stateName":"Sevastopol","countryId":230,"countryCode":"UA","countryName":"Ukraine","latitude":"61.28016000","longitude":"108.01535000","wikiDataId":"Q2047520"},{"id":105966,"name":"Yurty","stateId":1912,"stateCode":"UA-40","stateName":"Sevastopol","countryId":230,"countryCode":"UA","countryName":"Ukraine","latitude":"56.04980000","longitude":"97.63480000","wikiDataId":"Q655188"},{"id":105967,"name":"Zalari","stateId":1912,"stateCode":"UA-40","stateName":"Sevastopol","countryId":230,"countryCode":"UA","countryName":"Ukraine","latitude":"53.55840000","longitude":"102.50650000","wikiDataId":"Q37963046"},{"id":105968,"name":"Zalarinskiy Rayon","stateId":1912,"stateCode":"UA-40","stateName":"Sevastopol","countryId":230,"countryCode":"UA","countryName":"Ukraine","latitude":"53.16667000","longitude":"101.50000000","wikiDataId":"Q1658361"},{"id":105969,"name":"Zheleznodorozhnyy","stateId":1912,"stateCode":"UA-40","stateName":"Sevastopol","countryId":230,"countryCode":"UA","countryName":"Ukraine","latitude":"57.90525000","longitude":"102.77838000","wikiDataId":"Q33527566"},{"id":105970,"name":"Zheleznogorsk-Ilimskiy","stateId":1912,"stateCode":"UA-40","stateName":"Sevastopol","countryId":230,"countryCode":"UA","countryName":"Ukraine","latitude":"56.57680000","longitude":"104.12170000","wikiDataId":"Q135968"},{"id":105971,"name":"Zhigalovo","stateId":1912,"stateCode":"UA-40","stateName":"Sevastopol","countryId":230,"countryCode":"UA","countryName":"Ukraine","latitude":"54.81061000","longitude":"105.15808000","wikiDataId":"Q1977266"},{"id":105972,"name":"Zhigalovskiy Rayon","stateId":1912,"stateCode":"UA-40","stateName":"Sevastopol","countryId":230,"countryCode":"UA","countryName":"Ukraine","latitude":"55.00000000","longitude":"105.50000000","wikiDataId":"Q1658434"},{"id":105973,"name":"Zima","stateId":1912,"stateCode":"UA-40","stateName":"Sevastopol","countryId":230,"countryCode":"UA","countryName":"Ukraine","latitude":"53.92020000","longitude":"102.04420000","wikiDataId":"Q140012"},{"id":105974,"name":"Ziminskiy Rayon","stateId":1912,"stateCode":"UA-40","stateName":"Sevastopol","countryId":230,"countryCode":"UA","countryName":"Ukraine","latitude":"55.83333000","longitude":"101.66667000","wikiDataId":"Q140012"},{"id":105975,"name":"Zvëzdnyy","stateId":1912,"stateCode":"UA-40","stateName":"Sevastopol","countryId":230,"countryCode":"UA","countryName":"Ukraine","latitude":"56.74920000","longitude":"106.47990000","wikiDataId":"Q4025037"}]