[{"id":104603,"name":"Alikalia","stateId":911,"stateCode":"N","stateName":"Northern Province","countryId":198,"countryCode":"SL","countryName":"Sierra Leone","latitude":"9.15356000","longitude":"-11.38712000","wikiDataId":"Q4726610"},{"id":104607,"name":"Bindi","stateId":911,"stateCode":"N","stateName":"Northern Province","countryId":198,"countryCode":"SL","countryName":"Sierra Leone","latitude":"9.91376000","longitude":"-11.44669000","wikiDataId":"Q31916070"},{"id":104608,"name":"Binkolo","stateId":911,"stateCode":"N","stateName":"Northern Province","countryId":198,"countryCode":"SL","countryName":"Sierra Leone","latitude":"8.95225000","longitude":"-11.98029000","wikiDataId":"Q9298703"},{"id":104613,"name":"Bombali District","stateId":911,"stateCode":"N","stateName":"Northern Province","countryId":198,"countryCode":"SL","countryName":"Sierra Leone","latitude":"9.28444000","longitude":"-12.16449000","wikiDataId":"Q891767"},{"id":104618,"name":"Bumbuna","stateId":911,"stateCode":"N","stateName":"Northern Province","countryId":198,"countryCode":"SL","countryName":"Sierra Leone","latitude":"9.04466000","longitude":"-11.74576000","wikiDataId":"Q4817928"},{"id":104625,"name":"Gberia Fotombu","stateId":911,"stateCode":"N","stateName":"Northern Province","countryId":198,"countryCode":"SL","countryName":"Sierra Leone","latitude":"9.87852000","longitude":"-11.16548000","wikiDataId":"Q3012892"},{"id":104632,"name":"Kabala","stateId":911,"stateCode":"N","stateName":"Northern Province","countryId":198,"countryCode":"SL","countryName":"Sierra Leone","latitude":"9.58893000","longitude":"-11.55256000","wikiDataId":"Q930789"},{"id":104635,"name":"Kamakwie","stateId":911,"stateCode":"N","stateName":"Northern Province","countryId":198,"countryCode":"SL","countryName":"Sierra Leone","latitude":"9.49689000","longitude":"-12.24061000","wikiDataId":"Q6355344"},{"id":104636,"name":"Kambia","stateId":911,"stateCode":"N","stateName":"Northern Province","countryId":198,"countryCode":"SL","countryName":"Sierra Leone","latitude":"9.12504000","longitude":"-12.91816000","wikiDataId":"Q1722889"},{"id":104637,"name":"Kassiri","stateId":911,"stateCode":"N","stateName":"Northern Province","countryId":198,"countryCode":"SL","countryName":"Sierra Leone","latitude":"8.93814000","longitude":"-13.11541000","wikiDataId":"Q1722889"},{"id":104643,"name":"Koinadugu District","stateId":911,"stateCode":"N","stateName":"Northern Province","countryId":198,"countryCode":"SL","countryName":"Sierra Leone","latitude":"9.50991000","longitude":"-11.34601000","wikiDataId":"Q1778860"},{"id":104644,"name":"Konakridee","stateId":911,"stateCode":"N","stateName":"Northern Province","countryId":198,"countryCode":"SL","countryName":"Sierra Leone","latitude":"8.69778000","longitude":"-13.23917000","wikiDataId":"Q1778860"},{"id":104648,"name":"Kukuna","stateId":911,"stateCode":"N","stateName":"Northern Province","countryId":198,"countryCode":"SL","countryName":"Sierra Leone","latitude":"9.39841000","longitude":"-12.66476000","wikiDataId":"Q1781849"},{"id":104650,"name":"Loma","stateId":911,"stateCode":"N","stateName":"Northern Province","countryId":198,"countryCode":"SL","countryName":"Sierra Leone","latitude":"9.75931000","longitude":"-12.03383000","wikiDataId":"Q1781849"},{"id":104651,"name":"Lunsar","stateId":911,"stateCode":"N","stateName":"Northern Province","countryId":198,"countryCode":"SL","countryName":"Sierra Leone","latitude":"8.68439000","longitude":"-12.53499000","wikiDataId":"Q995392"},{"id":104652,"name":"Magburaka","stateId":911,"stateCode":"N","stateName":"Northern Province","countryId":198,"countryCode":"SL","countryName":"Sierra Leone","latitude":"8.72306000","longitude":"-11.94880000","wikiDataId":"Q1883766"},{"id":104653,"name":"Makali","stateId":911,"stateCode":"N","stateName":"Northern Province","countryId":198,"countryCode":"SL","countryName":"Sierra Leone","latitude":"8.62964000","longitude":"-11.66168000","wikiDataId":"Q1883766"},{"id":104654,"name":"Makeni","stateId":911,"stateCode":"N","stateName":"Northern Province","countryId":198,"countryCode":"SL","countryName":"Sierra Leone","latitude":"8.88605000","longitude":"-12.04417000","wikiDataId":"Q42678"},{"id":104655,"name":"Mambolo","stateId":911,"stateCode":"N","stateName":"Northern Province","countryId":198,"countryCode":"SL","countryName":"Sierra Leone","latitude":"8.91860000","longitude":"-13.03674000","wikiDataId":"Q42678"},{"id":104657,"name":"Mange","stateId":911,"stateCode":"N","stateName":"Northern Province","countryId":198,"countryCode":"SL","countryName":"Sierra Leone","latitude":"8.92262000","longitude":"-12.85688000","wikiDataId":"Q42678"},{"id":104659,"name":"Masaka","stateId":911,"stateCode":"N","stateName":"Northern Province","countryId":198,"countryCode":"SL","countryName":"Sierra Leone","latitude":"8.66492000","longitude":"-11.80260000","wikiDataId":"Q42678"},{"id":104660,"name":"Masingbi","stateId":911,"stateCode":"N","stateName":"Northern Province","countryId":198,"countryCode":"SL","countryName":"Sierra Leone","latitude":"8.78197000","longitude":"-11.95171000","wikiDataId":"Q42678"},{"id":104661,"name":"Masoyila","stateId":911,"stateCode":"N","stateName":"Northern Province","countryId":198,"countryCode":"SL","countryName":"Sierra Leone","latitude":"8.61119000","longitude":"-13.19101000","wikiDataId":"Q42678"},{"id":104670,"name":"Pepel","stateId":911,"stateCode":"N","stateName":"Northern Province","countryId":198,"countryCode":"SL","countryName":"Sierra Leone","latitude":"8.58611000","longitude":"-13.05444000","wikiDataId":"Q3466506"},{"id":104674,"name":"Rokupr","stateId":911,"stateCode":"N","stateName":"Northern Province","countryId":198,"countryCode":"SL","countryName":"Sierra Leone","latitude":"8.67121000","longitude":"-12.38497000","wikiDataId":"Q927464"},{"id":104676,"name":"Sawkta","stateId":911,"stateCode":"N","stateName":"Northern Province","countryId":198,"countryCode":"SL","countryName":"Sierra Leone","latitude":"8.63230000","longitude":"-13.20250000","wikiDataId":"Q7370541"},{"id":104678,"name":"Seidu","stateId":911,"stateCode":"N","stateName":"Northern Province","countryId":198,"countryCode":"SL","countryName":"Sierra Leone","latitude":"9.01801000","longitude":"-10.59496000","wikiDataId":"Q2946720"},{"id":104683,"name":"Tintafor","stateId":911,"stateCode":"N","stateName":"Northern Province","countryId":198,"countryCode":"SL","countryName":"Sierra Leone","latitude":"8.62667000","longitude":"-13.21500000","wikiDataId":"Q49368461"},{"id":104687,"name":"Tonkolili District","stateId":911,"stateCode":"N","stateName":"Northern Province","countryId":198,"countryCode":"SL","countryName":"Sierra Leone","latitude":"8.61885000","longitude":"-11.84173000","wikiDataId":"Q1852020"},{"id":104691,"name":"Yonibana","stateId":911,"stateCode":"N","stateName":"Northern Province","countryId":198,"countryCode":"SL","countryName":"Sierra Leone","latitude":"8.44347000","longitude":"-12.23929000","wikiDataId":"Q289747"}]