[{"id":18864,"name":"Adzopé","stateId":2639,"stateCode":"01","stateName":"Lagunes region","countryId":54,"countryCode":"CI","countryName":"Cote D'Ivoire (Ivory Coast)","latitude":"6.10694000","longitude":"-3.86194000","wikiDataId":"Q1270691"},{"id":18865,"name":"Affery","stateId":2639,"stateCode":"01","stateName":"Lagunes region","countryId":54,"countryCode":"CI","countryName":"Cote D'Ivoire (Ivory Coast)","latitude":"6.32035000","longitude":"-3.95235000","wikiDataId":"Q1270691"},{"id":18866,"name":"Agboville","stateId":2639,"stateCode":"01","stateName":"Lagunes region","countryId":54,"countryCode":"CI","countryName":"Cote D'Ivoire (Ivory Coast)","latitude":"5.92801000","longitude":"-4.21319000","wikiDataId":"Q2080938"},{"id":18868,"name":"Agnéby-Tiassa","stateId":2639,"stateCode":"01","stateName":"Lagunes region","countryId":54,"countryCode":"CI","countryName":"Cote D'Ivoire (Ivory Coast)","latitude":"5.79488000","longitude":"-4.37187000","wikiDataId":"Q2080938"},{"id":18869,"name":"Akoupé","stateId":2639,"stateCode":"01","stateName":"Lagunes region","countryId":54,"countryCode":"CI","countryName":"Cote D'Ivoire (Ivory Coast)","latitude":"6.38423000","longitude":"-3.88759000","wikiDataId":"Q2080938"},{"id":18891,"name":"Dabou","stateId":2639,"stateCode":"01","stateName":"Lagunes region","countryId":54,"countryCode":"CI","countryName":"Cote D'Ivoire (Ivory Coast)","latitude":"5.32556000","longitude":"-4.37685000","wikiDataId":"Q1588249"},{"id":18904,"name":"Grand-Lahou","stateId":2639,"stateCode":"01","stateName":"Lagunes region","countryId":54,"countryCode":"CI","countryName":"Cote D'Ivoire (Ivory Coast)","latitude":"5.25068000","longitude":"-5.00333000","wikiDataId":"Q1102140"},{"id":18905,"name":"Grands-Ponts","stateId":2639,"stateCode":"01","stateName":"Lagunes region","countryId":54,"countryCode":"CI","countryName":"Cote D'Ivoire (Ivory Coast)","latitude":"5.30487000","longitude":"-4.39247000","wikiDataId":"Q1102140"},{"id":18935,"name":"Tiassalé","stateId":2639,"stateCode":"01","stateName":"Lagunes region","countryId":54,"countryCode":"CI","countryName":"Cote D'Ivoire (Ivory Coast)","latitude":"5.89839000","longitude":"-4.82293000","wikiDataId":"Q952665"}]