[{"id":130647,"name":"Fasito‘outa","stateId":4763,"stateCode":"AA","stateName":"A'ana","countryId":191,"countryCode":"WS","countryName":"Samoa","latitude":"-13.81163000","longitude":"-171.94063000","wikiDataId":"Q31915201"},{"id":130649,"name":"Leulumoega","stateId":4763,"stateCode":"AA","stateName":"A'ana","countryId":191,"countryCode":"WS","countryName":"Samoa","latitude":"-13.82297000","longitude":"-171.96127000","wikiDataId":"Q1944685"},{"id":130655,"name":"Nofoali‘i","stateId":4763,"stateCode":"AA","stateName":"A'ana","countryId":191,"countryCode":"WS","countryName":"Samoa","latitude":"-13.82170000","longitude":"-171.95873000","wikiDataId":"Q31971483"},{"id":130658,"name":"Satapuala","stateId":4763,"stateCode":"AA","stateName":"A'ana","countryId":191,"countryCode":"WS","countryName":"Samoa","latitude":"-13.83535000","longitude":"-171.97963000","wikiDataId":"Q7425943"},{"id":130654,"name":"Mulifanua","stateId":4761,"stateCode":"AL","stateName":"Aiga-i-le-Tai","countryId":191,"countryCode":"WS","countryName":"Samoa","latitude":"-13.83183000","longitude":"-172.03602000","wikiDataId":"Q2270858"},{"id":130646,"name":"Falefa","stateId":4765,"stateCode":"AT","stateName":"Atua","countryId":191,"countryCode":"WS","countryName":"Samoa","latitude":"-13.88695000","longitude":"-171.58805000","wikiDataId":"Q5431847"},{"id":130650,"name":"Lotofagā","stateId":4765,"stateCode":"AT","stateName":"Atua","countryId":191,"countryCode":"WS","countryName":"Samoa","latitude":"-13.97643000","longitude":"-171.85781000","wikiDataId":"Q31943898"},{"id":130651,"name":"Lufilufi","stateId":4765,"stateCode":"AT","stateName":"Atua","countryId":191,"countryCode":"WS","countryName":"Samoa","latitude":"-13.87449000","longitude":"-171.59857000","wikiDataId":"Q741740"},{"id":130659,"name":"Solosolo","stateId":4765,"stateCode":"AT","stateName":"Atua","countryId":191,"countryCode":"WS","countryName":"Samoa","latitude":"-13.87504000","longitude":"-171.64181000","wikiDataId":"Q7558846"},{"id":130653,"name":"Matavai","stateId":4771,"stateCode":"GI","stateName":"Gaga'ifomauga","countryId":191,"countryCode":"WS","countryName":"Samoa","latitude":"-14.03208000","longitude":"-171.64768000","wikiDataId":"Q31951719"},{"id":130656,"name":"Safotu","stateId":4771,"stateCode":"GI","stateName":"Gaga'ifomauga","countryId":191,"countryCode":"WS","countryName":"Samoa","latitude":"-13.45132000","longitude":"-172.40177000","wikiDataId":"Q2165046"},{"id":130648,"name":"Gataivai","stateId":4767,"stateCode":"PA","stateName":"Palauli","countryId":191,"countryCode":"WS","countryName":"Samoa","latitude":"-13.77360000","longitude":"-172.38802000","wikiDataId":"Q5526936"},{"id":130661,"name":"Vailoa","stateId":4767,"stateCode":"PA","stateName":"Palauli","countryId":191,"countryCode":"WS","countryName":"Samoa","latitude":"-13.75551000","longitude":"-172.30698000","wikiDataId":"Q7908783"},{"id":130643,"name":"Afega","stateId":4770,"stateCode":"TU","stateName":"Tuamasaga","countryId":191,"countryCode":"WS","countryName":"Samoa","latitude":"-13.79726000","longitude":"-171.85308000","wikiDataId":"Q2038921"},{"id":130644,"name":"Apia","stateId":4770,"stateCode":"TU","stateName":"Tuamasaga","countryId":191,"countryCode":"WS","countryName":"Samoa","latitude":"-13.83333000","longitude":"-171.76666000","wikiDataId":"Q36260"},{"id":130652,"name":"Malie","stateId":4770,"stateCode":"TU","stateName":"Tuamasaga","countryId":191,"countryCode":"WS","countryName":"Samoa","latitude":"-13.80044000","longitude":"-171.84690000","wikiDataId":"Q6743481"},{"id":130660,"name":"Vailima","stateId":4770,"stateCode":"TU","stateName":"Tuamasaga","countryId":191,"countryCode":"WS","countryName":"Samoa","latitude":"-13.86417000","longitude":"-171.76126000","wikiDataId":"Q548806"},{"id":130662,"name":"Vaiusu","stateId":4770,"stateCode":"TU","stateName":"Tuamasaga","countryId":191,"countryCode":"WS","countryName":"Samoa","latitude":"-13.82678000","longitude":"-171.79333000","wikiDataId":"Q7908901"},{"id":130657,"name":"Samamea","stateId":4768,"stateCode":"VF","stateName":"Va'a-o-Fonoti","countryId":191,"countryCode":"WS","countryName":"Samoa","latitude":"-13.93375000","longitude":"-171.53122000","wikiDataId":"Q2165046"},{"id":130645,"name":"Asau","stateId":4766,"stateCode":"VS","stateName":"Vaisigano","countryId":191,"countryCode":"WS","countryName":"Samoa","latitude":"-13.51963000","longitude":"-172.63784000","wikiDataId":"Q4803660"}]