[{"id":22017,"name":"Argáka","stateId":746,"stateCode":"05","stateName":"Paphos District (Pafos)","countryId":57,"countryCode":"CY","countryName":"Cyprus","latitude":"35.06646000","longitude":"32.49446000","wikiDataId":"Q744626"},{"id":22022,"name":"Chlórakas","stateId":746,"stateCode":"05","stateName":"Paphos District (Pafos)","countryId":57,"countryCode":"CY","countryName":"Cyprus","latitude":"34.79768000","longitude":"32.41207000","wikiDataId":"Q393593"},{"id":22026,"name":"Emba","stateId":746,"stateCode":"05","stateName":"Paphos District (Pafos)","countryId":57,"countryCode":"CY","countryName":"Cyprus","latitude":"34.80700000","longitude":"32.42406000","wikiDataId":"Q5369408"},{"id":22032,"name":"Geroskipou","stateId":746,"stateCode":"05","stateName":"Paphos District (Pafos)","countryId":57,"countryCode":"CY","countryName":"Cyprus","latitude":"34.75498000","longitude":"32.45155000","wikiDataId":"Q349340"},{"id":22033,"name":"Geroskípou (quarter)","stateId":746,"stateCode":"05","stateName":"Paphos District (Pafos)","countryId":57,"countryCode":"CY","countryName":"Cyprus","latitude":"34.76190000","longitude":"32.45135000","wikiDataId":"Q47313335"},{"id":22034,"name":"Geroskípou Municipality","stateId":746,"stateCode":"05","stateName":"Paphos District (Pafos)","countryId":57,"countryCode":"CY","countryName":"Cyprus","latitude":"34.75142000","longitude":"32.45449000","wikiDataId":"Q588760"},{"id":22037,"name":"Kissonerga","stateId":746,"stateCode":"05","stateName":"Paphos District (Pafos)","countryId":57,"countryCode":"CY","countryName":"Cyprus","latitude":"34.82279000","longitude":"32.40131000","wikiDataId":"Q6417285"},{"id":22041,"name":"Koloni","stateId":746,"stateCode":"05","stateName":"Paphos District (Pafos)","countryId":57,"countryCode":"CY","countryName":"Cyprus","latitude":"34.75228000","longitude":"32.46487000","wikiDataId":"Q6426673"},{"id":22043,"name":"Konia","stateId":746,"stateCode":"05","stateName":"Paphos District (Pafos)","countryId":57,"countryCode":"CY","countryName":"Cyprus","latitude":"34.78516000","longitude":"32.45900000","wikiDataId":"Q3353547"},{"id":22063,"name":"Mesógi","stateId":746,"stateCode":"05","stateName":"Paphos District (Pafos)","countryId":57,"countryCode":"CY","countryName":"Cyprus","latitude":"34.81577000","longitude":"32.45542000","wikiDataId":"Q6816909"},{"id":22071,"name":"Paphos","stateId":746,"stateCode":"05","stateName":"Paphos District (Pafos)","countryId":57,"countryCode":"CY","countryName":"Cyprus","latitude":"34.77679000","longitude":"32.42451000","wikiDataId":"Q180918"},{"id":22085,"name":"Pégeia","stateId":746,"stateCode":"05","stateName":"Paphos District (Pafos)","countryId":57,"countryCode":"CY","countryName":"Cyprus","latitude":"34.88341000","longitude":"32.38166000","wikiDataId":"Q2538717"},{"id":22088,"name":"Pólis","stateId":746,"stateCode":"05","stateName":"Paphos District (Pafos)","countryId":57,"countryCode":"CY","countryName":"Cyprus","latitude":"35.03534000","longitude":"32.42575000","wikiDataId":"Q2626631"},{"id":22098,"name":"Tála","stateId":746,"stateCode":"05","stateName":"Paphos District (Pafos)","countryId":57,"countryCode":"CY","countryName":"Cyprus","latitude":"34.83745000","longitude":"32.43272000","wikiDataId":"Q7678734"},{"id":22096,"name":"Tsáda","stateId":746,"stateCode":"05","stateName":"Paphos District (Pafos)","countryId":57,"countryCode":"CY","countryName":"Cyprus","latitude":"34.83801000","longitude":"32.47547000","wikiDataId":"Q3559631"}]