[{"id":148352,"name":"Andacollo","stateId":2825,"stateCode":"CO","stateName":"Coquimbo","countryId":44,"countryCode":"CL","countryName":"Chile","latitude":"-30.21666667","longitude":"-71.08333333","wikiDataId":"Q3602"},{"id":148353,"name":"Canela","stateId":2825,"stateCode":"CO","stateName":"Coquimbo","countryId":44,"countryCode":"CL","countryName":"Chile","latitude":"-31.40000000","longitude":"-71.45000000","wikiDataId":"Q3735"},{"id":148354,"name":"Combarbalá","stateId":2825,"stateCode":"CO","stateName":"Coquimbo","countryId":44,"countryCode":"CL","countryName":"Chile","latitude":"-31.16666667","longitude":"-71.05000000","wikiDataId":"Q3850"},{"id":18973,"name":"Coquimbo","stateId":2825,"stateCode":"CO","stateName":"Coquimbo","countryId":44,"countryCode":"CL","countryName":"Chile","latitude":"-29.95332000","longitude":"-71.33947000","wikiDataId":"Q23660214"},{"id":18988,"name":"Illapel","stateId":2825,"stateCode":"CO","stateName":"Coquimbo","countryId":44,"countryCode":"CL","countryName":"Chile","latitude":"-31.63349000","longitude":"-71.16967000","wikiDataId":"Q14434"},{"id":148355,"name":"La Higuera","stateId":2825,"stateCode":"CO","stateName":"Coquimbo","countryId":44,"countryCode":"CL","countryName":"Chile","latitude":"-29.50000000","longitude":"-71.26666667","wikiDataId":"Q14462"},{"id":18994,"name":"La Serena","stateId":2825,"stateCode":"CO","stateName":"Coquimbo","countryId":44,"countryCode":"CL","countryName":"Chile","latitude":"-29.90453000","longitude":"-71.24894000","wikiDataId":"Q14467"},{"id":148356,"name":"Los Vilos","stateId":2825,"stateCode":"CO","stateName":"Coquimbo","countryId":44,"countryCode":"CL","countryName":"Chile","latitude":"-31.90000000","longitude":"-71.51666667","wikiDataId":"Q16908"},{"id":19014,"name":"Monte Patria","stateId":2825,"stateCode":"CO","stateName":"Coquimbo","countryId":44,"countryCode":"CL","countryName":"Chile","latitude":"-30.69496000","longitude":"-70.95770000","wikiDataId":"Q51034"},{"id":19019,"name":"Ovalle","stateId":2825,"stateCode":"CO","stateName":"Coquimbo","countryId":44,"countryCode":"CL","countryName":"Chile","latitude":"-30.60106000","longitude":"-71.19901000","wikiDataId":"Q51060"},{"id":148357,"name":"Paihuano","stateId":2825,"stateCode":"CO","stateName":"Coquimbo","countryId":44,"countryCode":"CL","countryName":"Chile","latitude":"-30.02884000","longitude":"-70.51708000","wikiDataId":"Q51064"},{"id":148358,"name":"Punitaqui","stateId":2825,"stateCode":"CO","stateName":"Coquimbo","countryId":44,"countryCode":"CL","countryName":"Chile","latitude":"-30.90000000","longitude":"-71.26666667","wikiDataId":"Q51598"},{"id":148359,"name":"Río Hurtado","stateId":2825,"stateCode":"CO","stateName":"Coquimbo","countryId":44,"countryCode":"CL","countryName":"Chile","latitude":"-30.26666667","longitude":"-70.70000000","wikiDataId":"Q56128"},{"id":19099,"name":"Salamanca","stateId":2825,"stateCode":"CO","stateName":"Coquimbo","countryId":44,"countryCode":"CL","countryName":"Chile","latitude":"-31.77922000","longitude":"-70.96389000","wikiDataId":"Q56134"},{"id":19125,"name":"Vicuña","stateId":2825,"stateCode":"CO","stateName":"Coquimbo","countryId":44,"countryCode":"CL","countryName":"Chile","latitude":"-30.03541000","longitude":"-70.71274000","wikiDataId":"Q201007"}]