[{"id":149311,"name":"Abramok","stateId":5071,"stateCode":"53","stateName":"Poltavska oblast","countryId":230,"countryCode":"UA","countryName":"Ukraine","latitude":"50.63694444","longitude":"27.90750000","wikiDataId":"Q4055011"},{"id":149312,"name":"Adamivka","stateId":5071,"stateCode":"53","stateName":"Poltavska oblast","countryId":230,"countryCode":"UA","countryName":"Ukraine","latitude":"50.37694444","longitude":"27.91527778","wikiDataId":"Q2068017"},{"id":149313,"name":"Adamove","stateId":5071,"stateCode":"53","stateName":"Poltavska oblast","countryId":230,"countryCode":"UA","countryName":"Ukraine","latitude":"50.83111111","longitude":"27.48305556","wikiDataId":"Q4057335"},{"id":149314,"name":"Agativka","stateId":5071,"stateCode":"53","stateName":"Poltavska oblast","countryId":230,"countryCode":"UA","countryName":"Ukraine","latitude":"49.98611111","longitude":"28.60500000","wikiDataId":"Q4056703"},{"id":149315,"name":"Andriyivka","stateId":5071,"stateCode":"53","stateName":"Poltavska oblast","countryId":230,"countryCode":"UA","countryName":"Ukraine","latitude":"49.76293844","longitude":"34.30037490","wikiDataId":"Q4065598"},{"id":149316,"name":"Andrushivka","stateId":5071,"stateCode":"53","stateName":"Poltavska oblast","countryId":230,"countryCode":"UA","countryName":"Ukraine","latitude":"50.01666667","longitude":"29.01666667","wikiDataId":"Q148909"},{"id":149317,"name":"Autozavodskoy Raion","stateId":5071,"stateCode":"53","stateName":"Poltavska oblast","countryId":230,"countryCode":"UA","countryName":"Ukraine","latitude":"49.07173000","longitude":"33.41552000","wikiDataId":"Q12075964"},{"id":149318,"name":"Avratin","stateId":5071,"stateCode":"53","stateName":"Poltavska oblast","countryId":230,"countryCode":"UA","countryName":"Ukraine","latitude":"49.87611111","longitude":"27.82638889","wikiDataId":"Q4056049"},{"id":149319,"name":"Bairak","stateId":5071,"stateCode":"53","stateName":"Poltavska oblast","countryId":230,"countryCode":"UA","countryName":"Ukraine","latitude":"49.72043437","longitude":"34.37378921","wikiDataId":"Q4075674"},{"id":149320,"name":"Baliasne","stateId":5071,"stateCode":"53","stateName":"Poltavska oblast","countryId":230,"countryCode":"UA","countryName":"Ukraine","latitude":"49.82119646","longitude":"34.33881183","wikiDataId":"Q4077146"},{"id":149321,"name":"Baranivka","stateId":5071,"stateCode":"53","stateName":"Poltavska oblast","countryId":230,"countryCode":"UA","countryName":"Ukraine","latitude":"50.30000000","longitude":"27.66666667","wikiDataId":"Q148917"},{"id":149322,"name":"Baranivka","stateId":5071,"stateCode":"53","stateName":"Poltavska oblast","countryId":230,"countryCode":"UA","countryName":"Ukraine","latitude":"49.94809180","longitude":"34.00827580","wikiDataId":"Q891724"},{"id":149323,"name":"Barashi","stateId":5071,"stateCode":"53","stateName":"Poltavska oblast","countryId":230,"countryCode":"UA","countryName":"Ukraine","latitude":"50.71555556","longitude":"28.03083333","wikiDataId":"Q4077969"},{"id":149324,"name":"Bazar","stateId":5071,"stateCode":"53","stateName":"Poltavska oblast","countryId":230,"countryCode":"UA","countryName":"Ukraine","latitude":"51.04388889","longitude":"29.29361111","wikiDataId":"Q2022610"},{"id":149325,"name":"Bekhi","stateId":5071,"stateCode":"53","stateName":"Poltavska oblast","countryId":230,"countryCode":"UA","countryName":"Ukraine","latitude":"51.01972222","longitude":"28.69333333","wikiDataId":"Q4086027"},{"id":149326,"name":"Berdychiv","stateId":5071,"stateCode":"53","stateName":"Poltavska oblast","countryId":230,"countryCode":"UA","countryName":"Ukraine","latitude":"49.89194444","longitude":"28.60000000","wikiDataId":"Q158799"},{"id":149327,"name":"Berestivka","stateId":5071,"stateCode":"53","stateName":"Poltavska oblast","countryId":230,"countryCode":"UA","countryName":"Ukraine","latitude":"50.34055556","longitude":"27.47611111","wikiDataId":"Q2067931"},{"id":149328,"name":"Berestovets","stateId":5071,"stateCode":"53","stateName":"Poltavska oblast","countryId":230,"countryCode":"UA","countryName":"Ukraine","latitude":"51.02000000","longitude":"28.87027778","wikiDataId":"Q4084783"},{"id":149329,"name":"Berezianka","stateId":5071,"stateCode":"53","stateName":"Poltavska oblast","countryId":230,"countryCode":"UA","countryName":"Ukraine","latitude":"49.69194444","longitude":"29.45305556","wikiDataId":"Q4084692"},{"id":149330,"name":"Berezovii Grud","stateId":5071,"stateCode":"53","stateName":"Poltavska oblast","countryId":230,"countryCode":"UA","countryName":"Ukraine","latitude":"50.99666667","longitude":"28.35888889","wikiDataId":"Q4085537"},{"id":149331,"name":"Bereztsi","stateId":5071,"stateCode":"53","stateName":"Poltavska oblast","countryId":230,"countryCode":"UA","countryName":"Ukraine","latitude":"50.50555556","longitude":"29.31750000","wikiDataId":"Q4084689"},{"id":149332,"name":"Bicheva","stateId":5071,"stateCode":"53","stateName":"Poltavska oblast","countryId":230,"countryCode":"UA","countryName":"Ukraine","latitude":"49.75055556","longitude":"27.77777778","wikiDataId":"Q4087601"},{"id":149333,"name":"Bigun","stateId":5071,"stateCode":"53","stateName":"Poltavska oblast","countryId":230,"countryCode":"UA","countryName":"Ukraine","latitude":"51.40194444","longitude":"28.28277778","wikiDataId":"Q4080567"},{"id":149334,"name":"Bikiv","stateId":5071,"stateCode":"53","stateName":"Poltavska oblast","countryId":230,"countryCode":"UA","countryName":"Ukraine","latitude":"50.17833333","longitude":"29.29638889","wikiDataId":"Q4100957"},{"id":149335,"name":"Bila Krynytsia","stateId":5071,"stateCode":"53","stateName":"Poltavska oblast","countryId":230,"countryCode":"UA","countryName":"Ukraine","latitude":"50.63638889","longitude":"29.46361111","wikiDataId":"Q2902643"},{"id":149336,"name":"Bilii Bereg","stateId":5071,"stateCode":"53","stateName":"Poltavska oblast","countryId":230,"countryCode":"UA","countryName":"Ukraine","latitude":"50.75638889","longitude":"29.47888889","wikiDataId":"Q4083065"},{"id":149337,"name":"Bilka","stateId":5071,"stateCode":"53","stateName":"Poltavska oblast","countryId":230,"countryCode":"UA","countryName":"Ukraine","latitude":"50.81861111","longitude":"28.18777778","wikiDataId":"Q4082016"},{"id":149338,"name":"Bilylivka","stateId":5071,"stateCode":"53","stateName":"Poltavska oblast","countryId":230,"countryCode":"UA","countryName":"Ukraine","latitude":"49.68000000","longitude":"29.03000000","wikiDataId":"Q1994731"},{"id":149339,"name":"Bistrik","stateId":5071,"stateCode":"53","stateName":"Poltavska oblast","countryId":230,"countryCode":"UA","countryName":"Ukraine","latitude":"49.85638889","longitude":"28.56638889","wikiDataId":"Q4101119"},{"id":149340,"name":"Bistriyivka","stateId":5071,"stateCode":"53","stateName":"Poltavska oblast","countryId":230,"countryCode":"UA","countryName":"Ukraine","latitude":"50.47777778","longitude":"29.16472222","wikiDataId":"Q4101107"},{"id":149341,"name":"Borisivka","stateId":5071,"stateCode":"53","stateName":"Poltavska oblast","countryId":230,"countryCode":"UA","countryName":"Ukraine","latitude":"49.76934347","longitude":"34.33837579","wikiDataId":"Q4093920"},{"id":149342,"name":"Broniki","stateId":5071,"stateCode":"53","stateName":"Poltavska oblast","countryId":230,"countryCode":"UA","countryName":"Ukraine","latitude":"50.55361111","longitude":"27.80777778","wikiDataId":"Q4096993"},{"id":149344,"name":"Bronitsia","stateId":5071,"stateCode":"53","stateName":"Poltavska oblast","countryId":230,"countryCode":"UA","countryName":"Ukraine","latitude":"50.94666667","longitude":"27.34527778","wikiDataId":"Q4097007"},{"id":149343,"name":"Bronitska Guta","stateId":5071,"stateCode":"53","stateName":"Poltavska oblast","countryId":230,"countryCode":"UA","countryName":"Ukraine","latitude":"50.93138889","longitude":"27.31388889","wikiDataId":"Q4097010"},{"id":149345,"name":"Brovki Pershi","stateId":5071,"stateCode":"53","stateName":"Poltavska oblast","countryId":230,"countryCode":"UA","countryName":"Ukraine","latitude":"49.93194444","longitude":"29.19750000","wikiDataId":"Q947465"},{"id":149346,"name":"Brusyliv","stateId":5071,"stateCode":"53","stateName":"Poltavska oblast","countryId":230,"countryCode":"UA","countryName":"Ukraine","latitude":"50.28333333","longitude":"29.53333333","wikiDataId":"Q946994"},{"id":149347,"name":"Buchmany","stateId":5071,"stateCode":"53","stateName":"Poltavska oblast","countryId":230,"countryCode":"UA","countryName":"Ukraine","latitude":"51.07000000","longitude":"28.04250000","wikiDataId":"Q2670513"},{"id":149348,"name":"Buki","stateId":5071,"stateCode":"53","stateName":"Poltavska oblast","countryId":230,"countryCode":"UA","countryName":"Ukraine","latitude":"50.19638889","longitude":"28.32500000","wikiDataId":"Q4098569"},{"id":149349,"name":"Buldichiv","stateId":5071,"stateCode":"53","stateName":"Poltavska oblast","countryId":230,"countryCode":"UA","countryName":"Ukraine","latitude":"50.11361111","longitude":"27.79666667","wikiDataId":"Q4098921"},{"id":149350,"name":"Buriaki","stateId":5071,"stateCode":"53","stateName":"Poltavska oblast","countryId":230,"countryCode":"UA","countryName":"Ukraine","latitude":"49.81888889","longitude":"28.28361111","wikiDataId":"Q2913489"},{"id":149351,"name":"Burkivtsi","stateId":5071,"stateCode":"53","stateName":"Poltavska oblast","countryId":230,"countryCode":"UA","countryName":"Ukraine","latitude":"49.87888889","longitude":"28.04444444","wikiDataId":"Q4099657"},{"id":149352,"name":"Bykivka","stateId":5071,"stateCode":"53","stateName":"Poltavska oblast","countryId":230,"countryCode":"UA","countryName":"Ukraine","latitude":"50.29277778","longitude":"27.98305556","wikiDataId":"Q2670499"},{"id":149353,"name":"Chernechii Iar","stateId":5071,"stateCode":"53","stateName":"Poltavska oblast","countryId":230,"countryCode":"UA","countryName":"Ukraine","latitude":"49.83543000","longitude":"34.59174000","wikiDataId":"Q4513455"},{"id":149354,"name":"Cherniakhiv","stateId":5071,"stateCode":"53","stateName":"Poltavska oblast","countryId":230,"countryCode":"UA","countryName":"Ukraine","latitude":"50.45500000","longitude":"28.66527778","wikiDataId":"Q872377"},{"id":149355,"name":"Chervone","stateId":5071,"stateCode":"53","stateName":"Poltavska oblast","countryId":230,"countryCode":"UA","countryName":"Ukraine","latitude":"49.94972222","longitude":"28.86861111","wikiDataId":"Q787722"},{"id":149356,"name":"Chopovychi","stateId":5071,"stateCode":"53","stateName":"Poltavska oblast","countryId":230,"countryCode":"UA","countryName":"Ukraine","latitude":"50.83333333","longitude":"28.95250000","wikiDataId":"Q2980446"},{"id":149357,"name":"Chornukhy","stateId":5071,"stateCode":"53","stateName":"Poltavska oblast","countryId":230,"countryCode":"UA","countryName":"Ukraine","latitude":"50.26990573","longitude":"32.94757796","wikiDataId":"Q1973763"},{"id":149358,"name":"Chudniv","stateId":5071,"stateCode":"53","stateName":"Poltavska oblast","countryId":230,"countryCode":"UA","countryName":"Ukraine","latitude":"50.05277778","longitude":"28.09694444","wikiDataId":"Q149271"},{"id":149359,"name":"Chutove","stateId":5071,"stateCode":"53","stateName":"Poltavska oblast","countryId":230,"countryCode":"UA","countryName":"Ukraine","latitude":"49.71689367","longitude":"35.17463951","wikiDataId":"Q2000843"},{"id":149360,"name":"Dashynka","stateId":5071,"stateCode":"53","stateName":"Poltavska oblast","countryId":230,"countryCode":"UA","countryName":"Ukraine","latitude":"50.64944444","longitude":"28.39500000","wikiDataId":"Q4155490"},{"id":149361,"name":"Davidivka","stateId":5071,"stateCode":"53","stateName":"Poltavska oblast","countryId":230,"countryCode":"UA","countryName":"Ukraine","latitude":"50.52694444","longitude":"28.41000000","wikiDataId":"Q4153834"},{"id":149362,"name":"Davydky","stateId":5071,"stateCode":"53","stateName":"Poltavska oblast","countryId":230,"countryCode":"UA","countryName":"Ukraine","latitude":"50.94888889","longitude":"28.43861111","wikiDataId":"Q4153710"},{"id":149363,"name":"Denyshi","stateId":5071,"stateCode":"53","stateName":"Poltavska oblast","countryId":230,"countryCode":"UA","countryName":"Ukraine","latitude":"50.21527778","longitude":"28.40777778","wikiDataId":"Q4158075"},{"id":149364,"name":"Derhanivka","stateId":5071,"stateCode":"53","stateName":"Poltavska oblast","countryId":230,"countryCode":"UA","countryName":"Ukraine","latitude":"49.69222222","longitude":"29.06333333","wikiDataId":"Q4158721"},{"id":149365,"name":"Dibrova","stateId":5071,"stateCode":"53","stateName":"Poltavska oblast","countryId":230,"countryCode":"UA","countryName":"Ukraine","latitude":"51.16027778","longitude":"27.97277778","wikiDataId":"Q1209354"},{"id":149366,"name":"Didkovichi","stateId":5071,"stateCode":"53","stateName":"Poltavska oblast","countryId":230,"countryCode":"UA","countryName":"Ukraine","latitude":"51.09972222","longitude":"28.83194444","wikiDataId":"Q4156713"},{"id":149367,"name":"Didovichi","stateId":5071,"stateCode":"53","stateName":"Poltavska oblast","countryId":230,"countryCode":"UA","countryName":"Ukraine","latitude":"50.60916667","longitude":"27.35583333","wikiDataId":"Q4156741"},{"id":149368,"name":"Divochki","stateId":5071,"stateCode":"53","stateName":"Poltavska oblast","countryId":230,"countryCode":"UA","countryName":"Ukraine","latitude":"50.44694444","longitude":"28.74972222","wikiDataId":"Q4156444"},{"id":149369,"name":"Dovbysh","stateId":5071,"stateCode":"53","stateName":"Poltavska oblast","countryId":230,"countryCode":"UA","countryName":"Ukraine","latitude":"50.37223889","longitude":"27.98947500","wikiDataId":"Q2993483"},{"id":149370,"name":"Druzhba","stateId":5071,"stateCode":"53","stateName":"Poltavska oblast","countryId":230,"countryCode":"UA","countryName":"Ukraine","latitude":"51.18611111","longitude":"27.96611111","wikiDataId":"Q611942"},{"id":149371,"name":"Dubivka","stateId":5071,"stateCode":"53","stateName":"Poltavska oblast","countryId":230,"countryCode":"UA","countryName":"Ukraine","latitude":"49.90861111","longitude":"28.78444444","wikiDataId":"Q4169424"},{"id":149372,"name":"Dubnyki","stateId":5071,"stateCode":"53","stateName":"Poltavska oblast","countryId":230,"countryCode":"UA","countryName":"Ukraine","latitude":"50.87416667","longitude":"27.34888889","wikiDataId":"Q7277540"},{"id":149373,"name":"Dubrivka","stateId":5071,"stateCode":"53","stateName":"Poltavska oblast","countryId":230,"countryCode":"UA","countryName":"Ukraine","latitude":"50.28527778","longitude":"29.59333333","wikiDataId":"Q4161162"},{"id":149374,"name":"Dvorishche","stateId":5071,"stateCode":"53","stateName":"Poltavska oblast","countryId":230,"countryCode":"UA","countryName":"Ukraine","latitude":"50.56194444","longitude":"28.39777778","wikiDataId":"Q4156008"},{"id":149375,"name":"Dykanka","stateId":5071,"stateCode":"53","stateName":"Poltavska oblast","countryId":230,"countryCode":"UA","countryName":"Ukraine","latitude":"49.82223788","longitude":"34.53408003","wikiDataId":"Q1268711"},{"id":149376,"name":"Elivka","stateId":5071,"stateCode":"53","stateName":"Poltavska oblast","countryId":230,"countryCode":"UA","countryName":"Ukraine","latitude":"50.72722222","longitude":"29.18388889","wikiDataId":"Q4174648"},{"id":149377,"name":"Fedorivka","stateId":5071,"stateCode":"53","stateName":"Poltavska oblast","countryId":230,"countryCode":"UA","countryName":"Ukraine","latitude":"49.77617039","longitude":"34.43944548","wikiDataId":"Q4482025"},{"id":149378,"name":"Filenkove","stateId":5071,"stateCode":"53","stateName":"Poltavska oblast","countryId":230,"countryCode":"UA","countryName":"Ukraine","latitude":"49.83559723","longitude":"35.00298408","wikiDataId":"Q4483847"},{"id":149379,"name":"Glinivtsi","stateId":5071,"stateCode":"53","stateName":"Poltavska oblast","countryId":230,"countryCode":"UA","countryName":"Ukraine","latitude":"50.04611111","longitude":"28.80416667","wikiDataId":"Q4139837"},{"id":149380,"name":"Godikha","stateId":5071,"stateCode":"53","stateName":"Poltavska oblast","countryId":230,"countryCode":"UA","countryName":"Ukraine","latitude":"50.19027778","longitude":"28.22194444","wikiDataId":"Q4141222"},{"id":149381,"name":"Golovenka","stateId":5071,"stateCode":"53","stateName":"Poltavska oblast","countryId":230,"countryCode":"UA","countryName":"Ukraine","latitude":"50.15361111","longitude":"28.54388889","wikiDataId":"Q4141784"},{"id":149382,"name":"Golovki","stateId":5071,"stateCode":"53","stateName":"Poltavska oblast","countryId":230,"countryCode":"UA","countryName":"Ukraine","latitude":"50.83972222","longitude":"29.13333333","wikiDataId":"Q4141903"},{"id":149383,"name":"Golubyatin","stateId":5071,"stateCode":"53","stateName":"Poltavska oblast","countryId":230,"countryCode":"UA","countryName":"Ukraine","latitude":"49.85500000","longitude":"29.51361111","wikiDataId":"Q4142643"},{"id":149384,"name":"Gorbuliv","stateId":5071,"stateCode":"53","stateName":"Poltavska oblast","countryId":230,"countryCode":"UA","countryName":"Ukraine","latitude":"50.53750000","longitude":"28.92333333","wikiDataId":"Q4143670"},{"id":149385,"name":"Gordiyivka","stateId":5071,"stateCode":"53","stateName":"Poltavska oblast","countryId":230,"countryCode":"UA","countryName":"Ukraine","latitude":"50.05444444","longitude":"27.87500000","wikiDataId":"Q4143849"},{"id":149386,"name":"Gorianshchina","stateId":5071,"stateCode":"53","stateName":"Poltavska oblast","countryId":230,"countryCode":"UA","countryName":"Ukraine","latitude":"49.91185729","longitude":"34.45818988","wikiDataId":"Q4146264"},{"id":149387,"name":"Gorodkivka","stateId":5071,"stateCode":"53","stateName":"Poltavska oblast","countryId":230,"countryCode":"UA","countryName":"Ukraine","latitude":"49.90972222","longitude":"28.99416667","wikiDataId":"Q4145259"},{"id":149388,"name":"Gorodok","stateId":5071,"stateCode":"53","stateName":"Poltavska oblast","countryId":230,"countryCode":"UA","countryName":"Ukraine","latitude":"49.60027778","longitude":"29.19500000","wikiDataId":"Q4145357"},{"id":149389,"name":"Gorodske","stateId":5071,"stateCode":"53","stateName":"Poltavska oblast","countryId":230,"countryCode":"UA","countryName":"Ukraine","latitude":"50.37750000","longitude":"29.16888889","wikiDataId":"Q4145468"},{"id":149390,"name":"Goropayi","stateId":5071,"stateCode":"53","stateName":"Poltavska oblast","countryId":230,"countryCode":"UA","countryName":"Ukraine","latitude":"50.01388889","longitude":"27.83388889","wikiDataId":"Q4145756"},{"id":149391,"name":"Goshiv","stateId":5071,"stateCode":"53","stateName":"Poltavska oblast","countryId":230,"countryCode":"UA","countryName":"Ukraine","latitude":"51.23916667","longitude":"28.71388889","wikiDataId":"Q4147163"},{"id":149392,"name":"Gromada","stateId":5071,"stateCode":"53","stateName":"Poltavska oblast","countryId":230,"countryCode":"UA","countryName":"Ukraine","latitude":"49.94638889","longitude":"27.76222222","wikiDataId":"Q4150140"},{"id":149393,"name":"Grozyne","stateId":5071,"stateCode":"53","stateName":"Poltavska oblast","countryId":230,"countryCode":"UA","countryName":"Ukraine","latitude":"50.95888889","longitude":"28.73055556","wikiDataId":"Q4150085"},{"id":149394,"name":"Grushki","stateId":5071,"stateCode":"53","stateName":"Poltavska oblast","countryId":230,"countryCode":"UA","countryName":"Ukraine","latitude":"50.49277778","longitude":"28.45500000","wikiDataId":"Q4150958"},{"id":149395,"name":"Gubske","stateId":5071,"stateCode":"53","stateName":"Poltavska oblast","countryId":230,"countryCode":"UA","countryName":"Ukraine","latitude":"50.09951906","longitude":"32.83123218","wikiDataId":"Q4151463"},{"id":149396,"name":"Gulsk","stateId":5071,"stateCode":"53","stateName":"Poltavska oblast","countryId":230,"countryCode":"UA","countryName":"Ukraine","latitude":"50.51916667","longitude":"27.72111111","wikiDataId":"Q4151907"},{"id":149397,"name":"Gumenniki","stateId":5071,"stateCode":"53","stateName":"Poltavska oblast","countryId":230,"countryCode":"UA","countryName":"Ukraine","latitude":"50.39694444","longitude":"28.92666667","wikiDataId":"Q4152062"},{"id":149398,"name":"Guta-Potiyivka","stateId":5071,"stateCode":"53","stateName":"Poltavska oblast","countryId":230,"countryCode":"UA","countryName":"Ukraine","latitude":"50.69111111","longitude":"28.87416667","wikiDataId":"Q4152948"},{"id":149399,"name":"Guto-Mariatin","stateId":5071,"stateCode":"53","stateName":"Poltavska oblast","countryId":230,"countryCode":"UA","countryName":"Ukraine","latitude":"51.03000000","longitude":"29.41666667","wikiDataId":"Q4153035"},{"id":149400,"name":"Hadiach","stateId":5071,"stateCode":"53","stateName":"Poltavska oblast","countryId":230,"countryCode":"UA","countryName":"Ukraine","latitude":"50.36666667","longitude":"34.00000000","wikiDataId":"Q268638"},{"id":149401,"name":"Hlobyne","stateId":5071,"stateCode":"53","stateName":"Poltavska oblast","countryId":230,"countryCode":"UA","countryName":"Ukraine","latitude":"49.38856468","longitude":"33.26320863","wikiDataId":"Q268791"},{"id":149402,"name":"Holovyne","stateId":5071,"stateCode":"53","stateName":"Poltavska oblast","countryId":230,"countryCode":"UA","countryName":"Ukraine","latitude":"50.47250000","longitude":"28.82805556","wikiDataId":"Q2670503"},{"id":149403,"name":"Holubivka","stateId":5071,"stateCode":"53","stateName":"Poltavska oblast","countryId":230,"countryCode":"UA","countryName":"Ukraine","latitude":"49.68097000","longitude":"29.16059000","wikiDataId":"Q4142498"},{"id":149404,"name":"Horishni Plavni","stateId":5071,"stateCode":"53","stateName":"Poltavska oblast","countryId":230,"countryCode":"UA","countryName":"Ukraine","latitude":"49.01066008","longitude":"33.65624556","wikiDataId":"Q998227"},{"id":149405,"name":"Horodets","stateId":5071,"stateCode":"53","stateName":"Poltavska oblast","countryId":230,"countryCode":"UA","countryName":"Ukraine","latitude":"51.37000000","longitude":"28.24138889","wikiDataId":"Q7284988"},{"id":149406,"name":"Horodnytsia","stateId":5071,"stateCode":"53","stateName":"Poltavska oblast","countryId":230,"countryCode":"UA","countryName":"Ukraine","latitude":"50.80944444","longitude":"27.31833333","wikiDataId":"Q2670476"},{"id":149407,"name":"Hradyzk","stateId":5071,"stateCode":"53","stateName":"Poltavska oblast","countryId":230,"countryCode":"UA","countryName":"Ukraine","latitude":"49.23306925","longitude":"33.13203713","wikiDataId":"Q2011635"},{"id":149408,"name":"Hranitne","stateId":5071,"stateCode":"53","stateName":"Poltavska oblast","countryId":230,"countryCode":"UA","countryName":"Ukraine","latitude":"50.74277778","longitude":"29.35222222","wikiDataId":"Q2980455"},{"id":149409,"name":"Hrebinka","stateId":5071,"stateCode":"53","stateName":"Poltavska oblast","countryId":230,"countryCode":"UA","countryName":"Ukraine","latitude":"50.11799594","longitude":"32.43958508","wikiDataId":"Q268814"},{"id":149410,"name":"Hryshkivtsi","stateId":5071,"stateCode":"53","stateName":"Poltavska oblast","countryId":230,"countryCode":"UA","countryName":"Ukraine","latitude":"49.93555556","longitude":"28.60166667","wikiDataId":"Q2993492"},{"id":149411,"name":"Iemilivka","stateId":5071,"stateCode":"53","stateName":"Poltavska oblast","countryId":230,"countryCode":"UA","countryName":"Ukraine","latitude":"50.68777778","longitude":"28.72805556","wikiDataId":"Q4175477"},{"id":149412,"name":"Ievgenivka","stateId":5071,"stateCode":"53","stateName":"Poltavska oblast","countryId":230,"countryCode":"UA","countryName":"Ukraine","latitude":"50.63833333","longitude":"27.99833333","wikiDataId":"Q4172872"},{"id":149413,"name":"Irshansk","stateId":5071,"stateCode":"53","stateName":"Poltavska oblast","countryId":230,"countryCode":"UA","countryName":"Ukraine","latitude":"50.71666667","longitude":"28.71666667","wikiDataId":"Q2652172"},{"id":149414,"name":"Ivanivka","stateId":5071,"stateCode":"53","stateName":"Poltavska oblast","countryId":230,"countryCode":"UA","countryName":"Ukraine","latitude":"50.43777778","longitude":"27.62944444","wikiDataId":"Q52444"},{"id":149415,"name":"Ivankiv","stateId":5071,"stateCode":"53","stateName":"Poltavska oblast","countryId":230,"countryCode":"UA","countryName":"Ukraine","latitude":"50.39611111","longitude":"28.56888889","wikiDataId":"Q4195806"},{"id":149416,"name":"Ivanopil","stateId":5071,"stateCode":"53","stateName":"Poltavska oblast","countryId":230,"countryCode":"UA","countryName":"Ukraine","latitude":"49.85861111","longitude":"28.21555556","wikiDataId":"Q2670459"},{"id":149417,"name":"Kamiani Potoky","stateId":5071,"stateCode":"53","stateName":"Poltavska oblast","countryId":230,"countryCode":"UA","countryName":"Ukraine","latitude":"48.98589514","longitude":"33.51862610","wikiDataId":"Q4211228"},{"id":149418,"name":"Kardashivka","stateId":5071,"stateCode":"53","stateName":"Poltavska oblast","countryId":230,"countryCode":"UA","countryName":"Ukraine","latitude":"49.88384899","longitude":"34.64044604","wikiDataId":"Q4214782"},{"id":149419,"name":"Karlivka","stateId":5071,"stateCode":"53","stateName":"Poltavska oblast","countryId":230,"countryCode":"UA","countryName":"Ukraine","latitude":"49.45474986","longitude":"35.13079636","wikiDataId":"Q218393"},{"id":149420,"name":"Khodaky","stateId":5071,"stateCode":"53","stateName":"Poltavska oblast","countryId":230,"countryCode":"UA","countryName":"Ukraine","latitude":"50.97805556","longitude":"28.80666667","wikiDataId":"Q2067925"},{"id":149421,"name":"Khorol","stateId":5071,"stateCode":"53","stateName":"Poltavska oblast","countryId":230,"countryCode":"UA","countryName":"Ukraine","latitude":"49.78403100","longitude":"33.25886100","wikiDataId":"Q269530"},{"id":149422,"name":"Khoroshiv","stateId":5071,"stateCode":"53","stateName":"Poltavska oblast","countryId":230,"countryCode":"UA","countryName":"Ukraine","latitude":"50.60000000","longitude":"28.45000000","wikiDataId":"Q2993479"},{"id":149423,"name":"Kobeliaky","stateId":5071,"stateCode":"53","stateName":"Poltavska oblast","countryId":230,"countryCode":"UA","countryName":"Ukraine","latitude":"49.14736024","longitude":"34.19927008","wikiDataId":"Q269538"},{"id":149424,"name":"Kononenki","stateId":5071,"stateCode":"53","stateName":"Poltavska oblast","countryId":230,"countryCode":"UA","countryName":"Ukraine","latitude":"49.91143501","longitude":"34.51172749","wikiDataId":"Q4231064"},{"id":149425,"name":"Korchak","stateId":5071,"stateCode":"53","stateName":"Poltavska oblast","countryId":230,"countryCode":"UA","countryName":"Ukraine","latitude":"50.21250000","longitude":"28.47638889","wikiDataId":"Q4234462"},{"id":149426,"name":"Kornyn","stateId":5071,"stateCode":"53","stateName":"Poltavska oblast","countryId":230,"countryCode":"UA","countryName":"Ukraine","latitude":"50.09527778","longitude":"29.53583333","wikiDataId":"Q2980432"},{"id":149427,"name":"Korosten","stateId":5071,"stateCode":"53","stateName":"Poltavska oblast","countryId":230,"countryCode":"UA","countryName":"Ukraine","latitude":"50.95000000","longitude":"28.65000000","wikiDataId":"Q158904"},{"id":149428,"name":"Korostyshiv","stateId":5071,"stateCode":"53","stateName":"Poltavska oblast","countryId":230,"countryCode":"UA","countryName":"Ukraine","latitude":"50.31861111","longitude":"29.05916667","wikiDataId":"Q149190"},{"id":149429,"name":"Kotelva","stateId":5071,"stateCode":"53","stateName":"Poltavska oblast","countryId":230,"countryCode":"UA","countryName":"Ukraine","latitude":"50.06832759","longitude":"34.75921130","wikiDataId":"Q1958270"},{"id":149430,"name":"Kozelshchyna","stateId":5071,"stateCode":"53","stateName":"Poltavska oblast","countryId":230,"countryCode":"UA","countryName":"Ukraine","latitude":"49.21550000","longitude":"33.85180000","wikiDataId":"Q2474724"},{"id":149431,"name":"Kratova Govtva","stateId":5071,"stateCode":"53","stateName":"Poltavska oblast","countryId":230,"countryCode":"UA","countryName":"Ukraine","latitude":"49.87362868","longitude":"34.50805284","wikiDataId":"Q4239871"},{"id":149432,"name":"Kremenchuk","stateId":5071,"stateCode":"53","stateName":"Poltavska oblast","countryId":230,"countryCode":"UA","countryName":"Ukraine","latitude":"49.07750000","longitude":"33.42388889","wikiDataId":"Q156724"},{"id":149433,"name":"Krukovskiy Raion","stateId":5071,"stateCode":"53","stateName":"Poltavska oblast","countryId":230,"countryCode":"UA","countryName":"Ukraine","latitude":"49.06672000","longitude":"33.45320000","wikiDataId":"Q12115170"},{"id":149434,"name":"Kucherivka","stateId":5071,"stateCode":"53","stateName":"Poltavska oblast","countryId":230,"countryCode":"UA","countryName":"Ukraine","latitude":"49.74801949","longitude":"34.29072744","wikiDataId":"Q4249976"},{"id":149435,"name":"Kupech","stateId":5071,"stateCode":"53","stateName":"Poltavska oblast","countryId":230,"countryCode":"UA","countryName":"Ukraine","latitude":"50.99611111","longitude":"28.78472222","wikiDataId":"Q4247459"},{"id":149436,"name":"Kvitneve","stateId":5071,"stateCode":"53","stateName":"Poltavska oblast","countryId":230,"countryCode":"UA","countryName":"Ukraine","latitude":"49.98472222","longitude":"29.51583333","wikiDataId":"Q4180942"},{"id":149437,"name":"Landari","stateId":5071,"stateCode":"53","stateName":"Poltavska oblast","countryId":230,"countryCode":"UA","countryName":"Ukraine","latitude":"49.78295521","longitude":"34.38817299","wikiDataId":"Q4253826"},{"id":149438,"name":"Lani","stateId":5071,"stateCode":"53","stateName":"Poltavska oblast","countryId":230,"countryCode":"UA","countryName":"Ukraine","latitude":"49.71283212","longitude":"34.43433283","wikiDataId":"Q4254103"},{"id":149439,"name":"Lasky","stateId":5071,"stateCode":"53","stateName":"Poltavska oblast","countryId":230,"countryCode":"UA","countryName":"Ukraine","latitude":"51.26555556","longitude":"28.95638889","wikiDataId":"Q4254749"},{"id":149440,"name":"Lazarivka","stateId":5071,"stateCode":"53","stateName":"Poltavska oblast","countryId":230,"countryCode":"UA","countryName":"Ukraine","latitude":"50.31250000","longitude":"29.58583333","wikiDataId":"Q4252858"},{"id":149441,"name":"Lisogirka","stateId":5071,"stateCode":"53","stateName":"Poltavska oblast","countryId":230,"countryCode":"UA","countryName":"Ukraine","latitude":"49.75916667","longitude":"27.90305556","wikiDataId":"Q4259873"},{"id":149442,"name":"Liubar","stateId":5071,"stateCode":"53","stateName":"Poltavska oblast","countryId":230,"countryCode":"UA","countryName":"Ukraine","latitude":"49.92138889","longitude":"27.75833333","wikiDataId":"Q2652151"},{"id":149443,"name":"Lokhvytsia","stateId":5071,"stateCode":"53","stateName":"Poltavska oblast","countryId":230,"countryCode":"UA","countryName":"Ukraine","latitude":"50.36104610","longitude":"33.26517113","wikiDataId":"Q269512"},{"id":149444,"name":"Lubny","stateId":5071,"stateCode":"53","stateName":"Poltavska oblast","countryId":230,"countryCode":"UA","countryName":"Ukraine","latitude":"50.01856413","longitude":"32.98686035","wikiDataId":"Q269517"},{"id":149445,"name":"Luhyny","stateId":5071,"stateCode":"53","stateName":"Poltavska oblast","countryId":230,"countryCode":"UA","countryName":"Ukraine","latitude":"51.06666667","longitude":"28.38333333","wikiDataId":"Q2652141"},{"id":149446,"name":"Lutovynivka","stateId":5071,"stateCode":"53","stateName":"Poltavska oblast","countryId":230,"countryCode":"UA","countryName":"Ukraine","latitude":"49.23722222","longitude":"33.90500000","wikiDataId":"Q4269840"},{"id":149447,"name":"Mala Rudka","stateId":5071,"stateCode":"53","stateName":"Poltavska oblast","countryId":230,"countryCode":"UA","countryName":"Ukraine","latitude":"49.73993159","longitude":"34.44651297","wikiDataId":"Q4277288"},{"id":149448,"name":"Malyn","stateId":5071,"stateCode":"53","stateName":"Poltavska oblast","countryId":230,"countryCode":"UA","countryName":"Ukraine","latitude":"50.76888889","longitude":"29.27000000","wikiDataId":"Q148997"},{"id":149449,"name":"Marchenki","stateId":5071,"stateCode":"53","stateName":"Poltavska oblast","countryId":230,"countryCode":"UA","countryName":"Ukraine","latitude":"49.84310165","longitude":"34.38291991","wikiDataId":"Q4283138"},{"id":149450,"name":"Markivka","stateId":5071,"stateCode":"53","stateName":"Poltavska oblast","countryId":230,"countryCode":"UA","countryName":"Ukraine","latitude":"49.30247078","longitude":"34.07348137","wikiDataId":"Q4282112"},{"id":149451,"name":"Maschiwka","stateId":5071,"stateCode":"53","stateName":"Poltavska oblast","countryId":230,"countryCode":"UA","countryName":"Ukraine","latitude":"49.44491715","longitude":"34.87575392","wikiDataId":"Q2000847"},{"id":149452,"name":"Morozivka","stateId":5071,"stateCode":"53","stateName":"Poltavska oblast","countryId":230,"countryCode":"UA","countryName":"Ukraine","latitude":"50.67138889","longitude":"27.45166667","wikiDataId":"Q7224179"},{"id":149453,"name":"Myrhorod","stateId":5071,"stateCode":"53","stateName":"Poltavska oblast","countryId":230,"countryCode":"UA","countryName":"Ukraine","latitude":"49.96397912","longitude":"33.61238091","wikiDataId":"Q161961"},{"id":149454,"name":"Myropil","stateId":5071,"stateCode":"53","stateName":"Poltavska oblast","countryId":230,"countryCode":"UA","countryName":"Ukraine","latitude":"50.10750000","longitude":"27.70583333","wikiDataId":"Q2980442"},{"id":149455,"name":"Narodychi","stateId":5071,"stateCode":"53","stateName":"Poltavska oblast","countryId":230,"countryCode":"UA","countryName":"Ukraine","latitude":"51.20231667","longitude":"29.08139444","wikiDataId":"Q2603008"},{"id":149456,"name":"Nedoharky","stateId":5071,"stateCode":"53","stateName":"Poltavska oblast","countryId":230,"countryCode":"UA","countryName":"Ukraine","latitude":"49.16921500","longitude":"33.25495000","wikiDataId":"Q4316099"},{"id":149457,"name":"Nemyryntsi","stateId":5071,"stateCode":"53","stateName":"Poltavska oblast","countryId":230,"countryCode":"UA","countryName":"Ukraine","latitude":"49.62000000","longitude":"29.05000000","wikiDataId":"Q4316931"},{"id":149458,"name":"Nova Borova","stateId":5071,"stateCode":"53","stateName":"Poltavska oblast","countryId":230,"countryCode":"UA","countryName":"Ukraine","latitude":"50.69222222","longitude":"28.63666667","wikiDataId":"Q2980437"},{"id":149459,"name":"Nova Chortoriia","stateId":5071,"stateCode":"53","stateName":"Poltavska oblast","countryId":230,"countryCode":"UA","countryName":"Ukraine","latitude":"50.02830000","longitude":"27.70810000","wikiDataId":"Q4322387"},{"id":149460,"name":"Novi Bilokorovychi","stateId":5071,"stateCode":"53","stateName":"Poltavska oblast","countryId":230,"countryCode":"UA","countryName":"Ukraine","latitude":"51.04750000","longitude":"28.05194444","wikiDataId":"Q2629639"},{"id":149461,"name":"Novi Sanzhary","stateId":5071,"stateCode":"53","stateName":"Poltavska oblast","countryId":230,"countryCode":"UA","countryName":"Ukraine","latitude":"49.33539098","longitude":"34.31619855","wikiDataId":"Q1992503"},{"id":149462,"name":"Novi Vorobyi","stateId":5071,"stateCode":"53","stateName":"Poltavska oblast","countryId":230,"countryCode":"UA","countryName":"Ukraine","latitude":"50.86972222","longitude":"29.34333333","wikiDataId":"Q4326351"},{"id":149463,"name":"Novohrad-Volynskyi","stateId":5071,"stateCode":"53","stateName":"Poltavska oblast","countryId":230,"countryCode":"UA","countryName":"Ukraine","latitude":"50.58333333","longitude":"27.63333333","wikiDataId":"Q149024"},{"id":149464,"name":"Novoozerianka","stateId":5071,"stateCode":"53","stateName":"Poltavska oblast","countryId":230,"countryCode":"UA","countryName":"Ukraine","latitude":"51.21333333","longitude":"28.00194444","wikiDataId":"Q2670496"},{"id":149465,"name":"Nyvky","stateId":5071,"stateCode":"53","stateName":"Poltavska oblast","countryId":230,"countryCode":"UA","countryName":"Ukraine","latitude":"51.35000000","longitude":"29.11666667","wikiDataId":"Q4318465"},{"id":149466,"name":"Odariukivka","stateId":5071,"stateCode":"53","stateName":"Poltavska oblast","countryId":230,"countryCode":"UA","countryName":"Ukraine","latitude":"49.73973669","longitude":"34.35914676","wikiDataId":"Q4331345"},{"id":149467,"name":"Olefirshchina","stateId":5071,"stateCode":"53","stateName":"Poltavska oblast","countryId":230,"countryCode":"UA","countryName":"Ukraine","latitude":"49.88598650","longitude":"34.58571058","wikiDataId":"Q4333679"},{"id":149468,"name":"Olevsk","stateId":5071,"stateCode":"53","stateName":"Poltavska oblast","countryId":230,"countryCode":"UA","countryName":"Ukraine","latitude":"51.22777778","longitude":"27.64805556","wikiDataId":"Q913143"},{"id":149469,"name":"Onatski","stateId":5071,"stateCode":"53","stateName":"Poltavska oblast","countryId":230,"countryCode":"UA","countryName":"Ukraine","latitude":"49.88676376","longitude":"34.46003707","wikiDataId":"Q4334809"},{"id":149470,"name":"Opishnia","stateId":5071,"stateCode":"53","stateName":"Poltavska oblast","countryId":230,"countryCode":"UA","countryName":"Ukraine","latitude":"49.95635316","longitude":"34.61200414","wikiDataId":"Q1020333"},{"id":149471,"name":"Orzhytsia","stateId":5071,"stateCode":"53","stateName":"Poltavska oblast","countryId":230,"countryCode":"UA","countryName":"Ukraine","latitude":"49.79097957","longitude":"32.70152650","wikiDataId":"Q1020041"},{"id":149472,"name":"Ovruch","stateId":5071,"stateCode":"53","stateName":"Poltavska oblast","countryId":230,"countryCode":"UA","countryName":"Ukraine","latitude":"51.32444444","longitude":"28.80805556","wikiDataId":"Q27039"},{"id":149473,"name":"Ozerne","stateId":5071,"stateCode":"53","stateName":"Poltavska oblast","countryId":230,"countryCode":"UA","countryName":"Ukraine","latitude":"50.17944444","longitude":"28.73611111","wikiDataId":"Q1586535"},{"id":149474,"name":"Pavoloch","stateId":5071,"stateCode":"53","stateName":"Poltavska oblast","countryId":230,"countryCode":"UA","countryName":"Ukraine","latitude":"49.86916667","longitude":"29.44916667","wikiDataId":"Q4341950"},{"id":149475,"name":"Pershotravensk","stateId":5071,"stateCode":"53","stateName":"Poltavska oblast","countryId":230,"countryCode":"UA","countryName":"Ukraine","latitude":"50.20111111","longitude":"27.63388889","wikiDataId":"Q2629643"},{"id":149476,"name":"Pershotravneve","stateId":5071,"stateCode":"53","stateName":"Poltavska oblast","countryId":230,"countryCode":"UA","countryName":"Ukraine","latitude":"51.38916667","longitude":"28.86250000","wikiDataId":"Q2670465"},{"id":149477,"name":"Petrenki","stateId":5071,"stateCode":"53","stateName":"Poltavska oblast","countryId":230,"countryCode":"UA","countryName":"Ukraine","latitude":"49.73164740","longitude":"34.33764355","wikiDataId":"Q4360469"},{"id":149478,"name":"Pisarivshchina","stateId":5071,"stateCode":"53","stateName":"Poltavska oblast","countryId":230,"countryCode":"UA","countryName":"Ukraine","latitude":"49.85532915","longitude":"34.63195588","wikiDataId":"Q4363585"},{"id":149479,"name":"Pishchiv","stateId":5071,"stateCode":"53","stateName":"Poltavska oblast","countryId":230,"countryCode":"UA","countryName":"Ukraine","latitude":"50.60555556","longitude":"27.31694444","wikiDataId":"Q4364117"},{"id":149480,"name":"Polianka","stateId":5071,"stateCode":"53","stateName":"Poltavska oblast","countryId":230,"countryCode":"UA","countryName":"Ukraine","latitude":"50.25620278","longitude":"27.69518889","wikiDataId":"Q2670222"},{"id":149481,"name":"Poltava","stateId":5071,"stateCode":"53","stateName":"Poltavska oblast","countryId":230,"countryCode":"UA","countryName":"Ukraine","latitude":"49.57444444","longitude":"34.56861111","wikiDataId":"Q156747"},{"id":149482,"name":"Popilnia","stateId":5071,"stateCode":"53","stateName":"Poltavska oblast","countryId":230,"countryCode":"UA","countryName":"Ukraine","latitude":"49.94583333","longitude":"29.45944444","wikiDataId":"Q2652368"},{"id":149483,"name":"Popivka","stateId":5071,"stateCode":"53","stateName":"Poltavska oblast","countryId":230,"countryCode":"UA","countryName":"Ukraine","latitude":"49.82284856","longitude":"34.36835803","wikiDataId":"Q4372720"},{"id":149484,"name":"Potiivka","stateId":5071,"stateCode":"53","stateName":"Poltavska oblast","countryId":230,"countryCode":"UA","countryName":"Ukraine","latitude":"50.61972222","longitude":"28.96444444","wikiDataId":"Q2067940"},{"id":149485,"name":"Proni","stateId":5071,"stateCode":"53","stateName":"Poltavska oblast","countryId":230,"countryCode":"UA","countryName":"Ukraine","latitude":"49.78629680","longitude":"34.54425486","wikiDataId":"Q4380761"},{"id":149486,"name":"Pyriatyn","stateId":5071,"stateCode":"53","stateName":"Poltavska oblast","countryId":230,"countryCode":"UA","countryName":"Ukraine","latitude":"50.24059547","longitude":"32.50929941","wikiDataId":"Q269523"},{"id":149487,"name":"Radomyshl","stateId":5071,"stateCode":"53","stateName":"Poltavska oblast","countryId":230,"countryCode":"UA","countryName":"Ukraine","latitude":"50.49472222","longitude":"29.23333333","wikiDataId":"Q149163"},{"id":149488,"name":"Reshetylivka","stateId":5071,"stateCode":"53","stateName":"Poltavska oblast","countryId":230,"countryCode":"UA","countryName":"Ukraine","latitude":"49.56360000","longitude":"34.07630000","wikiDataId":"Q1020063"},{"id":149489,"name":"Rohachi","stateId":5071,"stateCode":"53","stateName":"Poltavska oblast","countryId":230,"countryCode":"UA","countryName":"Ukraine","latitude":"49.64413000","longitude":"29.36076000","wikiDataId":"Q4395406"},{"id":149490,"name":"Romaniv","stateId":5071,"stateCode":"53","stateName":"Poltavska oblast","countryId":230,"countryCode":"UA","countryName":"Ukraine","latitude":"50.15166667","longitude":"27.93916667","wikiDataId":"Q2629338"},{"id":149491,"name":"Romodan","stateId":5071,"stateCode":"53","stateName":"Poltavska oblast","countryId":230,"countryCode":"UA","countryName":"Ukraine","latitude":"49.99487495","longitude":"33.33073071","wikiDataId":"Q997325"},{"id":149492,"name":"Ruzhyn (settlement)","stateId":5071,"stateCode":"53","stateName":"Poltavska oblast","countryId":230,"countryCode":"UA","countryName":"Ukraine","latitude":"49.72333333","longitude":"29.22138889","wikiDataId":"Q2641606"},{"id":149493,"name":"Schyschaky","stateId":5071,"stateCode":"53","stateName":"Poltavska oblast","countryId":230,"countryCode":"UA","countryName":"Ukraine","latitude":"49.87689865","longitude":"34.00709565","wikiDataId":"Q1020043"},{"id":149494,"name":"Semenivka","stateId":5071,"stateCode":"53","stateName":"Poltavska oblast","countryId":230,"countryCode":"UA","countryName":"Ukraine","latitude":"49.60167044","longitude":"33.18746872","wikiDataId":"Q1020072"},{"id":149495,"name":"Sencha","stateId":5071,"stateCode":"53","stateName":"Poltavska oblast","countryId":230,"countryCode":"UA","countryName":"Ukraine","latitude":"50.25413446","longitude":"33.35250701","wikiDataId":"Q1470752"},{"id":149496,"name":"Shumsk","stateId":5071,"stateCode":"53","stateName":"Poltavska oblast","countryId":230,"countryCode":"UA","countryName":"Ukraine","latitude":"50.11944444","longitude":"26.11666667","wikiDataId":"Q219601"},{"id":149497,"name":"Slovechne","stateId":5071,"stateCode":"53","stateName":"Poltavska oblast","countryId":230,"countryCode":"UA","countryName":"Ukraine","latitude":"51.38111111","longitude":"28.35444444","wikiDataId":"Q3878279"},{"id":149498,"name":"Smolovivshchina","stateId":5071,"stateCode":"53","stateName":"Poltavska oblast","countryId":230,"countryCode":"UA","countryName":"Ukraine","latitude":"49.06810000","longitude":"34.43803000","wikiDataId":"Q108896852"},{"id":149499,"name":"Sokhatska Balka","stateId":5071,"stateCode":"53","stateName":"Poltavska oblast","countryId":230,"countryCode":"UA","countryName":"Ukraine","latitude":"49.79953582","longitude":"34.36245495","wikiDataId":"Q4430138"},{"id":149500,"name":"Stepanivka","stateId":5071,"stateCode":"53","stateName":"Poltavska oblast","countryId":230,"countryCode":"UA","countryName":"Ukraine","latitude":"49.75900311","longitude":"34.42956716","wikiDataId":"Q4441898"},{"id":149501,"name":"Sudivka","stateId":5071,"stateCode":"53","stateName":"Poltavska oblast","countryId":230,"countryCode":"UA","countryName":"Ukraine","latitude":"49.75552151","longitude":"34.49162461","wikiDataId":"Q4445483"},{"id":149502,"name":"Tabory","stateId":5071,"stateCode":"53","stateName":"Poltavska oblast","countryId":230,"countryCode":"UA","countryName":"Ukraine","latitude":"50.27833333","longitude":"27.59750000","wikiDataId":"Q4449304"},{"id":149503,"name":"Taraschanka","stateId":5071,"stateCode":"53","stateName":"Poltavska oblast","countryId":230,"countryCode":"UA","countryName":"Ukraine","latitude":"50.64583333","longitude":"27.51500000","wikiDataId":"Q4451918"},{"id":149504,"name":"Topory","stateId":5071,"stateCode":"53","stateName":"Poltavska oblast","countryId":230,"countryCode":"UA","countryName":"Ukraine","latitude":"49.65361111","longitude":"29.31333333","wikiDataId":"Q4460882"},{"id":149505,"name":"Travneve","stateId":5071,"stateCode":"53","stateName":"Poltavska oblast","countryId":230,"countryCode":"UA","countryName":"Ukraine","latitude":"50.42611111","longitude":"29.08000000","wikiDataId":"Q4461695"},{"id":149506,"name":"Troiany","stateId":5071,"stateCode":"53","stateName":"Poltavska oblast","countryId":230,"countryCode":"UA","countryName":"Ukraine","latitude":"49.84137052","longitude":"34.46811957","wikiDataId":"Q4464102"},{"id":149507,"name":"Vasilivka","stateId":5071,"stateCode":"53","stateName":"Poltavska oblast","countryId":230,"countryCode":"UA","countryName":"Ukraine","latitude":"49.82960962","longitude":"34.45204549","wikiDataId":"Q4104224"},{"id":149508,"name":"Velika Rudka","stateId":5071,"stateCode":"53","stateName":"Poltavska oblast","countryId":230,"countryCode":"UA","countryName":"Ukraine","latitude":"49.74811105","longitude":"34.46531945","wikiDataId":"Q4106328"},{"id":149509,"name":"Veliki Budishcha","stateId":5071,"stateCode":"53","stateName":"Poltavska oblast","countryId":230,"countryCode":"UA","countryName":"Ukraine","latitude":"49.85606039","longitude":"34.58307084","wikiDataId":"Q4106382"},{"id":149510,"name":"Velyka Bahachka","stateId":5071,"stateCode":"53","stateName":"Poltavska oblast","countryId":230,"countryCode":"UA","countryName":"Ukraine","latitude":"49.79438338","longitude":"33.72074263","wikiDataId":"Q1999887"},{"id":149511,"name":"Velyki Korovyntsi","stateId":5071,"stateCode":"53","stateName":"Poltavska oblast","countryId":230,"countryCode":"UA","countryName":"Ukraine","latitude":"49.97138889","longitude":"28.29472222","wikiDataId":"Q2670469"},{"id":149512,"name":"Velyki Sorochyntsi","stateId":5071,"stateCode":"53","stateName":"Poltavska oblast","countryId":230,"countryCode":"UA","countryName":"Ukraine","latitude":"50.02530458","longitude":"33.94765459","wikiDataId":"Q1666449"},{"id":149513,"name":"Veresna","stateId":5071,"stateCode":"53","stateName":"Poltavska oblast","countryId":230,"countryCode":"UA","countryName":"Ukraine","latitude":"50.38222222","longitude":"27.30750000","wikiDataId":"Q4107700"},{"id":149514,"name":"Veselivka","stateId":5071,"stateCode":"53","stateName":"Poltavska oblast","countryId":230,"countryCode":"UA","countryName":"Ukraine","latitude":"49.73583840","longitude":"34.49733875","wikiDataId":"Q4109371"},{"id":149515,"name":"Virlya","stateId":5071,"stateCode":"53","stateName":"Poltavska oblast","countryId":230,"countryCode":"UA","countryName":"Ukraine","latitude":"50.34111111","longitude":"27.70083333","wikiDataId":"Q4112053"},{"id":149516,"name":"Vodiana Balka","stateId":5071,"stateCode":"53","stateName":"Poltavska oblast","countryId":230,"countryCode":"UA","countryName":"Ukraine","latitude":"49.90247078","longitude":"34.48073506","wikiDataId":"Q4114195"},{"id":149517,"name":"Yablunets","stateId":5071,"stateCode":"53","stateName":"Poltavska oblast","countryId":230,"countryCode":"UA","countryName":"Ukraine","latitude":"50.80000000","longitude":"28.06666667","wikiDataId":"Q2670247"},{"id":149518,"name":"Yarun","stateId":5071,"stateCode":"53","stateName":"Poltavska oblast","countryId":230,"countryCode":"UA","countryName":"Ukraine","latitude":"50.54333333","longitude":"27.46611111","wikiDataId":"Q4539028"},{"id":149519,"name":"Yemilchyne","stateId":5071,"stateCode":"53","stateName":"Poltavska oblast","countryId":230,"countryCode":"UA","countryName":"Ukraine","latitude":"50.87083333","longitude":"27.80277778","wikiDataId":"Q2641633"},{"id":149520,"name":"Zabaro-Davidivka","stateId":5071,"stateCode":"53","stateName":"Poltavska oblast","countryId":230,"countryCode":"UA","countryName":"Ukraine","latitude":"50.97027778","longitude":"27.45305556","wikiDataId":"Q4182362"},{"id":149521,"name":"Zadovga","stateId":5071,"stateCode":"53","stateName":"Poltavska oblast","countryId":230,"countryCode":"UA","countryName":"Ukraine","latitude":"49.27884000","longitude":"33.91136000","wikiDataId":"Q4183969"},{"id":149522,"name":"Zakrinichchia","stateId":5071,"stateCode":"53","stateName":"Poltavska oblast","countryId":230,"countryCode":"UA","countryName":"Ukraine","latitude":"50.40000000","longitude":"27.28416667","wikiDataId":"Q4185014"},{"id":149523,"name":"Zalissia","stateId":5071,"stateCode":"53","stateName":"Poltavska oblast","countryId":230,"countryCode":"UA","countryName":"Ukraine","latitude":"51.26444444","longitude":"29.19805556","wikiDataId":"Q4185265"},{"id":149524,"name":"Zaliznia","stateId":5071,"stateCode":"53","stateName":"Poltavska oblast","countryId":230,"countryCode":"UA","countryName":"Ukraine","latitude":"50.15000000","longitude":"28.52222222","wikiDataId":"Q4185403"},{"id":149525,"name":"Zaluzhne","stateId":5071,"stateCode":"53","stateName":"Poltavska oblast","countryId":230,"countryCode":"UA","countryName":"Ukraine","latitude":"50.23833333","longitude":"27.96805556","wikiDataId":"Q4185527"},{"id":149526,"name":"Zapadnia","stateId":5071,"stateCode":"53","stateName":"Poltavska oblast","countryId":230,"countryCode":"UA","countryName":"Ukraine","latitude":"50.19055556","longitude":"29.32916667","wikiDataId":"Q4186608"},{"id":149527,"name":"Zarichchia","stateId":5071,"stateCode":"53","stateName":"Poltavska oblast","countryId":230,"countryCode":"UA","countryName":"Ukraine","latitude":"49.71111111","longitude":"29.22888889","wikiDataId":"Q4187421"},{"id":149528,"name":"Zarudintsi","stateId":5071,"stateCode":"53","stateName":"Poltavska oblast","countryId":230,"countryCode":"UA","countryName":"Ukraine","latitude":"49.65333333","longitude":"29.19222222","wikiDataId":"Q4187633"},{"id":149529,"name":"Zavodske","stateId":5071,"stateCode":"53","stateName":"Poltavska oblast","countryId":230,"countryCode":"UA","countryName":"Ukraine","latitude":"50.40019868","longitude":"33.39081277","wikiDataId":"Q269438"},{"id":149530,"name":"Zbranki","stateId":5071,"stateCode":"53","stateName":"Poltavska oblast","countryId":230,"countryCode":"UA","countryName":"Ukraine","latitude":"51.29833333","longitude":"28.64583333","wikiDataId":"Q7268773"},{"id":149531,"name":"Zdorovets","stateId":5071,"stateCode":"53","stateName":"Poltavska oblast","countryId":230,"countryCode":"UA","countryName":"Ukraine","latitude":"50.90694444","longitude":"27.88611111","wikiDataId":"Q4190003"},{"id":149532,"name":"Zherdeli","stateId":5071,"stateCode":"53","stateName":"Poltavska oblast","countryId":230,"countryCode":"UA","countryName":"Ukraine","latitude":"49.89888889","longitude":"28.97000000","wikiDataId":"Q4179550"},{"id":149533,"name":"Zhitintsi","stateId":5071,"stateCode":"53","stateName":"Poltavska oblast","countryId":230,"countryCode":"UA","countryName":"Ukraine","latitude":"49.91388889","longitude":"27.57194444","wikiDataId":"Q4180655"},{"id":149534,"name":"Zhovte","stateId":5071,"stateCode":"53","stateName":"Poltavska oblast","countryId":230,"countryCode":"UA","countryName":"Ukraine","latitude":"50.40444444","longitude":"27.82166667","wikiDataId":"Q4182075"},{"id":149535,"name":"Zhovtii Brid","stateId":5071,"stateCode":"53","stateName":"Poltavska oblast","countryId":230,"countryCode":"UA","countryName":"Ukraine","latitude":"50.28361111","longitude":"28.10638889","wikiDataId":"Q4182092"},{"id":149536,"name":"Zhupanivka","stateId":5071,"stateCode":"53","stateName":"Poltavska oblast","countryId":230,"countryCode":"UA","countryName":"Ukraine","latitude":"50.92750000","longitude":"28.35500000","wikiDataId":"Q4181651"},{"id":149537,"name":"Zhurbintsi","stateId":5071,"stateCode":"53","stateName":"Poltavska oblast","countryId":230,"countryCode":"UA","countryName":"Ukraine","latitude":"49.97944444","longitude":"28.71583333","wikiDataId":"Q4181869"},{"id":149538,"name":"Zhytomyr","stateId":5071,"stateCode":"53","stateName":"Poltavska oblast","countryId":230,"countryCode":"UA","countryName":"Ukraine","latitude":"50.25444444","longitude":"28.65777778","wikiDataId":"Q156713"},{"id":149539,"name":"Zinkiv","stateId":5071,"stateCode":"53","stateName":"Poltavska oblast","countryId":230,"countryCode":"UA","countryName":"Ukraine","latitude":"50.20813908","longitude":"34.36684182","wikiDataId":"Q269547"},{"id":149540,"name":"Zlobichi","stateId":5071,"stateCode":"53","stateName":"Poltavska oblast","countryId":230,"countryCode":"UA","countryName":"Ukraine","latitude":"50.85611111","longitude":"28.69111111","wikiDataId":"Q4192464"},{"id":149541,"name":"Zoriane","stateId":5071,"stateCode":"53","stateName":"Poltavska oblast","countryId":230,"countryCode":"UA","countryName":"Ukraine","latitude":"49.64916667","longitude":"29.24444444","wikiDataId":"Q4194051"},{"id":149542,"name":"Zorokiv","stateId":5071,"stateCode":"53","stateName":"Poltavska oblast","countryId":230,"countryCode":"UA","countryName":"Ukraine","latitude":"50.39416667","longitude":"28.62388889","wikiDataId":"Q4194028"},{"id":149543,"name":"Zosimivka","stateId":5071,"stateCode":"53","stateName":"Poltavska oblast","countryId":230,"countryCode":"UA","countryName":"Ukraine","latitude":"50.73888889","longitude":"27.64888889","wikiDataId":"Q4194091"},{"id":149544,"name":"Zubivshchina","stateId":5071,"stateCode":"53","stateName":"Poltavska oblast","countryId":230,"countryCode":"UA","countryName":"Ukraine","latitude":"50.95944444","longitude":"28.81722222","wikiDataId":"Q4194455"},{"id":149545,"name":"Zvizdal","stateId":5071,"stateCode":"53","stateName":"Poltavska oblast","countryId":230,"countryCode":"UA","countryName":"Ukraine","latitude":"51.17386000","longitude":"29.24655000","wikiDataId":"Q12106415"}]