[{"id":135245,"name":"Abriola","stateId":1706,"stateCode":"77","stateName":"Basilicata","countryId":107,"countryCode":"IT","countryName":"Italy","latitude":"40.50748000","longitude":"15.81310000","wikiDataId":"Q3321966"},{"id":135249,"name":"Accettura","stateId":1706,"stateCode":"77","stateName":"Basilicata","countryId":107,"countryCode":"IT","countryName":"Italy","latitude":"40.49102000","longitude":"16.15798000","wikiDataId":"Q3321966"},{"id":135253,"name":"Acerenza","stateId":1706,"stateCode":"77","stateName":"Basilicata","countryId":107,"countryCode":"IT","countryName":"Italy","latitude":"40.79386000","longitude":"15.93808000","wikiDataId":"Q3604172"},{"id":135354,"name":"Albano di Lucania","stateId":1706,"stateCode":"77","stateName":"Basilicata","countryId":107,"countryCode":"IT","countryName":"Italy","latitude":"40.58614000","longitude":"16.03712000","wikiDataId":"Q18441902"},{"id":135407,"name":"Aliano","stateId":1706,"stateCode":"77","stateName":"Basilicata","countryId":107,"countryCode":"IT","countryName":"Italy","latitude":"40.31359000","longitude":"16.22984000","wikiDataId":"Q18454404"},{"id":135526,"name":"Anzi","stateId":1706,"stateCode":"77","stateName":"Basilicata","countryId":107,"countryCode":"IT","countryName":"Italy","latitude":"40.51662000","longitude":"15.92457000","wikiDataId":"Q18445825"},{"id":135614,"name":"Armento","stateId":1706,"stateCode":"77","stateName":"Basilicata","countryId":107,"countryCode":"IT","countryName":"Italy","latitude":"40.30660000","longitude":"16.06550000","wikiDataId":"Q18497242"},{"id":135673,"name":"Atella","stateId":1706,"stateCode":"77","stateName":"Basilicata","countryId":107,"countryCode":"IT","countryName":"Italy","latitude":"40.87855000","longitude":"15.65226000","wikiDataId":"Q3625263"},{"id":135709,"name":"Avigliano","stateId":1706,"stateCode":"77","stateName":"Basilicata","countryId":107,"countryCode":"IT","countryName":"Italy","latitude":"40.73291000","longitude":"15.72004000","wikiDataId":"Q18448272"},{"id":135797,"name":"Balvano","stateId":1706,"stateCode":"77","stateName":"Basilicata","countryId":107,"countryCode":"IT","countryName":"Italy","latitude":"40.64953000","longitude":"15.51345000","wikiDataId":"Q18426402"},{"id":135806,"name":"Banzi","stateId":1706,"stateCode":"77","stateName":"Basilicata","countryId":107,"countryCode":"IT","countryName":"Italy","latitude":"40.86063000","longitude":"16.00976000","wikiDataId":"Q18434512"},{"id":135810,"name":"Baragiano","stateId":1706,"stateCode":"77","stateName":"Basilicata","countryId":107,"countryCode":"IT","countryName":"Italy","latitude":"40.68001000","longitude":"15.59398000","wikiDataId":"Q18494885"},{"id":135857,"name":"Barile","stateId":1706,"stateCode":"77","stateName":"Basilicata","countryId":107,"countryCode":"IT","countryName":"Italy","latitude":"40.94327000","longitude":"15.67167000","wikiDataId":"Q18241854"},{"id":135934,"name":"Bella","stateId":1706,"stateCode":"77","stateName":"Basilicata","countryId":107,"countryCode":"IT","countryName":"Italy","latitude":"40.76059000","longitude":"15.54101000","wikiDataId":"Q18489946"},{"id":135992,"name":"Bernalda","stateId":1706,"stateCode":"77","stateName":"Basilicata","countryId":107,"countryCode":"IT","countryName":"Italy","latitude":"40.41261000","longitude":"16.68919000","wikiDataId":"Q18478581"},{"id":136329,"name":"Brienza","stateId":1706,"stateCode":"77","stateName":"Basilicata","countryId":107,"countryCode":"IT","countryName":"Italy","latitude":"40.47751000","longitude":"15.62927000","wikiDataId":"Q18505077"},{"id":136335,"name":"Brindisi Montagna","stateId":1706,"stateCode":"77","stateName":"Basilicata","countryId":107,"countryCode":"IT","countryName":"Italy","latitude":"40.60952000","longitude":"15.93977000","wikiDataId":"Q18505077"},{"id":136504,"name":"Calciano","stateId":1706,"stateCode":"77","stateName":"Basilicata","countryId":107,"countryCode":"IT","countryName":"Italy","latitude":"40.58802000","longitude":"16.19238000","wikiDataId":"Q18465272"},{"id":136553,"name":"Calvello","stateId":1706,"stateCode":"77","stateName":"Basilicata","countryId":107,"countryCode":"IT","countryName":"Italy","latitude":"40.47482000","longitude":"15.85092000","wikiDataId":"Q18503049"},{"id":136556,"name":"Calvera","stateId":1706,"stateCode":"77","stateName":"Basilicata","countryId":107,"countryCode":"IT","countryName":"Italy","latitude":"40.14871000","longitude":"16.14362000","wikiDataId":"Q18503049"},{"id":136667,"name":"Campomaggiore","stateId":1706,"stateCode":"77","stateName":"Basilicata","countryId":107,"countryCode":"IT","countryName":"Italy","latitude":"40.56590000","longitude":"16.07250000","wikiDataId":"Q18450226"},{"id":136694,"name":"Cancellara","stateId":1706,"stateCode":"77","stateName":"Basilicata","countryId":107,"countryCode":"IT","countryName":"Italy","latitude":"40.73068000","longitude":"15.92470000","wikiDataId":"Q16536208"},{"id":136850,"name":"Carbone","stateId":1706,"stateCode":"77","stateName":"Basilicata","countryId":107,"countryCode":"IT","countryName":"Italy","latitude":"40.14227000","longitude":"16.08846000","wikiDataId":"Q583609"},{"id":137203,"name":"Castelgrande","stateId":1706,"stateCode":"77","stateName":"Basilicata","countryId":107,"countryCode":"IT","countryName":"Italy","latitude":"40.78639000","longitude":"15.43109000","wikiDataId":"Q52072"},{"id":137264,"name":"Castelluccio Inferiore","stateId":1706,"stateCode":"77","stateName":"Basilicata","countryId":107,"countryCode":"IT","countryName":"Italy","latitude":"40.00151000","longitude":"15.98149000","wikiDataId":"Q18478844"},{"id":137265,"name":"Castelluccio Superiore","stateId":1706,"stateCode":"77","stateName":"Basilicata","countryId":107,"countryCode":"IT","countryName":"Italy","latitude":"40.01003000","longitude":"15.97184000","wikiDataId":"Q18478844"},{"id":137273,"name":"Castelmezzano","stateId":1706,"stateCode":"77","stateName":"Basilicata","countryId":107,"countryCode":"IT","countryName":"Italy","latitude":"40.52832000","longitude":"16.04585000","wikiDataId":"Q18452834"},{"id":137313,"name":"Castelsaraceno","stateId":1706,"stateCode":"77","stateName":"Basilicata","countryId":107,"countryCode":"IT","countryName":"Italy","latitude":"40.16213000","longitude":"15.99281000","wikiDataId":"Q3663015"},{"id":137384,"name":"Castronuovo di Sant'Andrea","stateId":1706,"stateCode":"77","stateName":"Basilicata","countryId":107,"countryCode":"IT","countryName":"Italy","latitude":"40.18903000","longitude":"16.18559000","wikiDataId":"Q1947037"},{"id":137577,"name":"Cersosimo","stateId":1706,"stateCode":"77","stateName":"Basilicata","countryId":107,"countryCode":"IT","countryName":"Italy","latitude":"40.04703000","longitude":"16.35059000","wikiDataId":"Q18427252"},{"id":137655,"name":"Chiaromonte","stateId":1706,"stateCode":"77","stateName":"Basilicata","countryId":107,"countryCode":"IT","countryName":"Italy","latitude":"40.12323000","longitude":"16.21440000","wikiDataId":"Q3667528"},{"id":137747,"name":"Cirigliano","stateId":1706,"stateCode":"77","stateName":"Basilicata","countryId":107,"countryCode":"IT","countryName":"Italy","latitude":"40.39376000","longitude":"16.17194000","wikiDataId":"Q18492580"},{"id":137910,"name":"Colobraro","stateId":1706,"stateCode":"77","stateName":"Basilicata","countryId":107,"countryCode":"IT","countryName":"Italy","latitude":"40.18841000","longitude":"16.42480000","wikiDataId":"Q3439662"},{"id":138019,"name":"Corleto Perticara","stateId":1706,"stateCode":"77","stateName":"Basilicata","countryId":107,"countryCode":"IT","countryName":"Italy","latitude":"40.38214000","longitude":"16.03917000","wikiDataId":"Q18429714"},{"id":138121,"name":"Craco-Sant'Angelo","stateId":1706,"stateCode":"77","stateName":"Basilicata","countryId":107,"countryCode":"IT","countryName":"Italy","latitude":"40.37992000","longitude":"16.43708000","wikiDataId":"Q18428681"},{"id":138364,"name":"Episcopia","stateId":1706,"stateCode":"77","stateName":"Basilicata","countryId":107,"countryCode":"IT","countryName":"Italy","latitude":"40.07481000","longitude":"16.09818000","wikiDataId":"Q16166"},{"id":138445,"name":"Fardella","stateId":1706,"stateCode":"77","stateName":"Basilicata","countryId":107,"countryCode":"IT","countryName":"Italy","latitude":"40.11381000","longitude":"16.16978000","wikiDataId":"Q18437384"},{"id":138488,"name":"Ferrandina","stateId":1706,"stateCode":"77","stateName":"Basilicata","countryId":107,"countryCode":"IT","countryName":"Italy","latitude":"40.50084000","longitude":"16.45258000","wikiDataId":"Q18498384"},{"id":138529,"name":"Filiano","stateId":1706,"stateCode":"77","stateName":"Basilicata","countryId":107,"countryCode":"IT","countryName":"Italy","latitude":"40.81042000","longitude":"15.70984000","wikiDataId":"Q3744969"},{"id":138624,"name":"Forenza","stateId":1706,"stateCode":"77","stateName":"Basilicata","countryId":107,"countryCode":"IT","countryName":"Italy","latitude":"40.86041000","longitude":"15.85457000","wikiDataId":"Q652620"},{"id":138699,"name":"Francavilla in Sinni","stateId":1706,"stateCode":"77","stateName":"Basilicata","countryId":107,"countryCode":"IT","countryName":"Italy","latitude":"40.08142000","longitude":"16.20417000","wikiDataId":"Q321506"},{"id":138809,"name":"Gallicchio","stateId":1706,"stateCode":"77","stateName":"Basilicata","countryId":107,"countryCode":"IT","countryName":"Italy","latitude":"40.29232000","longitude":"16.13561000","wikiDataId":"Q18486942"},{"id":138843,"name":"Garaguso","stateId":1706,"stateCode":"77","stateName":"Basilicata","countryId":107,"countryCode":"IT","countryName":"Italy","latitude":"40.54866000","longitude":"16.22827000","wikiDataId":"Q18501602"},{"id":138903,"name":"Genzano di Lucania","stateId":1706,"stateCode":"77","stateName":"Basilicata","countryId":107,"countryCode":"IT","countryName":"Italy","latitude":"40.84589000","longitude":"16.03124000","wikiDataId":"Q18453753"},{"id":138963,"name":"Ginestra","stateId":1706,"stateCode":"77","stateName":"Basilicata","countryId":107,"countryCode":"IT","countryName":"Italy","latitude":"40.93092000","longitude":"15.73497000","wikiDataId":"Q1523719"},{"id":139029,"name":"Gorgoglione","stateId":1706,"stateCode":"77","stateName":"Basilicata","countryId":107,"countryCode":"IT","countryName":"Italy","latitude":"40.39532000","longitude":"16.14456000","wikiDataId":"Q18501820"},{"id":139072,"name":"Grassano","stateId":1706,"stateCode":"77","stateName":"Basilicata","countryId":107,"countryCode":"IT","countryName":"Italy","latitude":"40.63457000","longitude":"16.27792000","wikiDataId":"Q18496559"},{"id":139130,"name":"Grottole","stateId":1706,"stateCode":"77","stateName":"Basilicata","countryId":107,"countryCode":"IT","countryName":"Italy","latitude":"40.60333000","longitude":"16.37831000","wikiDataId":"Q18436603"},{"id":139137,"name":"Grumento Nova","stateId":1706,"stateCode":"77","stateName":"Basilicata","countryId":107,"countryCode":"IT","countryName":"Italy","latitude":"40.28281000","longitude":"15.88877000","wikiDataId":"Q28321671"},{"id":139160,"name":"Guardia Perticara","stateId":1706,"stateCode":"77","stateName":"Basilicata","countryId":107,"countryCode":"IT","countryName":"Italy","latitude":"40.36167000","longitude":"16.09845000","wikiDataId":"Q18429326"},{"id":139223,"name":"Irsina","stateId":1706,"stateCode":"77","stateName":"Basilicata","countryId":107,"countryCode":"IT","countryName":"Italy","latitude":"40.75015000","longitude":"16.23816000","wikiDataId":"Q18492895"},{"id":139295,"name":"La Martella","stateId":1706,"stateCode":"77","stateName":"Basilicata","countryId":107,"countryCode":"IT","countryName":"Italy","latitude":"40.66251000","longitude":"16.53551000","wikiDataId":"Q3820971"},{"id":139327,"name":"Lagonegro","stateId":1706,"stateCode":"77","stateName":"Basilicata","countryId":107,"countryCode":"IT","countryName":"Italy","latitude":"40.12785000","longitude":"15.76212000","wikiDataId":"Q18454703"},{"id":139393,"name":"Latronico","stateId":1706,"stateCode":"77","stateName":"Basilicata","countryId":107,"countryCode":"IT","countryName":"Italy","latitude":"40.08909000","longitude":"16.00947000","wikiDataId":"Q3827479"},{"id":139400,"name":"Laurenzana","stateId":1706,"stateCode":"77","stateName":"Basilicata","countryId":107,"countryCode":"IT","countryName":"Italy","latitude":"40.45908000","longitude":"15.97075000","wikiDataId":"Q3827711"},{"id":139401,"name":"Lauria","stateId":1706,"stateCode":"77","stateName":"Basilicata","countryId":107,"countryCode":"IT","countryName":"Italy","latitude":"40.04702000","longitude":"15.83812000","wikiDataId":"Q3827711"},{"id":139410,"name":"Lavello","stateId":1706,"stateCode":"77","stateName":"Basilicata","countryId":107,"countryCode":"IT","countryName":"Italy","latitude":"41.04769000","longitude":"15.78915000","wikiDataId":"Q18451867"},{"id":139501,"name":"Lido","stateId":1706,"stateCode":"77","stateName":"Basilicata","countryId":107,"countryCode":"IT","countryName":"Italy","latitude":"40.19128000","longitude":"16.70692000","wikiDataId":"Q18428687"},{"id":139832,"name":"Maratea","stateId":1706,"stateCode":"77","stateName":"Basilicata","countryId":107,"countryCode":"IT","countryName":"Italy","latitude":"39.99932000","longitude":"15.71539000","wikiDataId":"Q18453806"},{"id":139855,"name":"Marconia","stateId":1706,"stateCode":"77","stateName":"Basilicata","countryId":107,"countryCode":"IT","countryName":"Italy","latitude":"40.36355000","longitude":"16.68823000","wikiDataId":"Q2832910"},{"id":139922,"name":"Marsico Nuovo","stateId":1706,"stateCode":"77","stateName":"Basilicata","countryId":107,"countryCode":"IT","countryName":"Italy","latitude":"40.42359000","longitude":"15.73462000","wikiDataId":"Q18496544"},{"id":139923,"name":"Marsicovetere","stateId":1706,"stateCode":"77","stateName":"Basilicata","countryId":107,"countryCode":"IT","countryName":"Italy","latitude":"40.37591000","longitude":"15.82569000","wikiDataId":"Q18496544"},{"id":139954,"name":"Maschito","stateId":1706,"stateCode":"77","stateName":"Basilicata","countryId":107,"countryCode":"IT","countryName":"Italy","latitude":"40.90892000","longitude":"15.82946000","wikiDataId":"Q18436637"},{"id":139993,"name":"Matera","stateId":1706,"stateCode":"77","stateName":"Basilicata","countryId":107,"countryCode":"IT","countryName":"Italy","latitude":"40.66599000","longitude":"16.60463000","wikiDataId":"Q18436979"},{"id":140043,"name":"Melfi","stateId":1706,"stateCode":"77","stateName":"Basilicata","countryId":107,"countryCode":"IT","countryName":"Italy","latitude":"40.99571000","longitude":"15.65578000","wikiDataId":"Q18506529"},{"id":140138,"name":"Miglionico","stateId":1706,"stateCode":"77","stateName":"Basilicata","countryId":107,"countryCode":"IT","countryName":"Italy","latitude":"40.56763000","longitude":"16.49964000","wikiDataId":"Q95124"},{"id":140183,"name":"Missanello","stateId":1706,"stateCode":"77","stateName":"Basilicata","countryId":107,"countryCode":"IT","countryName":"Italy","latitude":"40.28311000","longitude":"16.16650000","wikiDataId":"Q18429947"},{"id":140228,"name":"Moliterno","stateId":1706,"stateCode":"77","stateName":"Basilicata","countryId":107,"countryCode":"IT","countryName":"Italy","latitude":"40.24394000","longitude":"15.86544000","wikiDataId":"Q18461942"},{"id":140318,"name":"Montalbano Jonico","stateId":1706,"stateCode":"77","stateName":"Basilicata","countryId":107,"countryCode":"IT","countryName":"Italy","latitude":"40.28591000","longitude":"16.56960000","wikiDataId":"Q3861105"},{"id":140495,"name":"Montemilone","stateId":1706,"stateCode":"77","stateName":"Basilicata","countryId":107,"countryCode":"IT","countryName":"Italy","latitude":"41.02742000","longitude":"15.96661000","wikiDataId":"Q18498395"},{"id":140499,"name":"Montemurro","stateId":1706,"stateCode":"77","stateName":"Basilicata","countryId":107,"countryCode":"IT","countryName":"Italy","latitude":"40.29765000","longitude":"15.99182000","wikiDataId":"Q18498395"},{"id":140534,"name":"Montescaglioso","stateId":1706,"stateCode":"77","stateName":"Basilicata","countryId":107,"countryCode":"IT","countryName":"Italy","latitude":"40.55024000","longitude":"16.66541000","wikiDataId":"Q968831"},{"id":140694,"name":"Muro Lucano","stateId":1706,"stateCode":"77","stateName":"Basilicata","countryId":107,"countryCode":"IT","countryName":"Italy","latitude":"40.75379000","longitude":"15.48808000","wikiDataId":"Q18506593"},{"id":140741,"name":"Nemoli","stateId":1706,"stateCode":"77","stateName":"Basilicata","countryId":107,"countryCode":"IT","countryName":"Italy","latitude":"40.06765000","longitude":"15.79962000","wikiDataId":"Q18439924"},{"id":140790,"name":"Noepoli","stateId":1706,"stateCode":"77","stateName":"Basilicata","countryId":107,"countryCode":"IT","countryName":"Italy","latitude":"40.08705000","longitude":"16.32834000","wikiDataId":"Q18429380"},{"id":140816,"name":"Nova Siri","stateId":1706,"stateCode":"77","stateName":"Basilicata","countryId":107,"countryCode":"IT","countryName":"Italy","latitude":"40.14823000","longitude":"16.53976000","wikiDataId":"Q3878603"},{"id":140817,"name":"Nova Siri Scalo","stateId":1706,"stateCode":"77","stateName":"Basilicata","countryId":107,"countryCode":"IT","countryName":"Italy","latitude":"40.13177000","longitude":"16.63593000","wikiDataId":"Q18428694"},{"id":140902,"name":"Oliveto Lucano","stateId":1706,"stateCode":"77","stateName":"Basilicata","countryId":107,"countryCode":"IT","countryName":"Italy","latitude":"40.53554000","longitude":"16.18547000","wikiDataId":"Q18448462"},{"id":140934,"name":"Oppido Lucano","stateId":1706,"stateCode":"77","stateName":"Basilicata","countryId":107,"countryCode":"IT","countryName":"Italy","latitude":"40.76174000","longitude":"15.98818000","wikiDataId":"Q3882791"},{"id":58231,"name":"Palazzo San Gervasio","stateId":1706,"stateCode":"77","stateName":"Basilicata","countryId":107,"countryCode":"IT","countryName":"Italy","latitude":"40.93156000","longitude":"15.98149000","wikiDataId":"Q3889493"},{"id":58343,"name":"Paterno","stateId":1706,"stateCode":"77","stateName":"Basilicata","countryId":107,"countryCode":"IT","countryName":"Italy","latitude":"40.37507000","longitude":"15.73510000","wikiDataId":"Q18461464"},{"id":58463,"name":"Pescopagano","stateId":1706,"stateCode":"77","stateName":"Basilicata","countryId":107,"countryCode":"IT","countryName":"Italy","latitude":"40.83494000","longitude":"15.39946000","wikiDataId":"Q2784233"},{"id":58580,"name":"Picerno","stateId":1706,"stateCode":"77","stateName":"Basilicata","countryId":107,"countryCode":"IT","countryName":"Italy","latitude":"40.63975000","longitude":"15.64232000","wikiDataId":"Q3902532"},{"id":58614,"name":"Pietragalla","stateId":1706,"stateCode":"77","stateName":"Basilicata","countryId":107,"countryCode":"IT","countryName":"Italy","latitude":"40.74572000","longitude":"15.87398000","wikiDataId":"Q1110618"},{"id":58621,"name":"Pietrapertosa","stateId":1706,"stateCode":"77","stateName":"Basilicata","countryId":107,"countryCode":"IT","countryName":"Italy","latitude":"40.51731000","longitude":"16.06244000","wikiDataId":"Q18481879"},{"id":58663,"name":"Pignola","stateId":1706,"stateCode":"77","stateName":"Basilicata","countryId":107,"countryCode":"IT","countryName":"Italy","latitude":"40.57412000","longitude":"15.78295000","wikiDataId":"Q18475942"},{"id":58713,"name":"Pisticci","stateId":1706,"stateCode":"77","stateName":"Basilicata","countryId":107,"countryCode":"IT","countryName":"Italy","latitude":"40.39017000","longitude":"16.55919000","wikiDataId":"Q18446170"},{"id":58789,"name":"Policoro","stateId":1706,"stateCode":"77","stateName":"Basilicata","countryId":107,"countryCode":"IT","countryName":"Italy","latitude":"40.21280000","longitude":"16.67795000","wikiDataId":"Q610420"},{"id":58810,"name":"Pomarico","stateId":1706,"stateCode":"77","stateName":"Basilicata","countryId":107,"countryCode":"IT","countryName":"Italy","latitude":"40.52804000","longitude":"16.52708000","wikiDataId":"Q18437630"},{"id":58965,"name":"Potenza","stateId":1706,"stateCode":"77","stateName":"Basilicata","countryId":107,"countryCode":"IT","countryName":"Italy","latitude":"40.64175000","longitude":"15.80794000","wikiDataId":"Q668722"},{"id":59149,"name":"Provincia di Matera","stateId":1706,"stateCode":"77","stateName":"Basilicata","countryId":107,"countryCode":"IT","countryName":"Italy","latitude":"40.50000000","longitude":"16.41667000","wikiDataId":"Q16206"},{"id":59164,"name":"Provincia di Potenza","stateId":1706,"stateCode":"77","stateName":"Basilicata","countryId":107,"countryCode":"IT","countryName":"Italy","latitude":"40.46442000","longitude":"15.89938000","wikiDataId":"Q16249"},{"id":59287,"name":"Rapolla","stateId":1706,"stateCode":"77","stateName":"Basilicata","countryId":107,"countryCode":"IT","countryName":"Italy","latitude":"40.97499000","longitude":"15.67201000","wikiDataId":"Q2362876"},{"id":59288,"name":"Rapone","stateId":1706,"stateCode":"77","stateName":"Basilicata","countryId":107,"countryCode":"IT","countryName":"Italy","latitude":"40.84710000","longitude":"15.49818000","wikiDataId":"Q2362876"},{"id":59397,"name":"Rionero in Vulture","stateId":1706,"stateCode":"77","stateName":"Basilicata","countryId":107,"countryCode":"IT","countryName":"Italy","latitude":"40.92328000","longitude":"15.67110000","wikiDataId":"Q157864"},{"id":59402,"name":"Ripacandida","stateId":1706,"stateCode":"77","stateName":"Basilicata","countryId":107,"countryCode":"IT","countryName":"Italy","latitude":"40.91256000","longitude":"15.72597000","wikiDataId":"Q18489034"},{"id":59436,"name":"Rivello","stateId":1706,"stateCode":"77","stateName":"Basilicata","countryId":107,"countryCode":"IT","countryName":"Italy","latitude":"40.07821000","longitude":"15.75798000","wikiDataId":"Q3433461"},{"id":59511,"name":"Roccanova","stateId":1706,"stateCode":"77","stateName":"Basilicata","countryId":107,"countryCode":"IT","countryName":"Italy","latitude":"40.21250000","longitude":"16.20429000","wikiDataId":"Q18426950"},{"id":59659,"name":"Rotonda","stateId":1706,"stateCode":"77","stateName":"Basilicata","countryId":107,"countryCode":"IT","countryName":"Italy","latitude":"39.95215000","longitude":"16.03904000","wikiDataId":"Q18447346"},{"id":59660,"name":"Rotondella","stateId":1706,"stateCode":"77","stateName":"Basilicata","countryId":107,"countryCode":"IT","countryName":"Italy","latitude":"40.17136000","longitude":"16.52491000","wikiDataId":"Q18447346"},{"id":59703,"name":"Ruoti","stateId":1706,"stateCode":"77","stateName":"Basilicata","countryId":107,"countryCode":"IT","countryName":"Italy","latitude":"40.71660000","longitude":"15.68369000","wikiDataId":"Q18482526"},{"id":59708,"name":"Ruvo del Monte","stateId":1706,"stateCode":"77","stateName":"Basilicata","countryId":107,"countryCode":"IT","countryName":"Italy","latitude":"40.84951000","longitude":"15.54217000","wikiDataId":"Q18482526"},{"id":59746,"name":"Salandra","stateId":1706,"stateCode":"77","stateName":"Basilicata","countryId":107,"countryCode":"IT","countryName":"Italy","latitude":"40.52668000","longitude":"16.32037000","wikiDataId":"Q3945239"},{"id":59848,"name":"San Brancato","stateId":1706,"stateCode":"77","stateName":"Basilicata","countryId":107,"countryCode":"IT","countryName":"Italy","latitude":"40.25822000","longitude":"16.25661000","wikiDataId":"Q18429079"},{"id":59866,"name":"San Chirico Nuovo","stateId":1706,"stateCode":"77","stateName":"Basilicata","countryId":107,"countryCode":"IT","countryName":"Italy","latitude":"40.67764000","longitude":"16.07892000","wikiDataId":"Q18436722"},{"id":59867,"name":"San Chirico Raparo","stateId":1706,"stateCode":"77","stateName":"Basilicata","countryId":107,"countryCode":"IT","countryName":"Italy","latitude":"40.19242000","longitude":"16.07618000","wikiDataId":"Q18436722"},{"id":59880,"name":"San Costantino Albanese","stateId":1706,"stateCode":"77","stateName":"Basilicata","countryId":107,"countryCode":"IT","countryName":"Italy","latitude":"40.03679000","longitude":"16.30475000","wikiDataId":"Q18436724"},{"id":59905,"name":"San Fele","stateId":1706,"stateCode":"77","stateName":"Basilicata","countryId":107,"countryCode":"IT","countryName":"Italy","latitude":"40.81647000","longitude":"15.54043000","wikiDataId":"Q18462822"},{"id":59957,"name":"San Giorgio Lucano","stateId":1706,"stateCode":"77","stateName":"Basilicata","countryId":107,"countryCode":"IT","countryName":"Italy","latitude":"40.11132000","longitude":"16.38930000","wikiDataId":"Q18436729"},{"id":60081,"name":"San Martino d'Agri","stateId":1706,"stateCode":"77","stateName":"Basilicata","countryId":107,"countryCode":"IT","countryName":"Italy","latitude":"40.23913000","longitude":"16.05216000","wikiDataId":"Q2630393"},{"id":60107,"name":"San Mauro Forte","stateId":1706,"stateCode":"77","stateName":"Basilicata","countryId":107,"countryCode":"IT","countryName":"Italy","latitude":"40.48333000","longitude":"16.25155000","wikiDataId":"Q18487359"},{"id":60157,"name":"San Paolo Albanese","stateId":1706,"stateCode":"77","stateName":"Basilicata","countryId":107,"countryCode":"IT","countryName":"Italy","latitude":"40.03567000","longitude":"16.33498000","wikiDataId":"Q3947760"},{"id":60242,"name":"San Severino Lucano","stateId":1706,"stateCode":"77","stateName":"Basilicata","countryId":107,"countryCode":"IT","countryName":"Italy","latitude":"40.02021000","longitude":"16.13860000","wikiDataId":"Q7415310"},{"id":60372,"name":"Sant'Angelo le Fratte","stateId":1706,"stateCode":"77","stateName":"Basilicata","countryId":107,"countryCode":"IT","countryName":"Italy","latitude":"40.54490000","longitude":"15.56156000","wikiDataId":"Q18453446"},{"id":60387,"name":"Sant'Arcangelo","stateId":1706,"stateCode":"77","stateName":"Basilicata","countryId":107,"countryCode":"IT","countryName":"Italy","latitude":"40.24852000","longitude":"16.27046000","wikiDataId":"Q18500348"},{"id":60542,"name":"Sarconi","stateId":1706,"stateCode":"77","stateName":"Basilicata","countryId":107,"countryCode":"IT","countryName":"Italy","latitude":"40.24800000","longitude":"15.88837000","wikiDataId":"Q18466198"},{"id":60573,"name":"Sasso di Castalda","stateId":1706,"stateCode":"77","stateName":"Basilicata","countryId":107,"countryCode":"IT","countryName":"Italy","latitude":"40.48525000","longitude":"15.67569000","wikiDataId":"Q18455889"},{"id":60579,"name":"Satriano di Lucania","stateId":1706,"stateCode":"77","stateName":"Basilicata","countryId":107,"countryCode":"IT","countryName":"Italy","latitude":"40.54296000","longitude":"15.64024000","wikiDataId":"Q18455889"},{"id":60598,"name":"Savoia di Lucania","stateId":1706,"stateCode":"77","stateName":"Basilicata","countryId":107,"countryCode":"IT","countryName":"Italy","latitude":"40.56949000","longitude":"15.55132000","wikiDataId":"Q18446293"},{"id":60611,"name":"Scalo di Baragiano","stateId":1706,"stateCode":"77","stateName":"Basilicata","countryId":107,"countryCode":"IT","countryName":"Italy","latitude":"40.69500000","longitude":"15.57508000","wikiDataId":"Q18429114"},{"id":60626,"name":"Scanzano Jonico","stateId":1706,"stateCode":"77","stateName":"Basilicata","countryId":107,"countryCode":"IT","countryName":"Italy","latitude":"40.25085000","longitude":"16.69824000","wikiDataId":"Q18469932"},{"id":60726,"name":"Senise","stateId":1706,"stateCode":"77","stateName":"Basilicata","countryId":107,"countryCode":"IT","countryName":"Italy","latitude":"40.14616000","longitude":"16.28867000","wikiDataId":"Q18477381"},{"id":61024,"name":"Spinoso","stateId":1706,"stateCode":"77","stateName":"Basilicata","countryId":107,"countryCode":"IT","countryName":"Italy","latitude":"40.26921000","longitude":"15.96658000","wikiDataId":"Q2048225"},{"id":61072,"name":"Stigliano","stateId":1706,"stateCode":"77","stateName":"Basilicata","countryId":107,"countryCode":"IT","countryName":"Italy","latitude":"40.40237000","longitude":"16.22983000","wikiDataId":"Q18489123"},{"id":61198,"name":"Teana","stateId":1706,"stateCode":"77","stateName":"Basilicata","countryId":107,"countryCode":"IT","countryName":"Italy","latitude":"40.12586000","longitude":"16.15281000","wikiDataId":"Q18498959"},{"id":61242,"name":"Terranova di Pollino","stateId":1706,"stateCode":"77","stateName":"Basilicata","countryId":107,"countryCode":"IT","countryName":"Italy","latitude":"39.97765000","longitude":"16.29583000","wikiDataId":"Q30031072"},{"id":61287,"name":"Tito","stateId":1706,"stateCode":"77","stateName":"Basilicata","countryId":107,"countryCode":"IT","countryName":"Italy","latitude":"40.58370000","longitude":"15.67621000","wikiDataId":"Q18441166"},{"id":61303,"name":"Tolve","stateId":1706,"stateCode":"77","stateName":"Basilicata","countryId":107,"countryCode":"IT","countryName":"Italy","latitude":"40.69422000","longitude":"16.01627000","wikiDataId":"Q18430784"},{"id":61435,"name":"Tramutola","stateId":1706,"stateCode":"77","stateName":"Basilicata","countryId":107,"countryCode":"IT","countryName":"Italy","latitude":"40.31858000","longitude":"15.78753000","wikiDataId":"Q18455320"},{"id":61467,"name":"Trecchina","stateId":1706,"stateCode":"77","stateName":"Basilicata","countryId":107,"countryCode":"IT","countryName":"Italy","latitude":"40.02611000","longitude":"15.77585000","wikiDataId":"Q100966"},{"id":61518,"name":"Tricarico","stateId":1706,"stateCode":"77","stateName":"Basilicata","countryId":107,"countryCode":"IT","countryName":"Italy","latitude":"40.61458000","longitude":"16.14259000","wikiDataId":"Q3998444"},{"id":61544,"name":"Trivigno","stateId":1706,"stateCode":"77","stateName":"Basilicata","countryId":107,"countryCode":"IT","countryName":"Italy","latitude":"40.58015000","longitude":"15.98857000","wikiDataId":"Q18503742"},{"id":61579,"name":"Tursi","stateId":1706,"stateCode":"77","stateName":"Basilicata","countryId":107,"countryCode":"IT","countryName":"Italy","latitude":"40.24651000","longitude":"16.47140000","wikiDataId":"Q222063"},{"id":61634,"name":"Vaglio Basilicata","stateId":1706,"stateCode":"77","stateName":"Basilicata","countryId":107,"countryCode":"IT","countryName":"Italy","latitude":"40.66643000","longitude":"15.91434000","wikiDataId":"Q18430941"},{"id":61739,"name":"Valsinni","stateId":1706,"stateCode":"77","stateName":"Basilicata","countryId":107,"countryCode":"IT","countryName":"Italy","latitude":"40.17098000","longitude":"16.44388000","wikiDataId":"Q18502485"},{"id":61823,"name":"Venosa","stateId":1706,"stateCode":"77","stateName":"Basilicata","countryId":107,"countryCode":"IT","countryName":"Italy","latitude":"40.96283000","longitude":"15.81285000","wikiDataId":"Q18438779"},{"id":61934,"name":"Vietri di Potenza","stateId":1706,"stateCode":"77","stateName":"Basilicata","countryId":107,"countryCode":"IT","countryName":"Italy","latitude":"40.60027000","longitude":"15.50787000","wikiDataId":"Q4011328"},{"id":61945,"name":"Viggianello","stateId":1706,"stateCode":"77","stateName":"Basilicata","countryId":107,"countryCode":"IT","countryName":"Italy","latitude":"39.97227000","longitude":"16.08521000","wikiDataId":"Q4011529"},{"id":61946,"name":"Viggiano","stateId":1706,"stateCode":"77","stateName":"Basilicata","countryId":107,"countryCode":"IT","countryName":"Italy","latitude":"40.34213000","longitude":"15.89964000","wikiDataId":"Q4011529"},{"id":62033,"name":"Villa d'Agri","stateId":1706,"stateCode":"77","stateName":"Basilicata","countryId":107,"countryCode":"IT","countryName":"Italy","latitude":"40.35426000","longitude":"15.82770000","wikiDataId":"Q18429174"},{"id":62270,"name":"Zona 179","stateId":1706,"stateCode":"77","stateName":"Basilicata","countryId":107,"countryCode":"IT","countryName":"Italy","latitude":"41.00313000","longitude":"15.61868000","wikiDataId":"Q18429182"}]