[{"id":9281,"name":"Borovo","stateId":4713,"stateCode":"18","stateName":"Ruse Province","countryId":34,"countryCode":"BG","countryName":"Bulgaria","latitude":"43.50086000","longitude":"25.80992000","wikiDataId":"Q405846"},{"id":9322,"name":"Dve Mogili","stateId":4713,"stateCode":"18","stateName":"Ruse Province","countryId":34,"countryCode":"BG","countryName":"Bulgaria","latitude":"43.59258000","longitude":"25.87486000","wikiDataId":"Q407228"},{"id":9349,"name":"Ivanovo","stateId":4713,"stateCode":"18","stateName":"Ruse Province","countryId":34,"countryCode":"BG","countryName":"Bulgaria","latitude":"43.68568000","longitude":"25.95565000","wikiDataId":"Q935789"},{"id":9435,"name":"Obshtina Borovo","stateId":4713,"stateCode":"18","stateName":"Ruse Province","countryId":34,"countryCode":"BG","countryName":"Bulgaria","latitude":"43.60000000","longitude":"25.80000000","wikiDataId":"Q2652921"},{"id":9443,"name":"Obshtina Byala","stateId":4713,"stateCode":"18","stateName":"Ruse Province","countryId":34,"countryCode":"BG","countryName":"Bulgaria","latitude":"43.41667000","longitude":"25.83333000","wikiDataId":"Q132395"},{"id":9468,"name":"Obshtina Dve Mogili","stateId":4713,"stateCode":"18","stateName":"Ruse Province","countryId":34,"countryCode":"BG","countryName":"Bulgaria","latitude":"43.51667000","longitude":"25.96667000","wikiDataId":"Q2721034"},{"id":9492,"name":"Obshtina Ivanovo","stateId":4713,"stateCode":"18","stateName":"Ruse Province","countryId":34,"countryCode":"BG","countryName":"Bulgaria","latitude":"43.70000000","longitude":"25.98333000","wikiDataId":"Q2721303"},{"id":9576,"name":"Obshtina Ruse","stateId":4713,"stateCode":"18","stateName":"Ruse Province","countryId":34,"countryCode":"BG","countryName":"Bulgaria","latitude":"43.85000000","longitude":"26.08333000","wikiDataId":"Q2652929"},{"id":9593,"name":"Obshtina Slivo Pole","stateId":4713,"stateCode":"18","stateName":"Ruse Province","countryId":34,"countryCode":"BG","countryName":"Bulgaria","latitude":"43.96667000","longitude":"26.30000000","wikiDataId":"Q2609442"},{"id":9617,"name":"Obshtina Tsenovo","stateId":4713,"stateCode":"18","stateName":"Ruse Province","countryId":34,"countryCode":"BG","countryName":"Bulgaria","latitude":"43.58333000","longitude":"25.61667000","wikiDataId":"Q2609662"},{"id":9628,"name":"Obshtina Vetovo","stateId":4713,"stateCode":"18","stateName":"Ruse Province","countryId":34,"countryCode":"BG","countryName":"Bulgaria","latitude":"43.71667000","longitude":"26.33333000","wikiDataId":"Q2716767"},{"id":9675,"name":"Ruse","stateId":4713,"stateCode":"18","stateName":"Ruse Province","countryId":34,"countryCode":"BG","countryName":"Bulgaria","latitude":"43.84872000","longitude":"25.95340000","wikiDataId":"Q160173"},{"id":9687,"name":"Senovo","stateId":4713,"stateCode":"18","stateName":"Ruse Province","countryId":34,"countryCode":"BG","countryName":"Bulgaria","latitude":"43.65000000","longitude":"26.36667000","wikiDataId":"Q404734"},{"id":9699,"name":"Slivo Pole","stateId":4713,"stateCode":"18","stateName":"Ruse Province","countryId":34,"countryCode":"BG","countryName":"Bulgaria","latitude":"43.94248000","longitude":"26.20464000","wikiDataId":"Q406747"},{"id":9729,"name":"Tsenovo","stateId":4713,"stateCode":"18","stateName":"Ruse Province","countryId":34,"countryCode":"BG","countryName":"Bulgaria","latitude":"43.53588000","longitude":"25.65764000","wikiDataId":"Q147938"},{"id":9739,"name":"Vetovo","stateId":4713,"stateCode":"18","stateName":"Ruse Province","countryId":34,"countryCode":"BG","countryName":"Bulgaria","latitude":"43.70000000","longitude":"26.26667000","wikiDataId":"Q405114"}]