[{"id":104017,"name":"Åsbro","stateId":1539,"stateCode":"T","stateName":"Örebro County","countryId":213,"countryCode":"SE","countryName":"Sweden","latitude":"59.00000000","longitude":"15.05000000","wikiDataId":"Q2573758"},{"id":103019,"name":"Askersund","stateId":1539,"stateCode":"T","stateName":"Örebro County","countryId":213,"countryCode":"SE","countryName":"Sweden","latitude":"58.87988000","longitude":"14.90230000","wikiDataId":"Q731441"},{"id":103115,"name":"Degerfors","stateId":1539,"stateCode":"T","stateName":"Örebro County","countryId":213,"countryCode":"SE","countryName":"Sweden","latitude":"59.23797000","longitude":"14.43077000","wikiDataId":"Q1019101"},{"id":103131,"name":"Ekeby-Almby","stateId":1539,"stateCode":"T","stateName":"Örebro County","countryId":213,"countryCode":"SE","countryName":"Sweden","latitude":"59.26000000","longitude":"15.33000000","wikiDataId":"Q2912955"},{"id":103163,"name":"Fellingsbro","stateId":1539,"stateCode":"T","stateName":"Örebro County","countryId":213,"countryCode":"SE","countryName":"Sweden","latitude":"59.43333000","longitude":"15.58333000","wikiDataId":"Q2575078"},{"id":103170,"name":"Fjugesta","stateId":1539,"stateCode":"T","stateName":"Örebro County","countryId":213,"countryCode":"SE","countryName":"Sweden","latitude":"59.17375000","longitude":"14.87227000","wikiDataId":"Q1422463"},{"id":103187,"name":"Frövi","stateId":1539,"stateCode":"T","stateName":"Örebro County","countryId":213,"countryCode":"SE","countryName":"Sweden","latitude":"59.46667000","longitude":"15.36667000","wikiDataId":"Q2654133"},{"id":103204,"name":"Garphyttan","stateId":1539,"stateCode":"T","stateName":"Örebro County","countryId":213,"countryCode":"SE","countryName":"Sweden","latitude":"59.30429000","longitude":"14.94623000","wikiDataId":"Q3098445"},{"id":103316,"name":"Hällabrottet","stateId":1539,"stateCode":"T","stateName":"Örebro County","countryId":213,"countryCode":"SE","countryName":"Sweden","latitude":"59.11667000","longitude":"15.20000000","wikiDataId":"Q3353925"},{"id":103318,"name":"Hällefors","stateId":1539,"stateCode":"T","stateName":"Örebro County","countryId":213,"countryCode":"SE","countryName":"Sweden","latitude":"59.78388000","longitude":"14.52197000","wikiDataId":"Q305380"},{"id":103253,"name":"Hallsberg","stateId":1539,"stateCode":"T","stateName":"Örebro County","countryId":213,"countryCode":"SE","countryName":"Sweden","latitude":"59.06463000","longitude":"15.10993000","wikiDataId":"Q1001505"},{"id":103302,"name":"Hovsta","stateId":1539,"stateCode":"T","stateName":"Örebro County","countryId":213,"countryCode":"SE","countryName":"Sweden","latitude":"59.35000000","longitude":"15.21667000","wikiDataId":"Q3055207"},{"id":103379,"name":"Karlskoga","stateId":1539,"stateCode":"T","stateName":"Örebro County","countryId":213,"countryCode":"SE","countryName":"Sweden","latitude":"59.32667000","longitude":"14.52386000","wikiDataId":"Q54732"},{"id":103409,"name":"Kopparberg","stateId":1539,"stateCode":"T","stateName":"Örebro County","countryId":213,"countryCode":"SE","countryName":"Sweden","latitude":"59.87597000","longitude":"14.99436000","wikiDataId":"Q1018719"},{"id":103420,"name":"Kumla","stateId":1539,"stateCode":"T","stateName":"Örebro County","countryId":213,"countryCode":"SE","countryName":"Sweden","latitude":"59.12770000","longitude":"15.14341000","wikiDataId":"Q725826"},{"id":103453,"name":"Laxå","stateId":1539,"stateCode":"T","stateName":"Örebro County","countryId":213,"countryCode":"SE","countryName":"Sweden","latitude":"58.98630000","longitude":"14.61904000","wikiDataId":"Q1076290"},{"id":103469,"name":"Lindesberg","stateId":1539,"stateCode":"T","stateName":"Örebro County","countryId":213,"countryCode":"SE","countryName":"Sweden","latitude":"59.59202000","longitude":"15.23040000","wikiDataId":"Q656562"},{"id":103577,"name":"Nora","stateId":1539,"stateCode":"T","stateName":"Örebro County","countryId":213,"countryCode":"SE","countryName":"Sweden","latitude":"59.51926000","longitude":"15.03979000","wikiDataId":"Q83679"},{"id":103609,"name":"Odensbacken","stateId":1539,"stateCode":"T","stateName":"Örebro County","countryId":213,"countryCode":"SE","countryName":"Sweden","latitude":"59.16667000","longitude":"15.53333000","wikiDataId":"Q2381684"},{"id":104034,"name":"Örebro","stateId":1539,"stateCode":"T","stateName":"Örebro County","countryId":213,"countryCode":"SE","countryName":"Sweden","latitude":"59.27412000","longitude":"15.20660000","wikiDataId":"Q25732"},{"id":103640,"name":"Pålsboda","stateId":1539,"stateCode":"T","stateName":"Örebro County","countryId":213,"countryCode":"SE","countryName":"Sweden","latitude":"59.06565000","longitude":"15.33747000","wikiDataId":"Q1963133"},{"id":103723,"name":"Sköllersta","stateId":1539,"stateCode":"T","stateName":"Örebro County","countryId":213,"countryCode":"SE","countryName":"Sweden","latitude":"59.13738000","longitude":"15.33940000","wikiDataId":"Q649659"},{"id":103770,"name":"Storå","stateId":1539,"stateCode":"T","stateName":"Örebro County","countryId":213,"countryCode":"SE","countryName":"Sweden","latitude":"59.71409000","longitude":"15.13169000","wikiDataId":"Q261808"},{"id":103955,"name":"Vintrosa","stateId":1539,"stateCode":"T","stateName":"Örebro County","countryId":213,"countryCode":"SE","countryName":"Sweden","latitude":"59.25000000","longitude":"14.95000000","wikiDataId":"Q2887103"}]