[{"id":150506,"name":"Ashkhaneh","stateId":3942,"stateCode":"28","stateName":"North Khorasan","countryId":103,"countryCode":"IR","countryName":"Iran","latitude":"37.55917080","longitude":"56.90694800","wikiDataId":null},{"id":150507,"name":"Ava","stateId":3942,"stateCode":"28","stateName":"North Khorasan","countryId":103,"countryCode":"IR","countryName":"Iran","latitude":"37.47722200","longitude":"56.74111100","wikiDataId":null},{"id":134587,"name":"Bojnurd","stateId":3942,"stateCode":"28","stateName":"North Khorasan","countryId":103,"countryCode":"IR","countryName":"Iran","latitude":"37.47473000","longitude":"57.32903000","wikiDataId":"Q317946"},{"id":150494,"name":"Chenaran Shahr","stateId":3942,"stateCode":"28","stateName":"North Khorasan","countryId":103,"countryCode":"IR","countryName":"Iran","latitude":"37.46480280","longitude":"57.43791020","wikiDataId":null},{"id":150504,"name":"Daraq","stateId":3942,"stateCode":"28","stateName":"North Khorasan","countryId":103,"countryCode":"IR","countryName":"Iran","latitude":"36.97032870","longitude":"56.20023960","wikiDataId":null},{"id":134630,"name":"Esfarayen","stateId":3942,"stateCode":"28","stateName":"North Khorasan","countryId":103,"countryCode":"IR","countryName":"Iran","latitude":"37.07645000","longitude":"57.51009000","wikiDataId":"Q42284"},{"id":150502,"name":"Farooj","stateId":3942,"stateCode":"28","stateName":"North Khorasan","countryId":103,"countryCode":"IR","countryName":"Iran","latitude":"37.18743970","longitude":"57.53594140","wikiDataId":null},{"id":134873,"name":"Faruj","stateId":3942,"stateCode":"28","stateName":"North Khorasan","countryId":103,"countryCode":"IR","countryName":"Iran","latitude":"37.21667000","longitude":"58.21667000","wikiDataId":"Q721034"},{"id":150505,"name":"Garmeh","stateId":3942,"stateCode":"28","stateName":"North Khorasan","countryId":103,"countryCode":"IR","countryName":"Iran","latitude":"36.98811280","longitude":"56.26396410","wikiDataId":null},{"id":150495,"name":"Hesar-e Garmkhan","stateId":3942,"stateCode":"28","stateName":"North Khorasan","countryId":103,"countryCode":"IR","countryName":"Iran","latitude":"37.51944400","longitude":"57.48250000","wikiDataId":null},{"id":150503,"name":"Ivar","stateId":3942,"stateCode":"28","stateName":"North Khorasan","countryId":103,"countryCode":"IR","countryName":"Iran","latitude":"36.96991740","longitude":"56.25472080","wikiDataId":null},{"id":134899,"name":"Jajarm","stateId":3942,"stateCode":"28","stateName":"North Khorasan","countryId":103,"countryCode":"IR","countryName":"Iran","latitude":"37.01667000","longitude":"56.68333000","wikiDataId":"Q721034"},{"id":150500,"name":"Lujali","stateId":3942,"stateCode":"28","stateName":"North Khorasan","countryId":103,"countryCode":"IR","countryName":"Iran","latitude":"37.60805600","longitude":"57.85750000","wikiDataId":null},{"id":134968,"name":"Maneh va Samalqan","stateId":3942,"stateCode":"28","stateName":"North Khorasan","countryId":103,"countryCode":"IR","countryName":"Iran","latitude":"37.70000000","longitude":"56.60000000","wikiDataId":"Q7408530"},{"id":150508,"name":"Pish Ghaleh","stateId":3942,"stateCode":"28","stateName":"North Khorasan","countryId":103,"countryCode":"IR","countryName":"Iran","latitude":"37.65006930","longitude":"56.98857310","wikiDataId":null},{"id":150509,"name":"Qazi","stateId":3942,"stateCode":"28","stateName":"North Khorasan","countryId":103,"countryCode":"IR","countryName":"Iran","latitude":"37.84754450","longitude":"57.31184360","wikiDataId":null},{"id":150499,"name":"Qushkhaneh","stateId":3942,"stateCode":"28","stateName":"North Khorasan","countryId":103,"countryCode":"IR","countryName":"Iran","latitude":"37.74660970","longitude":"57.70606400","wikiDataId":null},{"id":134750,"name":"Raz","stateId":3942,"stateCode":"28","stateName":"North Khorasan","countryId":103,"countryCode":"IR","countryName":"Iran","latitude":"37.93060000","longitude":"57.11940000","wikiDataId":"Q2724644"},{"id":150493,"name":"Safiabad","stateId":3942,"stateCode":"28","stateName":"North Khorasan","countryId":103,"countryCode":"IR","countryName":"Iran","latitude":"36.69452330","longitude":"57.92146670","wikiDataId":null},{"id":150496,"name":"Sankhast","stateId":3942,"stateCode":"28","stateName":"North Khorasan","countryId":103,"countryCode":"IR","countryName":"Iran","latitude":"37.10227080","longitude":"56.85038560","wikiDataId":null},{"id":135112,"name":"Shirvan","stateId":3942,"stateCode":"28","stateName":"North Khorasan","countryId":103,"countryCode":"IR","countryName":"Iran","latitude":"37.39669000","longitude":"57.92952000","wikiDataId":"Q10881114"},{"id":150497,"name":"Shoqan","stateId":3942,"stateCode":"28","stateName":"North Khorasan","countryId":103,"countryCode":"IR","countryName":"Iran","latitude":"37.34160420","longitude":"56.87828070","wikiDataId":null},{"id":150501,"name":"Titkanlu","stateId":3942,"stateCode":"28","stateName":"North Khorasan","countryId":103,"countryCode":"IR","countryName":"Iran","latitude":"37.22889760","longitude":"58.29700970","wikiDataId":null},{"id":150498,"name":"Ziarat","stateId":3942,"stateCode":"28","stateName":"North Khorasan","countryId":103,"countryCode":"IR","countryName":"Iran","latitude":"36.71608360","longitude":"58.54554170","wikiDataId":null}]