[{"id":153476,"name":"Sembawang","stateId":4653,"stateCode":"03","stateName":"North West","countryId":199,"countryCode":"SG","countryName":"Singapore","latitude":"1.44910000","longitude":"103.82010000","wikiDataId":"Q1531283"},{"id":104058,"name":"Woodlands","stateId":4653,"stateCode":"03","stateName":"North West","countryId":199,"countryCode":"SG","countryName":"Singapore","latitude":"1.43801000","longitude":"103.78877000","wikiDataId":"Q334"},{"id":153470,"name":"Yishun","stateId":4653,"stateCode":"03","stateName":"North West","countryId":199,"countryCode":"SG","countryName":"Singapore","latitude":"1.42930000","longitude":"103.83550000","wikiDataId":"Q199051"},{"id":153478,"name":"Bedok","stateId":4650,"stateCode":"03","stateName":"South East","countryId":199,"countryCode":"SG","countryName":"Singapore","latitude":"1.32360000","longitude":"103.92730000","wikiDataId":"Q239092"},{"id":153479,"name":"Pasir Ris","stateId":4650,"stateCode":"03","stateName":"South East","countryId":199,"countryCode":"SG","countryName":"Singapore","latitude":"1.37390000","longitude":"103.94930000","wikiDataId":"Q230274"},{"id":153477,"name":"Tampines","stateId":4650,"stateCode":"03","stateName":"South East","countryId":199,"countryCode":"SG","countryName":"Singapore","latitude":"1.35470000","longitude":"103.94370000","wikiDataId":"Q191699"},{"id":153481,"name":"Bukit Batok","stateId":4652,"stateCode":"03","stateName":"South West","countryId":199,"countryCode":"SG","countryName":"Singapore","latitude":"1.34960000","longitude":"103.75280000","wikiDataId":"Q225021"},{"id":153482,"name":"Bukit Panjang","stateId":4652,"stateCode":"03","stateName":"South West","countryId":199,"countryCode":"SG","countryName":"Singapore","latitude":"1.37860000","longitude":"103.76260000","wikiDataId":"Q199242"},{"id":153480,"name":"Jurong West","stateId":4652,"stateCode":"03","stateName":"South West","countryId":199,"countryCode":"SG","countryName":"Singapore","latitude":"1.33960000","longitude":"103.70730000","wikiDataId":"Q190717"}]