[{"id":8454,"name":"Azimpur","stateId":771,"stateCode":"13","stateName":"Dhaka District","countryId":19,"countryCode":"BD","countryName":"Bangladesh","latitude":"23.72980000","longitude":"90.38540000","wikiDataId":"Q2544610"},{"id":8472,"name":"Bājitpur","stateId":771,"stateCode":"13","stateName":"Dhaka District","countryId":19,"countryCode":"BD","countryName":"Bangladesh","latitude":"24.21623000","longitude":"90.95002000","wikiDataId":"Q2039066"},{"id":8463,"name":"Bhairab Bāzār","stateId":771,"stateCode":"13","stateName":"Dhaka District","countryId":19,"countryCode":"BD","countryName":"Bangladesh","latitude":"24.05240000","longitude":"90.97640000","wikiDataId":"Q21746018"},{"id":8476,"name":"Char Bhadrāsan","stateId":771,"stateCode":"13","stateName":"Dhaka District","countryId":19,"countryCode":"BD","countryName":"Bangladesh","latitude":"23.30916000","longitude":"90.22698000","wikiDataId":"Q46043"},{"id":8477,"name":"Char Golora","stateId":771,"stateCode":"13","stateName":"Dhaka District","countryId":19,"countryCode":"BD","countryName":"Bangladesh","latitude":"23.82037000","longitude":"90.12175000","wikiDataId":"Q46043"},{"id":8486,"name":"Dhaka","stateId":771,"stateCode":"13","stateName":"Dhaka District","countryId":19,"countryCode":"BD","countryName":"Bangladesh","latitude":"23.81093000","longitude":"90.36542000","wikiDataId":"Q1850485"},{"id":8489,"name":"Dohār","stateId":771,"stateCode":"13","stateName":"Dhaka District","countryId":19,"countryCode":"BD","countryName":"Bangladesh","latitude":"23.59311000","longitude":"90.14251000","wikiDataId":"Q4161769"},{"id":8490,"name":"Faridpur","stateId":771,"stateCode":"13","stateName":"Dhaka District","countryId":19,"countryCode":"BD","countryName":"Bangladesh","latitude":"23.59419000","longitude":"89.82147000","wikiDataId":"Q2093552"},{"id":8496,"name":"Gazipur","stateId":771,"stateCode":"13","stateName":"Dhaka District","countryId":19,"countryCode":"BD","countryName":"Bangladesh","latitude":"24.20689000","longitude":"90.47241000","wikiDataId":"Q2094101"},{"id":8497,"name":"Gopalganj","stateId":771,"stateCode":"13","stateName":"Dhaka District","countryId":19,"countryCode":"BD","countryName":"Bangladesh","latitude":"23.16667000","longitude":"89.91667000","wikiDataId":"Q1537813"},{"id":8508,"name":"Joymontop","stateId":771,"stateCode":"13","stateName":"Dhaka District","countryId":19,"countryCode":"BD","countryName":"Bangladesh","latitude":"23.78789000","longitude":"90.16472000","wikiDataId":"Q2188750"},{"id":8513,"name":"Khanbaniara","stateId":771,"stateCode":"13","stateName":"Dhaka District","countryId":19,"countryCode":"BD","countryName":"Bangladesh","latitude":"23.78225000","longitude":"90.18382000","wikiDataId":"Q1429685"},{"id":8515,"name":"Kishoregonj","stateId":771,"stateCode":"13","stateName":"Dhaka District","countryId":19,"countryCode":"BD","countryName":"Bangladesh","latitude":"24.41667000","longitude":"90.95000000","wikiDataId":"Q2093344"},{"id":8516,"name":"Kishorganj","stateId":771,"stateCode":"13","stateName":"Dhaka District","countryId":19,"countryCode":"BD","countryName":"Bangladesh","latitude":"24.43944000","longitude":"90.78291000","wikiDataId":"Q2875992"},{"id":8527,"name":"Madaripur","stateId":771,"stateCode":"13","stateName":"Dhaka District","countryId":19,"countryCode":"BD","countryName":"Bangladesh","latitude":"23.25000000","longitude":"90.20000000","wikiDataId":"Q928836"},{"id":8531,"name":"Manikganj","stateId":771,"stateCode":"13","stateName":"Dhaka District","countryId":19,"countryCode":"BD","countryName":"Bangladesh","latitude":"23.86667000","longitude":"89.95000000","wikiDataId":"Q2024719"},{"id":8537,"name":"Mirzāpur","stateId":771,"stateCode":"13","stateName":"Dhaka District","countryId":19,"countryCode":"BD","countryName":"Bangladesh","latitude":"24.10287000","longitude":"90.09841000","wikiDataId":"Q1474206"},{"id":8540,"name":"Munshiganj","stateId":771,"stateCode":"13","stateName":"Dhaka District","countryId":19,"countryCode":"BD","countryName":"Bangladesh","latitude":"23.55000000","longitude":"90.36667000","wikiDataId":"Q1990519"},{"id":8555,"name":"Nāgarpur","stateId":771,"stateCode":"13","stateName":"Dhaka District","countryId":19,"countryCode":"BD","countryName":"Bangladesh","latitude":"24.05783000","longitude":"89.87696000","wikiDataId":"Q2188627"},{"id":8547,"name":"Narayanganj","stateId":771,"stateCode":"13","stateName":"Dhaka District","countryId":19,"countryCode":"BD","countryName":"Bangladesh","latitude":"23.75000000","longitude":"90.58333000","wikiDataId":"Q2208354"},{"id":8548,"name":"Narsingdi","stateId":771,"stateCode":"13","stateName":"Dhaka District","countryId":19,"countryCode":"BD","countryName":"Bangladesh","latitude":"23.92298000","longitude":"90.71768000","wikiDataId":"Q2799572"},{"id":8570,"name":"Pālang","stateId":771,"stateCode":"13","stateName":"Dhaka District","countryId":19,"countryCode":"BD","countryName":"Bangladesh","latitude":"23.21824000","longitude":"90.35076000","wikiDataId":"Q1004048"},{"id":8559,"name":"Paltan","stateId":771,"stateCode":"13","stateName":"Dhaka District","countryId":19,"countryCode":"BD","countryName":"Bangladesh","latitude":"23.73625000","longitude":"90.41426000","wikiDataId":"Q1083505"},{"id":8562,"name":"Parvez Ali","stateId":771,"stateCode":"13","stateName":"Dhaka District","countryId":19,"countryCode":"BD","countryName":"Bangladesh","latitude":"23.81741000","longitude":"90.11921000","wikiDataId":"Q2367822"},{"id":8563,"name":"Parvez Ali Hossain","stateId":771,"stateCode":"13","stateName":"Dhaka District","countryId":19,"countryCode":"BD","countryName":"Bangladesh","latitude":"23.78758000","longitude":"90.16487000","wikiDataId":"Q2367822"},{"id":8573,"name":"Rajbari","stateId":771,"stateCode":"13","stateName":"Dhaka District","countryId":19,"countryCode":"BD","countryName":"Bangladesh","latitude":"23.66667000","longitude":"89.55000000","wikiDataId":"Q2348762"},{"id":8575,"name":"Ramnagar","stateId":771,"stateCode":"13","stateName":"Dhaka District","countryId":19,"countryCode":"BD","countryName":"Bangladesh","latitude":"23.77720000","longitude":"90.17604000","wikiDataId":"Q2344697"},{"id":8583,"name":"Sakhipur","stateId":771,"stateCode":"13","stateName":"Dhaka District","countryId":19,"countryCode":"BD","countryName":"Bangladesh","latitude":"24.31988000","longitude":"90.16943000","wikiDataId":"Q21745886"},{"id":8588,"name":"Sayani","stateId":771,"stateCode":"13","stateName":"Dhaka District","countryId":19,"countryCode":"BD","countryName":"Bangladesh","latitude":"23.79119000","longitude":"90.16972000","wikiDataId":"Q1233680"},{"id":8589,"name":"Shariatpur","stateId":771,"stateCode":"13","stateName":"Dhaka District","countryId":19,"countryCode":"BD","countryName":"Bangladesh","latitude":"23.25000000","longitude":"90.36667000","wikiDataId":"Q253007"},{"id":8594,"name":"Sonārgaon","stateId":771,"stateCode":"13","stateName":"Dhaka District","countryId":19,"countryCode":"BD","countryName":"Bangladesh","latitude":"23.65000000","longitude":"90.61667000","wikiDataId":"Q2429432"},{"id":8599,"name":"Tangail","stateId":771,"stateCode":"13","stateName":"Dhaka District","countryId":19,"countryCode":"BD","countryName":"Bangladesh","latitude":"24.33853000","longitude":"89.98667000","wikiDataId":"Q952184"},{"id":8603,"name":"Tungi","stateId":771,"stateCode":"13","stateName":"Dhaka District","countryId":19,"countryCode":"BD","countryName":"Bangladesh","latitude":"23.89154000","longitude":"90.40232000","wikiDataId":"Q1756617"},{"id":8604,"name":"Tungipāra","stateId":771,"stateCode":"13","stateName":"Dhaka District","countryId":19,"countryCode":"BD","countryName":"Bangladesh","latitude":"22.89983000","longitude":"89.90326000","wikiDataId":"Q1756617"}]