[{"id":15653,"name":"Água Branca","stateId":2005,"stateCode":"PB","stateName":"Paraíba","countryId":31,"countryCode":"BR","countryName":"Brazil","latitude":"-7.46957000","longitude":"-37.66100000","wikiDataId":"Q1808899"},{"id":10100,"name":"Aguiar","stateId":2005,"stateCode":"PB","stateName":"Paraíba","countryId":31,"countryCode":"BR","countryName":"Brazil","latitude":"-7.07620000","longitude":"-38.24255000","wikiDataId":"Q1998462"},{"id":10108,"name":"Alagoa Grande","stateId":2005,"stateCode":"PB","stateName":"Paraíba","countryId":31,"countryCode":"BR","countryName":"Brazil","latitude":"-7.07831000","longitude":"-35.59525000","wikiDataId":"Q1998976"},{"id":10109,"name":"Alagoa Nova","stateId":2005,"stateCode":"PB","stateName":"Paraíba","countryId":31,"countryCode":"BR","countryName":"Brazil","latitude":"-7.04733000","longitude":"-35.75397000","wikiDataId":"Q1816238"},{"id":10110,"name":"Alagoinha","stateId":2005,"stateCode":"PB","stateName":"Paraíba","countryId":31,"countryCode":"BR","countryName":"Brazil","latitude":"-6.96256000","longitude":"-35.51465000","wikiDataId":"Q2065239"},{"id":10116,"name":"Alcantil","stateId":2005,"stateCode":"PB","stateName":"Paraíba","countryId":31,"countryCode":"BR","countryName":"Brazil","latitude":"-7.69816000","longitude":"-36.06604000","wikiDataId":"Q986243"},{"id":10135,"name":"Algodão de Jandaíra","stateId":2005,"stateCode":"PB","stateName":"Paraíba","countryId":31,"countryCode":"BR","countryName":"Brazil","latitude":"-6.86987000","longitude":"-35.97724000","wikiDataId":"Q1759357"},{"id":10136,"name":"Alhandra","stateId":2005,"stateCode":"PB","stateName":"Paraíba","countryId":31,"countryCode":"BR","countryName":"Brazil","latitude":"-7.35043000","longitude":"-34.92835000","wikiDataId":"Q385529"},{"id":10219,"name":"Amparo","stateId":2005,"stateCode":"PB","stateName":"Paraíba","countryId":31,"countryCode":"BR","countryName":"Brazil","latitude":"-7.55889000","longitude":"-37.03372000","wikiDataId":"Q2010915"},{"id":10284,"name":"Aparecida","stateId":2005,"stateCode":"PB","stateName":"Paraíba","countryId":31,"countryCode":"BR","countryName":"Brazil","latitude":"-6.80925000","longitude":"-38.07182000","wikiDataId":"Q2077855"},{"id":10366,"name":"Araçagi","stateId":2005,"stateCode":"PB","stateName":"Paraíba","countryId":31,"countryCode":"BR","countryName":"Brazil","latitude":"-6.85419000","longitude":"-35.36047000","wikiDataId":"Q586057"},{"id":10347,"name":"Arara","stateId":2005,"stateCode":"PB","stateName":"Paraíba","countryId":31,"countryCode":"BR","countryName":"Brazil","latitude":"-6.82833000","longitude":"-35.75833000","wikiDataId":"Q37378"},{"id":10357,"name":"Araruna","stateId":2005,"stateCode":"PB","stateName":"Paraíba","countryId":31,"countryCode":"BR","countryName":"Brazil","latitude":"-6.55833000","longitude":"-35.74167000","wikiDataId":"Q2065337"},{"id":10383,"name":"Areia","stateId":2005,"stateCode":"PB","stateName":"Paraíba","countryId":31,"countryCode":"BR","countryName":"Brazil","latitude":"-6.94723000","longitude":"-35.66927000","wikiDataId":"Q1816283"},{"id":10386,"name":"Areia de Baraúnas","stateId":2005,"stateCode":"PB","stateName":"Paraíba","countryId":31,"countryCode":"BR","countryName":"Brazil","latitude":"-7.11328000","longitude":"-36.97177000","wikiDataId":"Q949854"},{"id":10387,"name":"Areial","stateId":2005,"stateCode":"PB","stateName":"Paraíba","countryId":31,"countryCode":"BR","countryName":"Brazil","latitude":"-7.04397000","longitude":"-35.92622000","wikiDataId":"Q949854"},{"id":10405,"name":"Aroeiras","stateId":2005,"stateCode":"PB","stateName":"Paraíba","countryId":31,"countryCode":"BR","countryName":"Brazil","latitude":"-7.52057000","longitude":"-35.69927000","wikiDataId":"Q1808029"},{"id":10430,"name":"Assunção","stateId":2005,"stateCode":"PB","stateName":"Paraíba","countryId":31,"countryCode":"BR","countryName":"Brazil","latitude":"-7.07371000","longitude":"-36.69894000","wikiDataId":"Q742227"},{"id":10589,"name":"Baía da Traição","stateId":2005,"stateCode":"PB","stateName":"Paraíba","countryId":31,"countryCode":"BR","countryName":"Brazil","latitude":"-6.66287000","longitude":"-34.97272000","wikiDataId":"Q2065978"},{"id":10496,"name":"Bananeiras","stateId":2005,"stateCode":"PB","stateName":"Paraíba","countryId":31,"countryCode":"BR","countryName":"Brazil","latitude":"-6.75000000","longitude":"-35.63333000","wikiDataId":"Q525672"},{"id":10505,"name":"Baraúna","stateId":2005,"stateCode":"PB","stateName":"Paraíba","countryId":31,"countryCode":"BR","countryName":"Brazil","latitude":"-6.61853000","longitude":"-36.26964000","wikiDataId":"Q2662559"},{"id":10525,"name":"Barra de Santa Rosa","stateId":2005,"stateCode":"PB","stateName":"Paraíba","countryId":31,"countryCode":"BR","countryName":"Brazil","latitude":"-6.79042000","longitude":"-36.00175000","wikiDataId":"Q1795377"},{"id":10526,"name":"Barra de Santana","stateId":2005,"stateCode":"PB","stateName":"Paraíba","countryId":31,"countryCode":"BR","countryName":"Brazil","latitude":"-7.59054000","longitude":"-35.98824000","wikiDataId":"Q1795377"},{"id":10530,"name":"Barra de São Miguel","stateId":2005,"stateCode":"PB","stateName":"Paraíba","countryId":31,"countryCode":"BR","countryName":"Brazil","latitude":"-7.71640000","longitude":"-36.25481000","wikiDataId":"Q1794183"},{"id":10587,"name":"Bayeux","stateId":2005,"stateCode":"PB","stateName":"Paraíba","countryId":31,"countryCode":"BR","countryName":"Brazil","latitude":"-7.12136000","longitude":"-34.91725000","wikiDataId":"Q2065978"},{"id":10614,"name":"Belém","stateId":2005,"stateCode":"PB","stateName":"Paraíba","countryId":31,"countryCode":"BR","countryName":"Brazil","latitude":"-6.69167000","longitude":"-35.53333000","wikiDataId":"Q792606"},{"id":10619,"name":"Belém do Brejo do Cruz","stateId":2005,"stateCode":"PB","stateName":"Paraíba","countryId":31,"countryCode":"BR","countryName":"Brazil","latitude":"-6.18861000","longitude":"-37.53583000","wikiDataId":"Q285051"},{"id":10634,"name":"Bernardino Batista","stateId":2005,"stateCode":"PB","stateName":"Paraíba","countryId":31,"countryCode":"BR","countryName":"Brazil","latitude":"-6.47656000","longitude":"-38.56998000","wikiDataId":"Q2068952"},{"id":10664,"name":"Boa Ventura","stateId":2005,"stateCode":"PB","stateName":"Paraíba","countryId":31,"countryCode":"BR","countryName":"Brazil","latitude":"-7.45676000","longitude":"-38.17678000","wikiDataId":"Q268938"},{"id":10667,"name":"Boa Vista","stateId":2005,"stateCode":"PB","stateName":"Paraíba","countryId":31,"countryCode":"BR","countryName":"Brazil","latitude":"-7.26995000","longitude":"-36.15741000","wikiDataId":"Q1808337"},{"id":10700,"name":"Bom Jesus","stateId":2005,"stateCode":"PB","stateName":"Paraíba","countryId":31,"countryCode":"BR","countryName":"Brazil","latitude":"-6.81845000","longitude":"-38.62549000","wikiDataId":"Q2066065"},{"id":10725,"name":"Bom Sucesso","stateId":2005,"stateCode":"PB","stateName":"Paraíba","countryId":31,"countryCode":"BR","countryName":"Brazil","latitude":"-6.47349000","longitude":"-37.95770000","wikiDataId":"Q2087575"},{"id":10741,"name":"Bonito de Santa Fé","stateId":2005,"stateCode":"PB","stateName":"Paraíba","countryId":31,"countryCode":"BR","countryName":"Brazil","latitude":"-7.28940000","longitude":"-38.47977000","wikiDataId":"Q776733"},{"id":10743,"name":"Boqueirão","stateId":2005,"stateCode":"PB","stateName":"Paraíba","countryId":31,"countryCode":"BR","countryName":"Brazil","latitude":"-7.48237000","longitude":"-36.13422000","wikiDataId":"Q22027642"},{"id":10751,"name":"Borborema","stateId":2005,"stateCode":"PB","stateName":"Paraíba","countryId":31,"countryCode":"BR","countryName":"Brazil","latitude":"-6.79913000","longitude":"-35.62094000","wikiDataId":"Q338286"},{"id":10795,"name":"Brejo do Cruz","stateId":2005,"stateCode":"PB","stateName":"Paraíba","countryId":31,"countryCode":"BR","countryName":"Brazil","latitude":"-6.32578000","longitude":"-37.49716000","wikiDataId":"Q1808002"},{"id":10797,"name":"Brejo dos Santos","stateId":2005,"stateCode":"PB","stateName":"Paraíba","countryId":31,"countryCode":"BR","countryName":"Brazil","latitude":"-6.39546000","longitude":"-37.86070000","wikiDataId":"Q1808002"},{"id":10842,"name":"Caaporã","stateId":2005,"stateCode":"PB","stateName":"Paraíba","countryId":31,"countryCode":"BR","countryName":"Brazil","latitude":"-7.51556000","longitude":"-34.90833000","wikiDataId":"Q1816118"},{"id":10845,"name":"Cabaceiras","stateId":2005,"stateCode":"PB","stateName":"Paraíba","countryId":31,"countryCode":"BR","countryName":"Brazil","latitude":"-7.50856000","longitude":"-36.33351000","wikiDataId":"Q279492"},{"id":10850,"name":"Cabedelo","stateId":2005,"stateCode":"PB","stateName":"Paraíba","countryId":31,"countryCode":"BR","countryName":"Brazil","latitude":"-6.98111000","longitude":"-34.83389000","wikiDataId":"Q986350"},{"id":10874,"name":"Cachoeira dos Índios","stateId":2005,"stateCode":"PB","stateName":"Paraíba","countryId":31,"countryCode":"BR","countryName":"Brazil","latitude":"-6.94486000","longitude":"-38.69902000","wikiDataId":"Q1816046"},{"id":10880,"name":"Cacimba de Areia","stateId":2005,"stateCode":"PB","stateName":"Paraíba","countryId":31,"countryCode":"BR","countryName":"Brazil","latitude":"-7.13451000","longitude":"-37.15370000","wikiDataId":"Q1439193"},{"id":10881,"name":"Cacimba de Dentro","stateId":2005,"stateCode":"PB","stateName":"Paraíba","countryId":31,"countryCode":"BR","countryName":"Brazil","latitude":"-6.64167000","longitude":"-35.79000000","wikiDataId":"Q1816227"},{"id":10882,"name":"Cacimbas","stateId":2005,"stateCode":"PB","stateName":"Paraíba","countryId":31,"countryCode":"BR","countryName":"Brazil","latitude":"-7.23180000","longitude":"-37.09984000","wikiDataId":"Q1816227"},{"id":10907,"name":"Caiçara","stateId":2005,"stateCode":"PB","stateName":"Paraíba","countryId":31,"countryCode":"BR","countryName":"Brazil","latitude":"-6.59631000","longitude":"-35.39497000","wikiDataId":"Q22046952"},{"id":10915,"name":"Cajazeiras","stateId":2005,"stateCode":"PB","stateName":"Paraíba","countryId":31,"countryCode":"BR","countryName":"Brazil","latitude":"-6.89028000","longitude":"-38.55528000","wikiDataId":"Q1808637"},{"id":10917,"name":"Cajazeirinhas","stateId":2005,"stateCode":"PB","stateName":"Paraíba","countryId":31,"countryCode":"BR","countryName":"Brazil","latitude":"-6.94633000","longitude":"-37.81454000","wikiDataId":"Q1808637"},{"id":10924,"name":"Caldas Brandão","stateId":2005,"stateCode":"PB","stateName":"Paraíba","countryId":31,"countryCode":"BR","countryName":"Brazil","latitude":"-7.15105000","longitude":"-35.34870000","wikiDataId":"Q22062733"},{"id":10936,"name":"Camalaú","stateId":2005,"stateCode":"PB","stateName":"Paraíba","countryId":31,"countryCode":"BR","countryName":"Brazil","latitude":"-7.92695000","longitude":"-36.74211000","wikiDataId":"Q1816125"},{"id":10962,"name":"Campina Grande","stateId":2005,"stateCode":"PB","stateName":"Paraíba","countryId":31,"countryCode":"BR","countryName":"Brazil","latitude":"-7.23056000","longitude":"-35.88111000","wikiDataId":"Q193016"},{"id":11073,"name":"Capim","stateId":2005,"stateCode":"PB","stateName":"Paraíba","countryId":31,"countryCode":"BR","countryName":"Brazil","latitude":"-6.89150000","longitude":"-35.18300000","wikiDataId":"Q1808017"},{"id":11118,"name":"Caraúbas","stateId":2005,"stateCode":"PB","stateName":"Paraíba","countryId":31,"countryCode":"BR","countryName":"Brazil","latitude":"-7.79092000","longitude":"-36.50278000","wikiDataId":"Q2078721"},{"id":11164,"name":"Carrapateira","stateId":2005,"stateCode":"PB","stateName":"Paraíba","countryId":31,"countryCode":"BR","countryName":"Brazil","latitude":"-7.02919000","longitude":"-38.32951000","wikiDataId":"Q749757"},{"id":11182,"name":"Casserengue","stateId":2005,"stateCode":"PB","stateName":"Paraíba","countryId":31,"countryCode":"BR","countryName":"Brazil","latitude":"-6.78130000","longitude":"-35.81676000","wikiDataId":"Q1816259"},{"id":11203,"name":"Catingueira","stateId":2005,"stateCode":"PB","stateName":"Paraíba","countryId":31,"countryCode":"BR","countryName":"Brazil","latitude":"-7.13699000","longitude":"-37.59654000","wikiDataId":"Q2011032"},{"id":11205,"name":"Catolé do Rocha","stateId":2005,"stateCode":"PB","stateName":"Paraíba","countryId":31,"countryCode":"BR","countryName":"Brazil","latitude":"-6.34389000","longitude":"-37.74667000","wikiDataId":"Q1808697"},{"id":11211,"name":"Caturité","stateId":2005,"stateCode":"PB","stateName":"Paraíba","countryId":31,"countryCode":"BR","countryName":"Brazil","latitude":"-7.41991000","longitude":"-36.04194000","wikiDataId":"Q22059575"},{"id":11344,"name":"Conceição","stateId":2005,"stateCode":"PB","stateName":"Paraíba","countryId":31,"countryCode":"BR","countryName":"Brazil","latitude":"-7.49917000","longitude":"-38.51375000","wikiDataId":"Q1221976"},{"id":11370,"name":"Condado","stateId":2005,"stateCode":"PB","stateName":"Paraíba","countryId":31,"countryCode":"BR","countryName":"Brazil","latitude":"-6.85244000","longitude":"-37.61864000","wikiDataId":"Q507095"},{"id":11371,"name":"Conde","stateId":2005,"stateCode":"PB","stateName":"Paraíba","countryId":31,"countryCode":"BR","countryName":"Brazil","latitude":"-7.25972000","longitude":"-34.90750000","wikiDataId":"Q1999780"},{"id":11377,"name":"Congo","stateId":2005,"stateCode":"PB","stateName":"Paraíba","countryId":31,"countryCode":"BR","countryName":"Brazil","latitude":"-7.79578000","longitude":"-36.63487000","wikiDataId":"Q2009615"},{"id":11406,"name":"Coremas","stateId":2005,"stateCode":"PB","stateName":"Paraíba","countryId":31,"countryCode":"BR","countryName":"Brazil","latitude":"-7.01444000","longitude":"-37.94583000","wikiDataId":"Q1843416"},{"id":11459,"name":"Coxixola","stateId":2005,"stateCode":"PB","stateName":"Paraíba","countryId":31,"countryCode":"BR","countryName":"Brazil","latitude":"-7.66749000","longitude":"-36.61824000","wikiDataId":"Q1793013"},{"id":11492,"name":"Cruz do Espírito Santo","stateId":2005,"stateCode":"PB","stateName":"Paraíba","countryId":31,"countryCode":"BR","countryName":"Brazil","latitude":"-7.14000000","longitude":"-35.08639000","wikiDataId":"Q512810"},{"id":11505,"name":"Cubati","stateId":2005,"stateCode":"PB","stateName":"Paraíba","countryId":31,"countryCode":"BR","countryName":"Brazil","latitude":"-6.86116000","longitude":"-36.33415000","wikiDataId":"Q1756446"},{"id":11509,"name":"Cuité","stateId":2005,"stateCode":"PB","stateName":"Paraíba","countryId":31,"countryCode":"BR","countryName":"Brazil","latitude":"-6.48361000","longitude":"-36.15361000","wikiDataId":"Q2064364"},{"id":11510,"name":"Cuité de Mamanguape","stateId":2005,"stateCode":"PB","stateName":"Paraíba","countryId":31,"countryCode":"BR","countryName":"Brazil","latitude":"-6.89788000","longitude":"-35.26042000","wikiDataId":"Q2064364"},{"id":11508,"name":"Cuitegi","stateId":2005,"stateCode":"PB","stateName":"Paraíba","countryId":31,"countryCode":"BR","countryName":"Brazil","latitude":"-6.90639000","longitude":"-35.53423000","wikiDataId":"Q170762"},{"id":11531,"name":"Curral de Cima","stateId":2005,"stateCode":"PB","stateName":"Paraíba","countryId":31,"countryCode":"BR","countryName":"Brazil","latitude":"-6.72359000","longitude":"-35.28596000","wikiDataId":"Q2010383"},{"id":11530,"name":"Curral Velho","stateId":2005,"stateCode":"PB","stateName":"Paraíba","countryId":31,"countryCode":"BR","countryName":"Brazil","latitude":"-7.55796000","longitude":"-38.19847000","wikiDataId":"Q2010383"},{"id":11560,"name":"Damião","stateId":2005,"stateCode":"PB","stateName":"Paraíba","countryId":31,"countryCode":"BR","countryName":"Brazil","latitude":"-6.67843000","longitude":"-35.92205000","wikiDataId":"Q663661"},{"id":11579,"name":"Desterro","stateId":2005,"stateCode":"PB","stateName":"Paraíba","countryId":31,"countryCode":"BR","countryName":"Brazil","latitude":"-7.29056000","longitude":"-37.09389000","wikiDataId":"Q2009945"},{"id":11584,"name":"Diamante","stateId":2005,"stateCode":"PB","stateName":"Paraíba","countryId":31,"countryCode":"BR","countryName":"Brazil","latitude":"-7.41004000","longitude":"-38.30873000","wikiDataId":"Q651891"},{"id":11642,"name":"Dona Inês","stateId":2005,"stateCode":"PB","stateName":"Paraíba","countryId":31,"countryCode":"BR","countryName":"Brazil","latitude":"-6.61354000","longitude":"-35.62654000","wikiDataId":"Q1814531"},{"id":11665,"name":"Duas Estradas","stateId":2005,"stateCode":"PB","stateName":"Paraíba","countryId":31,"countryCode":"BR","countryName":"Brazil","latitude":"-6.71946000","longitude":"-35.39737000","wikiDataId":"Q303413"},{"id":11687,"name":"Emas","stateId":2005,"stateCode":"PB","stateName":"Paraíba","countryId":31,"countryCode":"BR","countryName":"Brazil","latitude":"-7.12680000","longitude":"-37.73881000","wikiDataId":"Q939717"},{"id":11731,"name":"Esperança","stateId":2005,"stateCode":"PB","stateName":"Paraíba","countryId":31,"countryCode":"BR","countryName":"Brazil","latitude":"-6.99864000","longitude":"-35.90777000","wikiDataId":"Q1816186"},{"id":11770,"name":"Fagundes","stateId":2005,"stateCode":"PB","stateName":"Paraíba","countryId":31,"countryCode":"BR","countryName":"Brazil","latitude":"-7.35500000","longitude":"-35.77500000","wikiDataId":"Q2011192"},{"id":11894,"name":"Frei Martinho","stateId":2005,"stateCode":"PB","stateName":"Paraíba","countryId":31,"countryCode":"BR","countryName":"Brazil","latitude":"-6.44605000","longitude":"-36.48061000","wikiDataId":"Q1790769"},{"id":11911,"name":"Gado Bravo","stateId":2005,"stateCode":"PB","stateName":"Paraíba","countryId":31,"countryCode":"BR","countryName":"Brazil","latitude":"-7.59984000","longitude":"-35.81967000","wikiDataId":"Q593133"},{"id":12034,"name":"Guarabira","stateId":2005,"stateCode":"PB","stateName":"Paraíba","countryId":31,"countryCode":"BR","countryName":"Brazil","latitude":"-6.85472000","longitude":"-35.49000000","wikiDataId":"Q1827121"},{"id":12086,"name":"Gurinhém","stateId":2005,"stateCode":"PB","stateName":"Paraíba","countryId":31,"countryCode":"BR","countryName":"Brazil","latitude":"-7.12389000","longitude":"-35.42444000","wikiDataId":"Q1991293"},{"id":12087,"name":"Gurjão","stateId":2005,"stateCode":"PB","stateName":"Paraíba","countryId":31,"countryCode":"BR","countryName":"Brazil","latitude":"-7.26100000","longitude":"-36.50008000","wikiDataId":"Q1991293"},{"id":12130,"name":"Ibiara","stateId":2005,"stateCode":"PB","stateName":"Paraíba","countryId":31,"countryCode":"BR","countryName":"Brazil","latitude":"-7.48251000","longitude":"-38.38051000","wikiDataId":"Q2028027"},{"id":12179,"name":"Igaracy","stateId":2005,"stateCode":"PB","stateName":"Paraíba","countryId":31,"countryCode":"BR","countryName":"Brazil","latitude":"-7.13856000","longitude":"-38.13526000","wikiDataId":"Q1808097"},{"id":12217,"name":"Imaculada","stateId":2005,"stateCode":"PB","stateName":"Paraíba","countryId":31,"countryCode":"BR","countryName":"Brazil","latitude":"-7.38972000","longitude":"-37.50917000","wikiDataId":"Q2009933"},{"id":12245,"name":"Ingá","stateId":2005,"stateCode":"PB","stateName":"Paraíba","countryId":31,"countryCode":"BR","countryName":"Brazil","latitude":"-7.25441000","longitude":"-35.62897000","wikiDataId":"Q929040"},{"id":12325,"name":"Itabaiana","stateId":2005,"stateCode":"PB","stateName":"Paraíba","countryId":31,"countryCode":"BR","countryName":"Brazil","latitude":"-7.32861000","longitude":"-35.33250000","wikiDataId":"Q2103719"},{"id":12430,"name":"Itaporanga","stateId":2005,"stateCode":"PB","stateName":"Paraíba","countryId":31,"countryCode":"BR","countryName":"Brazil","latitude":"-7.30035000","longitude":"-38.25159000","wikiDataId":"Q2079014"},{"id":12432,"name":"Itapororoca","stateId":2005,"stateCode":"PB","stateName":"Paraíba","countryId":31,"countryCode":"BR","countryName":"Brazil","latitude":"-6.81152000","longitude":"-35.24478000","wikiDataId":"Q2079014"},{"id":12461,"name":"Itatuba","stateId":2005,"stateCode":"PB","stateName":"Paraíba","countryId":31,"countryCode":"BR","countryName":"Brazil","latitude":"-7.37500000","longitude":"-35.62833000","wikiDataId":"Q2008704"},{"id":12518,"name":"Jacaraú","stateId":2005,"stateCode":"PB","stateName":"Paraíba","countryId":31,"countryCode":"BR","countryName":"Brazil","latitude":"-6.61222000","longitude":"-35.29278000","wikiDataId":"Q2010372"},{"id":12621,"name":"Jericó","stateId":2005,"stateCode":"PB","stateName":"Paraíba","countryId":31,"countryCode":"BR","countryName":"Brazil","latitude":"-6.50746000","longitude":"-37.80665000","wikiDataId":"Q1761820"},{"id":12665,"name":"João Pessoa","stateId":2005,"stateCode":"PB","stateName":"Paraíba","countryId":31,"countryCode":"BR","countryName":"Brazil","latitude":"-7.11500000","longitude":"-34.86306000","wikiDataId":"Q167436"},{"id":12643,"name":"Joca Claudino","stateId":2005,"stateCode":"PB","stateName":"Paraíba","countryId":31,"countryCode":"BR","countryName":"Brazil","latitude":"-6.48432000","longitude":"-38.46407000","wikiDataId":"Q2098422"},{"id":12669,"name":"Juarez Távora","stateId":2005,"stateCode":"PB","stateName":"Paraíba","countryId":31,"countryCode":"BR","countryName":"Brazil","latitude":"-7.15975000","longitude":"-35.57160000","wikiDataId":"Q675677"},{"id":12672,"name":"Juazeirinho","stateId":2005,"stateCode":"PB","stateName":"Paraíba","countryId":31,"countryCode":"BR","countryName":"Brazil","latitude":"-6.99463000","longitude":"-36.60213000","wikiDataId":"Q1790670"},{"id":12683,"name":"Junco do Seridó","stateId":2005,"stateCode":"PB","stateName":"Paraíba","countryId":31,"countryCode":"BR","countryName":"Brazil","latitude":"-6.97843000","longitude":"-36.72769000","wikiDataId":"Q193019"},{"id":12698,"name":"Juripiranga","stateId":2005,"stateCode":"PB","stateName":"Paraíba","countryId":31,"countryCode":"BR","countryName":"Brazil","latitude":"-7.35000000","longitude":"-35.22087000","wikiDataId":"Q2008351"},{"id":12699,"name":"Juru","stateId":2005,"stateCode":"PB","stateName":"Paraíba","countryId":31,"countryCode":"BR","countryName":"Brazil","latitude":"-7.49131000","longitude":"-37.78854000","wikiDataId":"Q1808550"},{"id":12733,"name":"Lagoa","stateId":2005,"stateCode":"PB","stateName":"Paraíba","countryId":31,"countryCode":"BR","countryName":"Brazil","latitude":"-6.59521000","longitude":"-37.84991000","wikiDataId":"Q305180"},{"id":12752,"name":"Lagoa de Dentro","stateId":2005,"stateCode":"PB","stateName":"Paraíba","countryId":31,"countryCode":"BR","countryName":"Brazil","latitude":"-6.68308000","longitude":"-35.35907000","wikiDataId":"Q2011329"},{"id":12746,"name":"Lagoa Seca","stateId":2005,"stateCode":"PB","stateName":"Paraíba","countryId":31,"countryCode":"BR","countryName":"Brazil","latitude":"-7.17083000","longitude":"-35.85361000","wikiDataId":"Q2010981"},{"id":12802,"name":"Lastro","stateId":2005,"stateCode":"PB","stateName":"Paraíba","countryId":31,"countryCode":"BR","countryName":"Brazil","latitude":"-6.53740000","longitude":"-38.18946000","wikiDataId":"Q1803900"},{"id":12842,"name":"Livramento","stateId":2005,"stateCode":"PB","stateName":"Paraíba","countryId":31,"countryCode":"BR","countryName":"Brazil","latitude":"-7.34008000","longitude":"-36.93209000","wikiDataId":"Q2065825"},{"id":12848,"name":"Logradouro","stateId":2005,"stateCode":"PB","stateName":"Paraíba","countryId":31,"countryCode":"BR","countryName":"Brazil","latitude":"-6.55268000","longitude":"-35.42864000","wikiDataId":"Q2012226"},{"id":12858,"name":"Lucena","stateId":2005,"stateCode":"PB","stateName":"Paraíba","countryId":31,"countryCode":"BR","countryName":"Brazil","latitude":"-6.92461000","longitude":"-34.90267000","wikiDataId":"Q22040474"},{"id":13292,"name":"Mãe d'Água","stateId":2005,"stateCode":"PB","stateName":"Paraíba","countryId":31,"countryCode":"BR","countryName":"Brazil","latitude":"-7.21990000","longitude":"-37.45284000","wikiDataId":"Q1772621"},{"id":12930,"name":"Malta","stateId":2005,"stateCode":"PB","stateName":"Paraíba","countryId":31,"countryCode":"BR","countryName":"Brazil","latitude":"-6.90400000","longitude":"-37.51251000","wikiDataId":"Q741333"},{"id":12931,"name":"Mamanguape","stateId":2005,"stateCode":"PB","stateName":"Paraíba","countryId":31,"countryCode":"BR","countryName":"Brazil","latitude":"-6.83861000","longitude":"-35.12611000","wikiDataId":"Q1008338"},{"id":12940,"name":"Manaíra","stateId":2005,"stateCode":"PB","stateName":"Paraíba","countryId":31,"countryCode":"BR","countryName":"Brazil","latitude":"-7.70611000","longitude":"-38.15444000","wikiDataId":"Q2009309"},{"id":12990,"name":"Marcação","stateId":2005,"stateCode":"PB","stateName":"Paraíba","countryId":31,"countryCode":"BR","countryName":"Brazil","latitude":"-6.74717000","longitude":"-34.99103000","wikiDataId":"Q2028783"},{"id":13003,"name":"Mari","stateId":2005,"stateCode":"PB","stateName":"Paraíba","countryId":31,"countryCode":"BR","countryName":"Brazil","latitude":"-7.07138000","longitude":"-35.30258000","wikiDataId":"Q965785"},{"id":13023,"name":"Marizópolis","stateId":2005,"stateCode":"PB","stateName":"Paraíba","countryId":31,"countryCode":"BR","countryName":"Brazil","latitude":"-6.82133000","longitude":"-38.33496000","wikiDataId":"Q208669"},{"id":13043,"name":"Massaranduba","stateId":2005,"stateCode":"PB","stateName":"Paraíba","countryId":31,"countryCode":"BR","countryName":"Brazil","latitude":"-7.20476000","longitude":"-35.78379000","wikiDataId":"Q2079004"},{"id":13050,"name":"Mataraca","stateId":2005,"stateCode":"PB","stateName":"Paraíba","countryId":31,"countryCode":"BR","countryName":"Brazil","latitude":"-6.55476000","longitude":"-35.03690000","wikiDataId":"Q648152"},{"id":13061,"name":"Matinhas","stateId":2005,"stateCode":"PB","stateName":"Paraíba","countryId":31,"countryCode":"BR","countryName":"Brazil","latitude":"-7.12428000","longitude":"-35.76070000","wikiDataId":"Q1116758"},{"id":13065,"name":"Mato Grosso","stateId":2005,"stateCode":"PB","stateName":"Paraíba","countryId":31,"countryCode":"BR","countryName":"Brazil","latitude":"-6.54728000","longitude":"-37.75067000","wikiDataId":"Q1790074"},{"id":13075,"name":"Maturéia","stateId":2005,"stateCode":"PB","stateName":"Paraíba","countryId":31,"countryCode":"BR","countryName":"Brazil","latitude":"-7.27175000","longitude":"-37.33940000","wikiDataId":"Q2009368"},{"id":13164,"name":"Mogeiro","stateId":2005,"stateCode":"PB","stateName":"Paraíba","countryId":31,"countryCode":"BR","countryName":"Brazil","latitude":"-7.29944000","longitude":"-35.47944000","wikiDataId":"Q764440"},{"id":13181,"name":"Montadas","stateId":2005,"stateCode":"PB","stateName":"Paraíba","countryId":31,"countryCode":"BR","countryName":"Brazil","latitude":"-7.08947000","longitude":"-35.90300000","wikiDataId":"Q526892"},{"id":13205,"name":"Monte Horebe","stateId":2005,"stateCode":"PB","stateName":"Paraíba","countryId":31,"countryCode":"BR","countryName":"Brazil","latitude":"-7.20792000","longitude":"-38.52503000","wikiDataId":"Q22062362"},{"id":13215,"name":"Monteiro","stateId":2005,"stateCode":"PB","stateName":"Paraíba","countryId":31,"countryCode":"BR","countryName":"Brazil","latitude":"-7.91637000","longitude":"-37.17496000","wikiDataId":"Q1808426"},{"id":13266,"name":"Mulungu","stateId":2005,"stateCode":"PB","stateName":"Paraíba","countryId":31,"countryCode":"BR","countryName":"Brazil","latitude":"-7.02444000","longitude":"-35.46194000","wikiDataId":"Q2341988"},{"id":13304,"name":"Natuba","stateId":2005,"stateCode":"PB","stateName":"Paraíba","countryId":31,"countryCode":"BR","countryName":"Brazil","latitude":"-7.64139000","longitude":"-35.55000000","wikiDataId":"Q2008665"},{"id":13309,"name":"Nazarezinho","stateId":2005,"stateCode":"PB","stateName":"Paraíba","countryId":31,"countryCode":"BR","countryName":"Brazil","latitude":"-6.91991000","longitude":"-38.32592000","wikiDataId":"Q2007785"},{"id":13379,"name":"Nova Floresta","stateId":2005,"stateCode":"PB","stateName":"Paraíba","countryId":31,"countryCode":"BR","countryName":"Brazil","latitude":"-6.48792000","longitude":"-36.20101000","wikiDataId":"Q521125"},{"id":13410,"name":"Nova Olinda","stateId":2005,"stateCode":"PB","stateName":"Paraíba","countryId":31,"countryCode":"BR","countryName":"Brazil","latitude":"-7.45231000","longitude":"-38.01122000","wikiDataId":"Q1648345"},{"id":13417,"name":"Nova Palmeira","stateId":2005,"stateCode":"PB","stateName":"Paraíba","countryId":31,"countryCode":"BR","countryName":"Brazil","latitude":"-6.67346000","longitude":"-36.44186000","wikiDataId":"Q2103607"},{"id":13494,"name":"Olho d'Água","stateId":2005,"stateCode":"PB","stateName":"Paraíba","countryId":31,"countryCode":"BR","countryName":"Brazil","latitude":"-7.26106000","longitude":"-37.73242000","wikiDataId":"Q2077934"},{"id":13505,"name":"Olivedos","stateId":2005,"stateCode":"PB","stateName":"Paraíba","countryId":31,"countryCode":"BR","countryName":"Brazil","latitude":"-6.99403000","longitude":"-36.23822000","wikiDataId":"Q1648508"},{"id":13544,"name":"Ouro Velho","stateId":2005,"stateCode":"PB","stateName":"Paraíba","countryId":31,"countryCode":"BR","countryName":"Brazil","latitude":"-7.60554000","longitude":"-37.13565000","wikiDataId":"Q1803223"},{"id":13652,"name":"Parari","stateId":2005,"stateCode":"PB","stateName":"Paraíba","countryId":31,"countryCode":"BR","countryName":"Brazil","latitude":"-7.31136000","longitude":"-36.67699000","wikiDataId":"Q2103106"},{"id":13692,"name":"Passagem","stateId":2005,"stateCode":"PB","stateName":"Paraíba","countryId":31,"countryCode":"BR","countryName":"Brazil","latitude":"-7.11889000","longitude":"-37.03671000","wikiDataId":"Q2104849"},{"id":13706,"name":"Patos","stateId":2005,"stateCode":"PB","stateName":"Paraíba","countryId":31,"countryCode":"BR","countryName":"Brazil","latitude":"-7.02444000","longitude":"-37.28000000","wikiDataId":"Q1966384"},{"id":13726,"name":"Paulista","stateId":2005,"stateCode":"PB","stateName":"Paraíba","countryId":31,"countryCode":"BR","countryName":"Brazil","latitude":"-6.59504000","longitude":"-37.60966000","wikiDataId":"Q2081885"},{"id":13750,"name":"Pedra Branca","stateId":2005,"stateCode":"PB","stateName":"Paraíba","countryId":31,"countryCode":"BR","countryName":"Brazil","latitude":"-7.46068000","longitude":"-38.07996000","wikiDataId":"Q2342000"},{"id":13754,"name":"Pedra Lavrada","stateId":2005,"stateCode":"PB","stateName":"Paraíba","countryId":31,"countryCode":"BR","countryName":"Brazil","latitude":"-6.78024000","longitude":"-36.44200000","wikiDataId":"Q2342000"},{"id":13764,"name":"Pedras de Fogo","stateId":2005,"stateCode":"PB","stateName":"Paraíba","countryId":31,"countryCode":"BR","countryName":"Brazil","latitude":"-7.40194000","longitude":"-35.11639000","wikiDataId":"Q2009248"},{"id":13781,"name":"Pedro Régis","stateId":2005,"stateCode":"PB","stateName":"Paraíba","countryId":31,"countryCode":"BR","countryName":"Brazil","latitude":"-6.67047000","longitude":"-35.31031000","wikiDataId":"Q2064424"},{"id":13824,"name":"Piancó","stateId":2005,"stateCode":"PB","stateName":"Paraíba","countryId":31,"countryCode":"BR","countryName":"Brazil","latitude":"-7.19806000","longitude":"-37.92917000","wikiDataId":"Q2009920"},{"id":13830,"name":"Picuí","stateId":2005,"stateCode":"PB","stateName":"Paraíba","countryId":31,"countryCode":"BR","countryName":"Brazil","latitude":"-6.51056000","longitude":"-36.34694000","wikiDataId":"Q2008685"},{"id":13836,"name":"Pilar","stateId":2005,"stateCode":"PB","stateName":"Paraíba","countryId":31,"countryCode":"BR","countryName":"Brazil","latitude":"-7.25739000","longitude":"-35.26971000","wikiDataId":"Q731296"},{"id":13841,"name":"Pilões","stateId":2005,"stateCode":"PB","stateName":"Paraíba","countryId":31,"countryCode":"BR","countryName":"Brazil","latitude":"-6.89446000","longitude":"-35.59432000","wikiDataId":"Q2067408"},{"id":13843,"name":"Pilõezinhos","stateId":2005,"stateCode":"PB","stateName":"Paraíba","countryId":31,"countryCode":"BR","countryName":"Brazil","latitude":"-6.85269000","longitude":"-35.54455000","wikiDataId":"Q2011307"},{"id":13920,"name":"Pirpirituba","stateId":2005,"stateCode":"PB","stateName":"Paraíba","countryId":31,"countryCode":"BR","countryName":"Brazil","latitude":"-6.78000000","longitude":"-35.49861000","wikiDataId":"Q1870026"},{"id":13925,"name":"Pitimbu","stateId":2005,"stateCode":"PB","stateName":"Paraíba","countryId":31,"countryCode":"BR","countryName":"Brazil","latitude":"-7.41381000","longitude":"-34.83686000","wikiDataId":"Q2008741"},{"id":13946,"name":"Pocinhos","stateId":2005,"stateCode":"PB","stateName":"Paraíba","countryId":31,"countryCode":"BR","countryName":"Brazil","latitude":"-7.07667000","longitude":"-36.06111000","wikiDataId":"Q1816070"},{"id":14046,"name":"Poço Dantas","stateId":2005,"stateCode":"PB","stateName":"Paraíba","countryId":31,"countryCode":"BR","countryName":"Brazil","latitude":"-6.38792000","longitude":"-38.53359000","wikiDataId":"Q1802657"},{"id":14052,"name":"Poço de José de Moura","stateId":2005,"stateCode":"PB","stateName":"Paraíba","countryId":31,"countryCode":"BR","countryName":"Brazil","latitude":"-6.59957000","longitude":"-38.50574000","wikiDataId":"Q1795960"},{"id":13951,"name":"Pombal","stateId":2005,"stateCode":"PB","stateName":"Paraíba","countryId":31,"countryCode":"BR","countryName":"Brazil","latitude":"-6.77028000","longitude":"-37.80167000","wikiDataId":"Q2078751"},{"id":14068,"name":"Prata","stateId":2005,"stateCode":"PB","stateName":"Paraíba","countryId":31,"countryCode":"BR","countryName":"Brazil","latitude":"-7.71250000","longitude":"-37.09411000","wikiDataId":"Q2329634"},{"id":14107,"name":"Princesa Isabel","stateId":2005,"stateCode":"PB","stateName":"Paraíba","countryId":31,"countryCode":"BR","countryName":"Brazil","latitude":"-7.73667000","longitude":"-37.99333000","wikiDataId":"Q2095104"},{"id":14118,"name":"Puxinanã","stateId":2005,"stateCode":"PB","stateName":"Paraíba","countryId":31,"countryCode":"BR","countryName":"Brazil","latitude":"-7.16111000","longitude":"-35.96056000","wikiDataId":"Q2011046"},{"id":14140,"name":"Queimadas","stateId":2005,"stateCode":"PB","stateName":"Paraíba","countryId":31,"countryCode":"BR","countryName":"Brazil","latitude":"-7.42696000","longitude":"-35.89774000","wikiDataId":"Q782948"},{"id":14158,"name":"Quixaba","stateId":2005,"stateCode":"PB","stateName":"Paraíba","countryId":31,"countryCode":"BR","countryName":"Brazil","latitude":"-7.05081000","longitude":"-37.11783000","wikiDataId":"Q2077775"},{"id":14194,"name":"Remígio","stateId":2005,"stateCode":"PB","stateName":"Paraíba","countryId":31,"countryCode":"BR","countryName":"Brazil","latitude":"-6.94646000","longitude":"-35.78039000","wikiDataId":"Q289067"},{"id":14221,"name":"Riachão","stateId":2005,"stateCode":"PB","stateName":"Paraíba","countryId":31,"countryCode":"BR","countryName":"Brazil","latitude":"-6.55515000","longitude":"-35.62324000","wikiDataId":"Q2329696"},{"id":14223,"name":"Riachão do Bacamarte","stateId":2005,"stateCode":"PB","stateName":"Paraíba","countryId":31,"countryCode":"BR","countryName":"Brazil","latitude":"-7.26337000","longitude":"-35.67518000","wikiDataId":"Q1762348"},{"id":14226,"name":"Riachão do Poço","stateId":2005,"stateCode":"PB","stateName":"Paraíba","countryId":31,"countryCode":"BR","countryName":"Brazil","latitude":"-7.17041000","longitude":"-35.30300000","wikiDataId":"Q969630"},{"id":14215,"name":"Riacho de Santo Antônio","stateId":2005,"stateCode":"PB","stateName":"Paraíba","countryId":31,"countryCode":"BR","countryName":"Brazil","latitude":"-7.66143000","longitude":"-36.13551000","wikiDataId":"Q2013792"},{"id":14216,"name":"Riacho dos Cavalos","stateId":2005,"stateCode":"PB","stateName":"Paraíba","countryId":31,"countryCode":"BR","countryName":"Brazil","latitude":"-6.47140000","longitude":"-37.64024000","wikiDataId":"Q2013792"},{"id":14299,"name":"Rio Tinto","stateId":2005,"stateCode":"PB","stateName":"Paraíba","countryId":31,"countryCode":"BR","countryName":"Brazil","latitude":"-6.79673000","longitude":"-35.03715000","wikiDataId":"Q2085541"},{"id":14382,"name":"Salgadinho","stateId":2005,"stateCode":"PB","stateName":"Paraíba","countryId":31,"countryCode":"BR","countryName":"Brazil","latitude":"-7.08934000","longitude":"-36.86318000","wikiDataId":"Q2278378"},{"id":14385,"name":"Salgado de São Félix","stateId":2005,"stateCode":"PB","stateName":"Paraíba","countryId":31,"countryCode":"BR","countryName":"Brazil","latitude":"-7.35694000","longitude":"-35.44056000","wikiDataId":"Q2009391"},{"id":14433,"name":"Santa Cecília","stateId":2005,"stateCode":"PB","stateName":"Paraíba","countryId":31,"countryCode":"BR","countryName":"Brazil","latitude":"-7.72027000","longitude":"-35.93681000","wikiDataId":"Q2102814"},{"id":14440,"name":"Santa Cruz","stateId":2005,"stateCode":"PB","stateName":"Paraíba","countryId":31,"countryCode":"BR","countryName":"Brazil","latitude":"-6.54542000","longitude":"-38.04968000","wikiDataId":"Q2329762"},{"id":14471,"name":"Santa Helena","stateId":2005,"stateCode":"PB","stateName":"Paraíba","countryId":31,"countryCode":"BR","countryName":"Brazil","latitude":"-6.72745000","longitude":"-38.59506000","wikiDataId":"Q2103762"},{"id":14478,"name":"Santa Inês","stateId":2005,"stateCode":"PB","stateName":"Paraíba","countryId":31,"countryCode":"BR","countryName":"Brazil","latitude":"-7.68334000","longitude":"-38.59346000","wikiDataId":"Q2469099"},{"id":14489,"name":"Santa Luzia","stateId":2005,"stateCode":"PB","stateName":"Paraíba","countryId":31,"countryCode":"BR","countryName":"Brazil","latitude":"-6.87222000","longitude":"-36.91861000","wikiDataId":"Q2329720"},{"id":14525,"name":"Santa Rita","stateId":2005,"stateCode":"PB","stateName":"Paraíba","countryId":31,"countryCode":"BR","countryName":"Brazil","latitude":"-7.10437000","longitude":"-34.97387000","wikiDataId":"Q1937304"},{"id":14552,"name":"Santa Teresinha","stateId":2005,"stateCode":"PB","stateName":"Paraíba","countryId":31,"countryCode":"BR","countryName":"Brazil","latitude":"-7.12089000","longitude":"-37.49654000","wikiDataId":"Q680275"},{"id":14574,"name":"Santana de Mangueira","stateId":2005,"stateCode":"PB","stateName":"Paraíba","countryId":31,"countryCode":"BR","countryName":"Brazil","latitude":"-7.66593000","longitude":"-38.35848000","wikiDataId":"Q1789181"},{"id":14595,"name":"Santana dos Garrotes","stateId":2005,"stateCode":"PB","stateName":"Paraíba","countryId":31,"countryCode":"BR","countryName":"Brazil","latitude":"-7.38163000","longitude":"-37.95386000","wikiDataId":"Q929590"},{"id":14608,"name":"Santo André","stateId":2005,"stateCode":"PB","stateName":"Paraíba","countryId":31,"countryCode":"BR","countryName":"Brazil","latitude":"-7.24178000","longitude":"-36.61460000","wikiDataId":"Q2078761"},{"id":14834,"name":"São Bentinho","stateId":2005,"stateCode":"PB","stateName":"Paraíba","countryId":31,"countryCode":"BR","countryName":"Brazil","latitude":"-6.88452000","longitude":"-37.75898000","wikiDataId":"Q2009398"},{"id":14836,"name":"São Bento","stateId":2005,"stateCode":"PB","stateName":"Paraíba","countryId":31,"countryCode":"BR","countryName":"Brazil","latitude":"-6.47344000","longitude":"-37.47144000","wikiDataId":"Q767395"},{"id":14862,"name":"São Domingos","stateId":2005,"stateCode":"PB","stateName":"Paraíba","countryId":31,"countryCode":"BR","countryName":"Brazil","latitude":"-6.80733000","longitude":"-37.91657000","wikiDataId":"Q1025764"},{"id":14870,"name":"São Domingos do Cariri","stateId":2005,"stateCode":"PB","stateName":"Paraíba","countryId":31,"countryCode":"BR","countryName":"Brazil","latitude":"-7.56749000","longitude":"-36.36393000","wikiDataId":"Q1754673"},{"id":14879,"name":"São Francisco","stateId":2005,"stateCode":"PB","stateName":"Paraíba","countryId":31,"countryCode":"BR","countryName":"Brazil","latitude":"-6.63302000","longitude":"-38.03780000","wikiDataId":"Q1787793"},{"id":15027,"name":"São João do Cariri","stateId":2005,"stateCode":"PB","stateName":"Paraíba","countryId":31,"countryCode":"BR","countryName":"Brazil","latitude":"-7.48465000","longitude":"-36.48602000","wikiDataId":"Q740965"},{"id":15042,"name":"São João do Rio do Peixe","stateId":2005,"stateCode":"PB","stateName":"Paraíba","countryId":31,"countryCode":"BR","countryName":"Brazil","latitude":"-6.71851000","longitude":"-38.42942000","wikiDataId":"Q1937319"},{"id":15046,"name":"São João do Tigre","stateId":2005,"stateCode":"PB","stateName":"Paraíba","countryId":31,"countryCode":"BR","countryName":"Brazil","latitude":"-8.10906000","longitude":"-36.79766000","wikiDataId":"Q1937319"},{"id":14943,"name":"São José da Lagoa Tapada","stateId":2005,"stateCode":"PB","stateName":"Paraíba","countryId":31,"countryCode":"BR","countryName":"Brazil","latitude":"-6.94245000","longitude":"-38.09393000","wikiDataId":"Q573729"},{"id":14952,"name":"São José de Caiana","stateId":2005,"stateCode":"PB","stateName":"Paraíba","countryId":31,"countryCode":"BR","countryName":"Brazil","latitude":"-7.25916000","longitude":"-38.34483000","wikiDataId":"Q1808190"},{"id":14953,"name":"São José de Espinharas","stateId":2005,"stateCode":"PB","stateName":"Paraíba","countryId":31,"countryCode":"BR","countryName":"Brazil","latitude":"-6.80244000","longitude":"-37.38224000","wikiDataId":"Q1808190"},{"id":14955,"name":"São José de Piranhas","stateId":2005,"stateCode":"PB","stateName":"Paraíba","countryId":31,"countryCode":"BR","countryName":"Brazil","latitude":"-7.12056000","longitude":"-38.50194000","wikiDataId":"Q2010773"},{"id":14956,"name":"São José de Princesa","stateId":2005,"stateCode":"PB","stateName":"Paraíba","countryId":31,"countryCode":"BR","countryName":"Brazil","latitude":"-7.70649000","longitude":"-38.08465000","wikiDataId":"Q2010773"},{"id":14962,"name":"São José do Bonfim","stateId":2005,"stateCode":"PB","stateName":"Paraíba","countryId":31,"countryCode":"BR","countryName":"Brazil","latitude":"-7.13715000","longitude":"-37.31607000","wikiDataId":"Q2011317"},{"id":14963,"name":"São José do Brejo do Cruz","stateId":2005,"stateCode":"PB","stateName":"Paraíba","countryId":31,"countryCode":"BR","countryName":"Brazil","latitude":"-6.23731000","longitude":"-37.37932000","wikiDataId":"Q2011317"},{"id":14986,"name":"São José do Sabugi","stateId":2005,"stateCode":"PB","stateName":"Paraíba","countryId":31,"countryCode":"BR","countryName":"Brazil","latitude":"-6.82784000","longitude":"-36.80335000","wikiDataId":"Q192181"},{"id":14994,"name":"São José dos Cordeiros","stateId":2005,"stateCode":"PB","stateName":"Paraíba","countryId":31,"countryCode":"BR","countryName":"Brazil","latitude":"-7.41638000","longitude":"-36.84773000","wikiDataId":"Q191642"},{"id":14997,"name":"São José dos Ramos","stateId":2005,"stateCode":"PB","stateName":"Paraíba","countryId":31,"countryCode":"BR","countryName":"Brazil","latitude":"-7.25103000","longitude":"-35.37410000","wikiDataId":"Q478818"},{"id":15068,"name":"São Mamede","stateId":2005,"stateCode":"PB","stateName":"Paraíba","countryId":31,"countryCode":"BR","countryName":"Brazil","latitude":"-6.92111000","longitude":"-37.09131000","wikiDataId":"Q1999321"},{"id":15084,"name":"São Miguel de Taipu","stateId":2005,"stateCode":"PB","stateName":"Paraíba","countryId":31,"countryCode":"BR","countryName":"Brazil","latitude":"-7.21706000","longitude":"-35.20175000","wikiDataId":"Q2107884"},{"id":15142,"name":"São Sebastião de Lagoa de Roça","stateId":2005,"stateCode":"PB","stateName":"Paraíba","countryId":31,"countryCode":"BR","countryName":"Brazil","latitude":"-7.08497000","longitude":"-35.84445000","wikiDataId":"Q1787237"},{"id":15154,"name":"São Sebastião do Umbuzeiro","stateId":2005,"stateCode":"PB","stateName":"Paraíba","countryId":31,"countryCode":"BR","countryName":"Brazil","latitude":"-8.15690000","longitude":"-37.02220000","wikiDataId":"Q1787301"},{"id":15173,"name":"São Vicente do Seridó","stateId":2005,"stateCode":"PB","stateName":"Paraíba","countryId":31,"countryCode":"BR","countryName":"Brazil","latitude":"-6.88683000","longitude":"-36.42652000","wikiDataId":"Q272254"},{"id":14665,"name":"Sapé","stateId":2005,"stateCode":"PB","stateName":"Paraíba","countryId":31,"countryCode":"BR","countryName":"Brazil","latitude":"-7.07937000","longitude":"-35.21734000","wikiDataId":"Q2008707"},{"id":14725,"name":"Serra Branca","stateId":2005,"stateCode":"PB","stateName":"Paraíba","countryId":31,"countryCode":"BR","countryName":"Brazil","latitude":"-6.53333000","longitude":"-38.26667000","wikiDataId":"Q22014132"},{"id":14735,"name":"Serra da Raiz","stateId":2005,"stateCode":"PB","stateName":"Paraíba","countryId":31,"countryCode":"BR","countryName":"Brazil","latitude":"-6.69703000","longitude":"-35.43579000","wikiDataId":"Q2000133"},{"id":14728,"name":"Serra Grande","stateId":2005,"stateCode":"PB","stateName":"Paraíba","countryId":31,"countryCode":"BR","countryName":"Brazil","latitude":"-7.25090000","longitude":"-38.39588000","wikiDataId":"Q2298053"},{"id":14733,"name":"Serra Redonda","stateId":2005,"stateCode":"PB","stateName":"Paraíba","countryId":31,"countryCode":"BR","countryName":"Brazil","latitude":"-7.15665000","longitude":"-35.67628000","wikiDataId":"Q2065364"},{"id":14750,"name":"Serraria","stateId":2005,"stateCode":"PB","stateName":"Paraíba","countryId":31,"countryCode":"BR","countryName":"Brazil","latitude":"-6.86365000","longitude":"-35.66926000","wikiDataId":"Q2064614"},{"id":14763,"name":"Sertãozinho","stateId":2005,"stateCode":"PB","stateName":"Paraíba","countryId":31,"countryCode":"BR","countryName":"Brazil","latitude":"-6.73939000","longitude":"-35.41628000","wikiDataId":"Q1973538"},{"id":14797,"name":"Sobrado","stateId":2005,"stateCode":"PB","stateName":"Paraíba","countryId":31,"countryCode":"BR","countryName":"Brazil","latitude":"-7.16887000","longitude":"-35.23251000","wikiDataId":"Q2078739"},{"id":14807,"name":"Solânea","stateId":2005,"stateCode":"PB","stateName":"Paraíba","countryId":31,"countryCode":"BR","countryName":"Brazil","latitude":"-6.73321000","longitude":"-35.69495000","wikiDataId":"Q2010744"},{"id":14802,"name":"Soledade","stateId":2005,"stateCode":"PB","stateName":"Paraíba","countryId":31,"countryCode":"BR","countryName":"Brazil","latitude":"-7.05722000","longitude":"-36.36278000","wikiDataId":"Q2066120"},{"id":14813,"name":"Sossêgo","stateId":2005,"stateCode":"PB","stateName":"Paraíba","countryId":31,"countryCode":"BR","countryName":"Brazil","latitude":"-6.67592000","longitude":"-36.17875000","wikiDataId":"Q188901"},{"id":14815,"name":"Sousa","stateId":2005,"stateCode":"PB","stateName":"Paraíba","countryId":31,"countryCode":"BR","countryName":"Brazil","latitude":"-6.73098000","longitude":"-38.18614000","wikiDataId":"Q2011653"},{"id":14825,"name":"Sumé","stateId":2005,"stateCode":"PB","stateName":"Paraíba","countryId":31,"countryCode":"BR","countryName":"Brazil","latitude":"-7.67167000","longitude":"-36.88000000","wikiDataId":"Q2008324"},{"id":15196,"name":"Tacima","stateId":2005,"stateCode":"PB","stateName":"Paraíba","countryId":31,"countryCode":"BR","countryName":"Brazil","latitude":"-6.53805000","longitude":"-35.52277000","wikiDataId":"Q22064418"},{"id":15230,"name":"Taperoá","stateId":2005,"stateCode":"PB","stateName":"Paraíba","countryId":31,"countryCode":"BR","countryName":"Brazil","latitude":"-7.16870000","longitude":"-36.79197000","wikiDataId":"Q2329707"},{"id":15262,"name":"Tavares","stateId":2005,"stateCode":"PB","stateName":"Paraíba","countryId":31,"countryCode":"BR","countryName":"Brazil","latitude":"-7.61418000","longitude":"-37.87959000","wikiDataId":"Q2099625"},{"id":15265,"name":"Teixeira","stateId":2005,"stateCode":"PB","stateName":"Paraíba","countryId":31,"countryCode":"BR","countryName":"Brazil","latitude":"-7.24821000","longitude":"-37.27523000","wikiDataId":"Q1004229"},{"id":15277,"name":"Tenório","stateId":2005,"stateCode":"PB","stateName":"Paraíba","countryId":31,"countryCode":"BR","countryName":"Brazil","latitude":"-6.97568000","longitude":"-36.62216000","wikiDataId":"Q1875004"},{"id":15362,"name":"Triunfo","stateId":2005,"stateCode":"PB","stateName":"Paraíba","countryId":31,"countryCode":"BR","countryName":"Brazil","latitude":"-6.58475000","longitude":"-38.57827000","wikiDataId":"Q2097715"},{"id":15442,"name":"Uiraúna","stateId":2005,"stateCode":"PB","stateName":"Paraíba","countryId":31,"countryCode":"BR","countryName":"Brazil","latitude":"-6.49650000","longitude":"-38.38015000","wikiDataId":"Q2010393"},{"id":15449,"name":"Umbuzeiro","stateId":2005,"stateCode":"PB","stateName":"Paraíba","countryId":31,"countryCode":"BR","countryName":"Brazil","latitude":"-7.67111000","longitude":"-35.73927000","wikiDataId":"Q1754681"},{"id":15613,"name":"Várzea","stateId":2005,"stateCode":"PB","stateName":"Paraíba","countryId":31,"countryCode":"BR","countryName":"Brazil","latitude":"-6.80276000","longitude":"-37.03707000","wikiDataId":"Q2065255"},{"id":15563,"name":"Vieirópolis","stateId":2005,"stateCode":"PB","stateName":"Paraíba","countryId":31,"countryCode":"BR","countryName":"Brazil","latitude":"-6.55838000","longitude":"-38.27091000","wikiDataId":"Q1788420"},{"id":15593,"name":"Vista Serrana","stateId":2005,"stateCode":"PB","stateName":"Paraíba","countryId":31,"countryCode":"BR","countryName":"Brazil","latitude":"-6.74167000","longitude":"-37.57597000","wikiDataId":"Q1774460"},{"id":15644,"name":"Zabelê","stateId":2005,"stateCode":"PB","stateName":"Paraíba","countryId":31,"countryCode":"BR","countryName":"Brazil","latitude":"-8.07634000","longitude":"-37.05635000","wikiDataId":"Q1762114"}]