[{"id":129775,"name":"Aiguá","stateId":3206,"stateCode":"MA","stateName":"Maldonado","countryId":235,"countryCode":"UY","countryName":"Uruguay","latitude":"-34.20498000","longitude":"-54.75665000","wikiDataId":"Q404803"},{"id":129825,"name":"Maldonado","stateId":3206,"stateCode":"MA","stateName":"Maldonado","countryId":235,"countryCode":"UY","countryName":"Uruguay","latitude":"-34.90000000","longitude":"-54.95000000","wikiDataId":"Q16258"},{"id":129840,"name":"Pan de Azúcar","stateId":3206,"stateCode":"MA","stateName":"Maldonado","countryId":235,"countryCode":"UY","countryName":"Uruguay","latitude":"-34.77870000","longitude":"-55.23582000","wikiDataId":"Q1532147"},{"id":129846,"name":"Piriápolis","stateId":3206,"stateCode":"MA","stateName":"Maldonado","countryId":235,"countryCode":"UY","countryName":"Uruguay","latitude":"-34.86287000","longitude":"-55.27471000","wikiDataId":"Q1006155"},{"id":129848,"name":"Punta del Este","stateId":3206,"stateCode":"MA","stateName":"Maldonado","countryId":235,"countryCode":"UY","countryName":"Uruguay","latitude":"-34.94747000","longitude":"-54.93382000","wikiDataId":"Q56069"},{"id":129860,"name":"San Carlos","stateId":3206,"stateCode":"MA","stateName":"Maldonado","countryId":235,"countryCode":"UY","countryName":"Uruguay","latitude":"-34.79123000","longitude":"-54.91824000","wikiDataId":"Q374670"}]