[{"id":104718,"name":"Joal-Fadiout","stateId":484,"stateCode":"TH","stateName":"Thiès Region","countryId":195,"countryCode":"SN","countryName":"Senegal","latitude":"14.16667000","longitude":"-16.83333000","wikiDataId":"Q1340331"},{"id":104722,"name":"Kayar","stateId":484,"stateCode":"TH","stateName":"Thiès Region","countryId":195,"countryCode":"SN","countryName":"Senegal","latitude":"14.91893000","longitude":"-17.11978000","wikiDataId":"Q847677"},{"id":104723,"name":"Khombole","stateId":484,"stateCode":"TH","stateName":"Thiès Region","countryId":195,"countryCode":"SN","countryName":"Senegal","latitude":"14.76667000","longitude":"-16.70000000","wikiDataId":"Q2277705"},{"id":104736,"name":"Mbour","stateId":484,"stateCode":"TH","stateName":"Thiès Region","countryId":195,"countryCode":"SN","countryName":"Senegal","latitude":"14.40569000","longitude":"-16.85559000","wikiDataId":"Q2086960"},{"id":104738,"name":"Mékhé","stateId":484,"stateCode":"TH","stateName":"Thiès Region","countryId":195,"countryCode":"SN","countryName":"Senegal","latitude":"15.10970000","longitude":"-16.62180000","wikiDataId":"Q2981190"},{"id":104742,"name":"Nguékhokh","stateId":484,"stateCode":"TH","stateName":"Thiès Region","countryId":195,"countryCode":"SN","countryName":"Senegal","latitude":"14.51255000","longitude":"-17.00447000","wikiDataId":"Q3339368"},{"id":104752,"name":"Pout","stateId":484,"stateCode":"TH","stateName":"Thiès Region","countryId":195,"countryCode":"SN","countryName":"Senegal","latitude":"14.77099000","longitude":"-17.06107000","wikiDataId":"Q3400742"},{"id":104764,"name":"Thiès","stateId":484,"stateCode":"TH","stateName":"Thiès Region","countryId":195,"countryCode":"SN","countryName":"Senegal","latitude":"14.73004000","longitude":"-16.86974000","wikiDataId":"Q2087146"},{"id":104765,"name":"Thiès Nones","stateId":484,"stateCode":"TH","stateName":"Thiès Region","countryId":195,"countryCode":"SN","countryName":"Senegal","latitude":"14.78333000","longitude":"-16.96667000","wikiDataId":"Q2087146"},{"id":104766,"name":"Tiadiaye","stateId":484,"stateCode":"TH","stateName":"Thiès Region","countryId":195,"countryCode":"SN","countryName":"Senegal","latitude":"14.41667000","longitude":"-16.70000000","wikiDataId":"Q3523969"},{"id":104768,"name":"Tivaouane","stateId":484,"stateCode":"TH","stateName":"Thiès Region","countryId":195,"countryCode":"SN","countryName":"Senegal","latitude":"15.08519000","longitude":"-16.71058000","wikiDataId":"Q2087361"},{"id":104773,"name":"Warang","stateId":484,"stateCode":"TH","stateName":"Thiès Region","countryId":195,"countryCode":"SN","countryName":"Senegal","latitude":"14.37349000","longitude":"-16.94366000","wikiDataId":"Q1014390"}]