[{"id":3728,"name":"Belgrade","countryId":196,"countryCode":"RS","countryName":"Serbia","stateCode":"00","type":null,"latitude":"44.78656800","longitude":"20.44892160"},{"id":3717,"name":"Bor District","countryId":196,"countryCode":"RS","countryName":"Serbia","stateCode":"14","type":null,"latitude":"44.06989180","longitude":"22.09850860"},{"id":3732,"name":"Braničevo District","countryId":196,"countryCode":"RS","countryName":"Serbia","stateCode":"11","type":null,"latitude":"44.69822460","longitude":"21.54467750"},{"id":3716,"name":"Central Banat District","countryId":196,"countryCode":"RS","countryName":"Serbia","stateCode":"02","type":null,"latitude":"45.47884850","longitude":"20.60825220"},{"id":3715,"name":"Jablanica District","countryId":196,"countryCode":"RS","countryName":"Serbia","stateCode":"23","type":null,"latitude":"42.94815600","longitude":"21.81293210"},{"id":3724,"name":"Kolubara District","countryId":196,"countryCode":"RS","countryName":"Serbia","stateCode":"09","type":null,"latitude":"44.35098110","longitude":"20.00043050"},{"id":3719,"name":"Mačva District","countryId":196,"countryCode":"RS","countryName":"Serbia","stateCode":"08","type":null,"latitude":"44.59253140","longitude":"19.50822460"},{"id":3727,"name":"Moravica District","countryId":196,"countryCode":"RS","countryName":"Serbia","stateCode":"17","type":null,"latitude":"43.84147000","longitude":"20.29049870"},{"id":3722,"name":"Nišava District","countryId":196,"countryCode":"RS","countryName":"Serbia","stateCode":"20","type":null,"latitude":"43.37389020","longitude":"21.93223310"},{"id":3714,"name":"North Bačka District","countryId":196,"countryCode":"RS","countryName":"Serbia","stateCode":"01","type":null,"latitude":"45.98033940","longitude":"19.59070010"},{"id":3736,"name":"North Banat District","countryId":196,"countryCode":"RS","countryName":"Serbia","stateCode":"03","type":null,"latitude":"45.90683900","longitude":"19.99934170"},{"id":3721,"name":"Pčinja District","countryId":196,"countryCode":"RS","countryName":"Serbia","stateCode":"24","type":null,"latitude":"42.58363620","longitude":"22.14302150"},{"id":3712,"name":"Pirot District","countryId":196,"countryCode":"RS","countryName":"Serbia","stateCode":"22","type":null,"latitude":"43.08740360","longitude":"22.59830440"},{"id":3741,"name":"Podunavlje District","countryId":196,"countryCode":"RS","countryName":"Serbia","stateCode":"10","type":null,"latitude":"44.47291560","longitude":"20.99014260"},{"id":3737,"name":"Pomoravlje District","countryId":196,"countryCode":"RS","countryName":"Serbia","stateCode":"13","type":null,"latitude":"43.95913790","longitude":"21.27135300"},{"id":3720,"name":"Rasina District","countryId":196,"countryCode":"RS","countryName":"Serbia","stateCode":"19","type":null,"latitude":"43.52635250","longitude":"21.15881780"},{"id":3725,"name":"Raška District","countryId":196,"countryCode":"RS","countryName":"Serbia","stateCode":"18","type":null,"latitude":"43.33734610","longitude":"20.57340050"},{"id":3711,"name":"South Bačka District","countryId":196,"countryCode":"RS","countryName":"Serbia","stateCode":"06","type":null,"latitude":"45.48903440","longitude":"19.69761870"},{"id":3713,"name":"South Banat District","countryId":196,"countryCode":"RS","countryName":"Serbia","stateCode":"04","type":null,"latitude":"45.00274570","longitude":"21.05425090"},{"id":3740,"name":"Srem District","countryId":196,"countryCode":"RS","countryName":"Serbia","stateCode":"07","type":null,"latitude":"45.00291710","longitude":"19.80137730"},{"id":3734,"name":"Šumadija District","countryId":196,"countryCode":"RS","countryName":"Serbia","stateCode":"12","type":null,"latitude":"44.20506780","longitude":"20.78565650"},{"id":3718,"name":"Toplica District","countryId":196,"countryCode":"RS","countryName":"Serbia","stateCode":"21","type":null,"latitude":"43.19065920","longitude":"21.34077620"},{"id":3733,"name":"Vojvodina","countryId":196,"countryCode":"RS","countryName":"Serbia","stateCode":"VO","type":null,"latitude":"45.26086510","longitude":"19.83193380"},{"id":3726,"name":"West Bačka District","countryId":196,"countryCode":"RS","countryName":"Serbia","stateCode":"05","type":null,"latitude":"45.73553850","longitude":"19.18973640"},{"id":3731,"name":"Zaječar District","countryId":196,"countryCode":"RS","countryName":"Serbia","stateCode":"15","type":null,"latitude":"43.90150480","longitude":"22.27380110"},{"id":3729,"name":"Zlatibor District","countryId":196,"countryCode":"RS","countryName":"Serbia","stateCode":"16","type":null,"latitude":"43.64541700","longitude":"19.71014550"}]