[{"id":64940,"name":"Battambang","stateId":3976,"stateCode":"2","stateName":"Battambang","countryId":37,"countryCode":"KH","countryName":"Cambodia","latitude":"13.10271000","longitude":"103.19822000","wikiDataId":"Q748336"},{"id":65028,"name":"Srŏk Âk Phnŭm","stateId":3976,"stateCode":"2","stateName":"Battambang","countryId":37,"countryCode":"KH","countryName":"Cambodia","latitude":"13.23621000","longitude":"103.45894000","wikiDataId":"Q4930600"},{"id":64988,"name":"Srŏk Banăn","stateId":3976,"stateCode":"2","stateName":"Battambang","countryId":37,"countryCode":"KH","countryName":"Cambodia","latitude":"12.97067000","longitude":"103.04742000","wikiDataId":"Q4853813"},{"id":64995,"name":"Srŏk Bâvĭl","stateId":3976,"stateCode":"2","stateName":"Battambang","countryId":37,"countryCode":"KH","countryName":"Cambodia","latitude":"13.23601000","longitude":"102.82910000","wikiDataId":"Q4873692"},{"id":65017,"name":"Srŏk Rotanak Mondol","stateId":3976,"stateCode":"2","stateName":"Battambang","countryId":37,"countryCode":"KH","countryName":"Cambodia","latitude":"12.84048000","longitude":"102.88700000","wikiDataId":"Q4929543"}]