[{"id":109305,"name":"Abrikosovka","stateId":4689,"stateCode":"43","stateName":"Autonomous Republic of Crimea","countryId":230,"countryCode":"UA","countryName":"Ukraine","latitude":"45.10759000","longitude":"35.10139000","wikiDataId":"Q2222874"},{"id":109306,"name":"Abrikosovo","stateId":4689,"stateCode":"43","stateName":"Autonomous Republic of Crimea","countryId":230,"countryCode":"UA","countryName":"Ukraine","latitude":"45.69236000","longitude":"34.10156000","wikiDataId":"Q2222874"},{"id":109308,"name":"Aeroflotskiy","stateId":4689,"stateCode":"43","stateName":"Autonomous Republic of Crimea","countryId":230,"countryCode":"UA","countryName":"Ukraine","latitude":"45.01816000","longitude":"33.99961000","wikiDataId":"Q4057514"},{"id":109309,"name":"Agrarnoye","stateId":4689,"stateCode":"43","stateName":"Autonomous Republic of Crimea","countryId":230,"countryCode":"UA","countryName":"Ukraine","latitude":"45.01596000","longitude":"34.05725000","wikiDataId":"Q4057514"},{"id":109310,"name":"Akimovka","stateId":4689,"stateCode":"43","stateName":"Autonomous Republic of Crimea","countryId":230,"countryCode":"UA","countryName":"Ukraine","latitude":"45.51981000","longitude":"34.82438000","wikiDataId":"Q4057514"},{"id":109313,"name":"Aleksandrovka","stateId":4689,"stateCode":"43","stateName":"Autonomous Republic of Crimea","countryId":230,"countryCode":"UA","countryName":"Ukraine","latitude":"45.57654000","longitude":"34.09947000","wikiDataId":"Q4063216"},{"id":109314,"name":"Alekseyevka","stateId":4689,"stateCode":"43","stateName":"Autonomous Republic of Crimea","countryId":230,"countryCode":"UA","countryName":"Ukraine","latitude":"45.58194000","longitude":"33.62980000","wikiDataId":"Q4063216"},{"id":109315,"name":"Alupka","stateId":4689,"stateCode":"43","stateName":"Autonomous Republic of Crimea","countryId":230,"countryCode":"UA","countryName":"Ukraine","latitude":"44.41808000","longitude":"34.04531000","wikiDataId":"Q448047"},{"id":109316,"name":"Alushta","stateId":4689,"stateCode":"43","stateName":"Autonomous Republic of Crimea","countryId":230,"countryCode":"UA","countryName":"Ukraine","latitude":"44.67728000","longitude":"34.40970000","wikiDataId":"Q46001"},{"id":109317,"name":"Amurskoye","stateId":4689,"stateCode":"43","stateName":"Autonomous Republic of Crimea","countryId":230,"countryCode":"UA","countryName":"Ukraine","latitude":"45.27822000","longitude":"34.12823000","wikiDataId":"Q46001"},{"id":109327,"name":"Armyansk","stateId":4689,"stateCode":"43","stateName":"Autonomous Republic of Crimea","countryId":230,"countryCode":"UA","countryName":"Ukraine","latitude":"46.10919000","longitude":"33.69206000","wikiDataId":"Q688716"},{"id":109328,"name":"Aromatnoye","stateId":4689,"stateCode":"43","stateName":"Autonomous Republic of Crimea","countryId":230,"countryCode":"UA","countryName":"Ukraine","latitude":"45.03678000","longitude":"34.39921000","wikiDataId":"Q688716"},{"id":109336,"name":"Azovskoye","stateId":4689,"stateCode":"43","stateName":"Autonomous Republic of Crimea","countryId":230,"countryCode":"UA","countryName":"Ukraine","latitude":"45.58604000","longitude":"34.56680000","wikiDataId":"Q2874307"},{"id":109338,"name":"Baherove","stateId":4689,"stateCode":"43","stateName":"Autonomous Republic of Crimea","countryId":230,"countryCode":"UA","countryName":"Ukraine","latitude":"45.37417000","longitude":"36.29705000","wikiDataId":"Q2879290"},{"id":109339,"name":"Bakhchysarai","stateId":4689,"stateCode":"43","stateName":"Autonomous Republic of Crimea","countryId":230,"countryCode":"UA","countryName":"Ukraine","latitude":"44.75525000","longitude":"33.85782000","wikiDataId":"Q158604"},{"id":109340,"name":"Bakhchysarai Raion","stateId":4689,"stateCode":"43","stateName":"Autonomous Republic of Crimea","countryId":230,"countryCode":"UA","countryName":"Ukraine","latitude":"44.75002000","longitude":"33.86330000","wikiDataId":"Q1948116"},{"id":109356,"name":"Batal’noye","stateId":4689,"stateCode":"43","stateName":"Autonomous Republic of Crimea","countryId":230,"countryCode":"UA","countryName":"Ukraine","latitude":"45.19402000","longitude":"35.61583000","wikiDataId":"Q572899"},{"id":109363,"name":"Belinskoye","stateId":4689,"stateCode":"43","stateName":"Autonomous Republic of Crimea","countryId":230,"countryCode":"UA","countryName":"Ukraine","latitude":"45.37465000","longitude":"36.08212000","wikiDataId":"Q4081579"},{"id":109364,"name":"Beloglinka","stateId":4689,"stateCode":"43","stateName":"Autonomous Republic of Crimea","countryId":230,"countryCode":"UA","countryName":"Ukraine","latitude":"44.99490000","longitude":"34.04167000","wikiDataId":"Q4081579"},{"id":109365,"name":"Belogorskiy rayon","stateId":4689,"stateCode":"43","stateName":"Autonomous Republic of Crimea","countryId":230,"countryCode":"UA","countryName":"Ukraine","latitude":"45.06300000","longitude":"34.55675000","wikiDataId":"Q2353538"},{"id":109372,"name":"Beregovoye","stateId":4689,"stateCode":"43","stateName":"Autonomous Republic of Crimea","countryId":230,"countryCode":"UA","countryName":"Ukraine","latitude":"45.09470000","longitude":"35.43385000","wikiDataId":"Q3920757"},{"id":109384,"name":"Berezovka","stateId":4689,"stateCode":"43","stateName":"Autonomous Republic of Crimea","countryId":230,"countryCode":"UA","countryName":"Ukraine","latitude":"45.57471000","longitude":"33.34397000","wikiDataId":"Q793404"},{"id":109399,"name":"Bilohirsk","stateId":4689,"stateCode":"43","stateName":"Autonomous Republic of Crimea","countryId":230,"countryCode":"UA","countryName":"Ukraine","latitude":"45.05462000","longitude":"34.60185000","wikiDataId":"Q863330"},{"id":109412,"name":"Blizhneye","stateId":4689,"stateCode":"43","stateName":"Autonomous Republic of Crimea","countryId":230,"countryCode":"UA","countryName":"Ukraine","latitude":"45.05694000","longitude":"35.33056000","wikiDataId":"Q2652948"},{"id":109417,"name":"Bogatoye","stateId":4689,"stateCode":"43","stateName":"Autonomous Republic of Crimea","countryId":230,"countryCode":"UA","countryName":"Ukraine","latitude":"45.02933000","longitude":"34.76732000","wikiDataId":"Q591884"},{"id":109438,"name":"Botanicheskoye","stateId":4689,"stateCode":"43","stateName":"Autonomous Republic of Crimea","countryId":230,"countryCode":"UA","countryName":"Ukraine","latitude":"45.78656000","longitude":"33.54856000","wikiDataId":"Q148912"},{"id":109444,"name":"Bratskoye","stateId":4689,"stateCode":"43","stateName":"Autonomous Republic of Crimea","countryId":230,"countryCode":"UA","countryName":"Ukraine","latitude":"45.83170000","longitude":"33.92151000","wikiDataId":"Q2641183"},{"id":109470,"name":"Chapayevka","stateId":4689,"stateCode":"43","stateName":"Autonomous Republic of Crimea","countryId":230,"countryCode":"UA","countryName":"Ukraine","latitude":"45.28119000","longitude":"34.89428000","wikiDataId":"Q4507184"},{"id":109474,"name":"Chaykino","stateId":4689,"stateCode":"43","stateName":"Autonomous Republic of Crimea","countryId":230,"countryCode":"UA","countryName":"Ukraine","latitude":"45.08223000","longitude":"34.08673000","wikiDataId":"Q2415330"},{"id":109476,"name":"Chelyadinovo","stateId":4689,"stateCode":"43","stateName":"Autonomous Republic of Crimea","countryId":230,"countryCode":"UA","countryName":"Ukraine","latitude":"45.20729000","longitude":"36.37620000","wikiDataId":"Q1721808"},{"id":109489,"name":"Chernomorskiy rayon","stateId":4689,"stateCode":"43","stateName":"Autonomous Republic of Crimea","countryId":230,"countryCode":"UA","countryName":"Ukraine","latitude":"45.48798000","longitude":"32.92614000","wikiDataId":"Q2237994"},{"id":109490,"name":"Chernomorskoye","stateId":4689,"stateCode":"43","stateName":"Autonomous Republic of Crimea","countryId":230,"countryCode":"UA","countryName":"Ukraine","latitude":"45.50657000","longitude":"32.69776000","wikiDataId":"Q1555482"},{"id":109491,"name":"Chernopolye","stateId":4689,"stateCode":"43","stateName":"Autonomous Republic of Crimea","countryId":230,"countryCode":"UA","countryName":"Ukraine","latitude":"45.04399000","longitude":"34.63916000","wikiDataId":"Q4514124"},{"id":109492,"name":"Chernovo","stateId":4689,"stateCode":"43","stateName":"Autonomous Republic of Crimea","countryId":230,"countryCode":"UA","countryName":"Ukraine","latitude":"45.50833000","longitude":"33.93397000","wikiDataId":"Q4514124"},{"id":109493,"name":"Chernozemnoye","stateId":4689,"stateCode":"43","stateName":"Autonomous Republic of Crimea","countryId":230,"countryCode":"UA","countryName":"Ukraine","latitude":"45.40808000","longitude":"34.81990000","wikiDataId":"Q4514124"},{"id":109497,"name":"Chernyshevo","stateId":4689,"stateCode":"43","stateName":"Autonomous Republic of Crimea","countryId":230,"countryCode":"UA","countryName":"Ukraine","latitude":"45.78202000","longitude":"33.42825000","wikiDataId":"Q4514521"},{"id":109503,"name":"Chervonoye","stateId":4689,"stateCode":"43","stateName":"Autonomous Republic of Crimea","countryId":230,"countryCode":"UA","countryName":"Ukraine","latitude":"45.12294000","longitude":"33.68662000","wikiDataId":"Q664445"},{"id":109505,"name":"Chisten’koye","stateId":4689,"stateCode":"43","stateName":"Autonomous Republic of Crimea","countryId":230,"countryCode":"UA","countryName":"Ukraine","latitude":"44.88152000","longitude":"34.04716000","wikiDataId":"Q664445"},{"id":109506,"name":"Chistopolye","stateId":4689,"stateCode":"43","stateName":"Autonomous Republic of Crimea","countryId":230,"countryCode":"UA","countryName":"Ukraine","latitude":"45.36541000","longitude":"36.18312000","wikiDataId":"Q664445"},{"id":109507,"name":"Chkalovo","stateId":4689,"stateCode":"43","stateName":"Autonomous Republic of Crimea","countryId":230,"countryCode":"UA","countryName":"Ukraine","latitude":"45.60474000","longitude":"34.83395000","wikiDataId":"Q664445"},{"id":109527,"name":"Dachnoye","stateId":4689,"stateCode":"43","stateName":"Autonomous Republic of Crimea","countryId":230,"countryCode":"UA","countryName":"Ukraine","latitude":"44.88448000","longitude":"34.98333000","wikiDataId":"Q162084"},{"id":109528,"name":"Dalekoye","stateId":4689,"stateCode":"43","stateName":"Autonomous Republic of Crimea","countryId":230,"countryCode":"UA","countryName":"Ukraine","latitude":"45.66006000","longitude":"33.08059000","wikiDataId":"Q162084"},{"id":109543,"name":"Dmitrovka","stateId":4689,"stateCode":"43","stateName":"Autonomous Republic of Crimea","countryId":230,"countryCode":"UA","countryName":"Ukraine","latitude":"45.48411000","longitude":"35.05880000","wikiDataId":"Q4156611"},{"id":109547,"name":"Dneprovka","stateId":4689,"stateCode":"43","stateName":"Autonomous Republic of Crimea","countryId":230,"countryCode":"UA","countryName":"Ukraine","latitude":"45.71373000","longitude":"34.36256000","wikiDataId":"Q4162983"},{"id":109560,"name":"Dobroye","stateId":4689,"stateCode":"43","stateName":"Autonomous Republic of Crimea","countryId":230,"countryCode":"UA","countryName":"Ukraine","latitude":"44.86632000","longitude":"34.22661000","wikiDataId":"Q4163685"},{"id":109561,"name":"Dobrushino","stateId":4689,"stateCode":"43","stateName":"Autonomous Republic of Crimea","countryId":230,"countryCode":"UA","countryName":"Ukraine","latitude":"45.37441000","longitude":"33.36547000","wikiDataId":"Q4163685"},{"id":109564,"name":"Dolinnoye","stateId":4689,"stateCode":"43","stateName":"Autonomous Republic of Crimea","countryId":230,"countryCode":"UA","countryName":"Ukraine","latitude":"44.75320000","longitude":"33.77766000","wikiDataId":"Q2416554"},{"id":109571,"name":"Donskoye","stateId":4689,"stateCode":"43","stateName":"Autonomous Republic of Crimea","countryId":230,"countryCode":"UA","countryName":"Ukraine","latitude":"45.04509000","longitude":"34.21413000","wikiDataId":"Q43070"},{"id":109577,"name":"Drofino","stateId":4689,"stateCode":"43","stateName":"Autonomous Republic of Crimea","countryId":230,"countryCode":"UA","countryName":"Ukraine","latitude":"45.28629000","longitude":"34.61589000","wikiDataId":"Q843560"},{"id":109582,"name":"Dubki","stateId":4689,"stateCode":"43","stateName":"Autonomous Republic of Crimea","countryId":230,"countryCode":"UA","countryName":"Ukraine","latitude":"44.93581000","longitude":"34.02355000","wikiDataId":"Q157795"},{"id":109592,"name":"Dzhankoy","stateId":4689,"stateCode":"43","stateName":"Autonomous Republic of Crimea","countryId":230,"countryCode":"UA","countryName":"Ukraine","latitude":"45.71168000","longitude":"34.39274000","wikiDataId":"Q161978"},{"id":109593,"name":"Dzhankoyskiy rayon","stateId":4689,"stateCode":"43","stateName":"Autonomous Republic of Crimea","countryId":230,"countryCode":"UA","countryName":"Ukraine","latitude":"45.78706000","longitude":"34.39197000","wikiDataId":"Q2355870"},{"id":109599,"name":"Feodosiya","stateId":4689,"stateCode":"43","stateName":"Autonomous Republic of Crimea","countryId":230,"countryCode":"UA","countryName":"Ukraine","latitude":"45.03677000","longitude":"35.37789000","wikiDataId":"Q158491"},{"id":109600,"name":"Filatovka","stateId":4689,"stateCode":"43","stateName":"Autonomous Republic of Crimea","countryId":230,"countryCode":"UA","countryName":"Ukraine","latitude":"46.08192000","longitude":"33.78510000","wikiDataId":"Q158491"},{"id":109602,"name":"Fontany","stateId":4689,"stateCode":"43","stateName":"Autonomous Republic of Crimea","countryId":230,"countryCode":"UA","countryName":"Ukraine","latitude":"44.89717000","longitude":"34.07297000","wikiDataId":"Q3849531"},{"id":109603,"name":"Foros","stateId":4689,"stateCode":"43","stateName":"Autonomous Republic of Crimea","countryId":230,"countryCode":"UA","countryName":"Ukraine","latitude":"44.39214000","longitude":"33.78798000","wikiDataId":"Q1437932"},{"id":109604,"name":"Frunze","stateId":4689,"stateCode":"43","stateName":"Autonomous Republic of Crimea","countryId":230,"countryCode":"UA","countryName":"Ukraine","latitude":"45.02688000","longitude":"33.62956000","wikiDataId":"Q4493113"},{"id":109605,"name":"Gaspra","stateId":4689,"stateCode":"43","stateName":"Autonomous Republic of Crimea","countryId":230,"countryCode":"UA","countryName":"Ukraine","latitude":"44.43364000","longitude":"34.10297000","wikiDataId":"Q206045"},{"id":109606,"name":"Geroyskoye","stateId":4689,"stateCode":"43","stateName":"Autonomous Republic of Crimea","countryId":230,"countryCode":"UA","countryName":"Ukraine","latitude":"45.13857000","longitude":"33.74675000","wikiDataId":"Q206045"},{"id":109607,"name":"Glazovka","stateId":4689,"stateCode":"43","stateName":"Autonomous Republic of Crimea","countryId":230,"countryCode":"UA","countryName":"Ukraine","latitude":"45.38792000","longitude":"36.57965000","wikiDataId":"Q206045"},{"id":109608,"name":"Golubinka","stateId":4689,"stateCode":"43","stateName":"Autonomous Republic of Crimea","countryId":230,"countryCode":"UA","countryName":"Ukraine","latitude":"44.59382000","longitude":"33.91521000","wikiDataId":"Q206045"},{"id":109609,"name":"Gornostayevka","stateId":4689,"stateCode":"43","stateName":"Autonomous Republic of Crimea","countryId":230,"countryCode":"UA","countryName":"Ukraine","latitude":"45.27819000","longitude":"36.18601000","wikiDataId":"Q206045"},{"id":109610,"name":"Gorodskoy okrug Alushta","stateId":4689,"stateCode":"43","stateName":"Autonomous Republic of Crimea","countryId":230,"countryCode":"UA","countryName":"Ukraine","latitude":"44.67256000","longitude":"34.41467000","wikiDataId":"Q2996404"},{"id":109611,"name":"Gorodskoy okrug Armyansk","stateId":4689,"stateCode":"43","stateName":"Autonomous Republic of Crimea","countryId":230,"countryCode":"UA","countryName":"Ukraine","latitude":"46.10871000","longitude":"33.69095000","wikiDataId":"Q2629323"},{"id":109612,"name":"Gorodskoy okrug Dzhankoy","stateId":4689,"stateCode":"43","stateName":"Autonomous Republic of Crimea","countryId":230,"countryCode":"UA","countryName":"Ukraine","latitude":"45.70810000","longitude":"34.39407000","wikiDataId":"Q2371777"},{"id":109613,"name":"Gorodskoy okrug Feodosiya","stateId":4689,"stateCode":"43","stateName":"Autonomous Republic of Crimea","countryId":230,"countryCode":"UA","countryName":"Ukraine","latitude":"45.04612000","longitude":"35.37289000","wikiDataId":"Q2371693"},{"id":109614,"name":"Gorodskoy okrug Krasnoperekopsk","stateId":4689,"stateCode":"43","stateName":"Autonomous Republic of Crimea","countryId":230,"countryCode":"UA","countryName":"Ukraine","latitude":"45.95330000","longitude":"33.79669000","wikiDataId":"Q2371707"},{"id":109615,"name":"Gorodskoy okrug Saki","stateId":4689,"stateCode":"43","stateName":"Autonomous Republic of Crimea","countryId":230,"countryCode":"UA","countryName":"Ukraine","latitude":"45.12780000","longitude":"33.60134000","wikiDataId":"Q2371735"},{"id":109616,"name":"Gorodskoy okrug Simferopol","stateId":4689,"stateCode":"43","stateName":"Autonomous Republic of Crimea","countryId":230,"countryCode":"UA","countryName":"Ukraine","latitude":"44.94803000","longitude":"34.10912000","wikiDataId":"Q2629692"},{"id":109617,"name":"Gorodskoy okrug Sudak","stateId":4689,"stateCode":"43","stateName":"Autonomous Republic of Crimea","countryId":230,"countryCode":"UA","countryName":"Ukraine","latitude":"44.91667000","longitude":"35.00202000","wikiDataId":"Q2629692"},{"id":109618,"name":"Gorodskoy okrug Yalta","stateId":4689,"stateCode":"43","stateName":"Autonomous Republic of Crimea","countryId":230,"countryCode":"UA","countryName":"Ukraine","latitude":"44.49638000","longitude":"34.16336000","wikiDataId":"Q2629652"},{"id":109619,"name":"Gorodskoy okrug Yevpatoriya","stateId":4689,"stateCode":"43","stateName":"Autonomous Republic of Crimea","countryId":230,"countryCode":"UA","countryName":"Ukraine","latitude":"45.19559000","longitude":"33.36342000","wikiDataId":"Q2629701"},{"id":109620,"name":"Gresovskiy","stateId":4689,"stateCode":"43","stateName":"Autonomous Republic of Crimea","countryId":230,"countryCode":"UA","countryName":"Ukraine","latitude":"45.00804000","longitude":"34.02657000","wikiDataId":"Q2629701"},{"id":109621,"name":"Grishino","stateId":4689,"stateCode":"43","stateName":"Autonomous Republic of Crimea","countryId":230,"countryCode":"UA","countryName":"Ukraine","latitude":"45.64219000","longitude":"33.83098000","wikiDataId":"Q2629701"},{"id":109622,"name":"Grushevka","stateId":4689,"stateCode":"43","stateName":"Autonomous Republic of Crimea","countryId":230,"countryCode":"UA","countryName":"Ukraine","latitude":"45.02281000","longitude":"34.97301000","wikiDataId":"Q2629701"},{"id":109623,"name":"Gurzuf","stateId":4689,"stateCode":"43","stateName":"Autonomous Republic of Crimea","countryId":230,"countryCode":"UA","countryName":"Ukraine","latitude":"44.54624000","longitude":"34.27841000","wikiDataId":"Q1026062"},{"id":109664,"name":"Hvardiiske","stateId":4689,"stateCode":"43","stateName":"Autonomous Republic of Crimea","countryId":230,"countryCode":"UA","countryName":"Ukraine","latitude":"45.11692000","longitude":"34.02188000","wikiDataId":"Q4153056"},{"id":109669,"name":"Ilychyovo","stateId":4689,"stateCode":"43","stateName":"Autonomous Republic of Crimea","countryId":230,"countryCode":"UA","countryName":"Ukraine","latitude":"45.28348000","longitude":"35.73864000","wikiDataId":"Q2415345"},{"id":109670,"name":"Ilyichevo","stateId":4689,"stateCode":"43","stateName":"Autonomous Republic of Crimea","countryId":230,"countryCode":"UA","countryName":"Ukraine","latitude":"45.24524000","longitude":"35.07127000","wikiDataId":"Q2415345"},{"id":109671,"name":"Ilyinka","stateId":4689,"stateCode":"43","stateName":"Autonomous Republic of Crimea","countryId":230,"countryCode":"UA","countryName":"Ukraine","latitude":"45.81784000","longitude":"33.79482000","wikiDataId":"Q2415345"},{"id":109676,"name":"Ishun’","stateId":4689,"stateCode":"43","stateName":"Autonomous Republic of Crimea","countryId":230,"countryCode":"UA","countryName":"Ukraine","latitude":"45.92403000","longitude":"33.82364000","wikiDataId":"Q277159"},{"id":109685,"name":"Ivanovka","stateId":4689,"stateCode":"43","stateName":"Autonomous Republic of Crimea","countryId":230,"countryCode":"UA","countryName":"Ukraine","latitude":"45.07200000","longitude":"33.66130000","wikiDataId":"Q1019884"},{"id":109688,"name":"Izobil’noye","stateId":4689,"stateCode":"43","stateName":"Autonomous Republic of Crimea","countryId":230,"countryCode":"UA","countryName":"Ukraine","latitude":"44.70276000","longitude":"34.35357000","wikiDataId":"Q147739"},{"id":109689,"name":"Izumrudnoye","stateId":4689,"stateCode":"43","stateName":"Autonomous Republic of Crimea","countryId":230,"countryCode":"UA","countryName":"Ukraine","latitude":"45.73704000","longitude":"34.41299000","wikiDataId":"Q147739"},{"id":109692,"name":"Izyumovka","stateId":4689,"stateCode":"43","stateName":"Autonomous Republic of Crimea","countryId":230,"countryCode":"UA","countryName":"Ukraine","latitude":"45.04437000","longitude":"35.13717000","wikiDataId":"Q841029"},{"id":109700,"name":"Kalinino","stateId":4689,"stateCode":"43","stateName":"Autonomous Republic of Crimea","countryId":230,"countryCode":"UA","countryName":"Ukraine","latitude":"45.59521000","longitude":"34.22030000","wikiDataId":"Q2084111"},{"id":109701,"name":"Kalinovka","stateId":4689,"stateCode":"43","stateName":"Autonomous Republic of Crimea","countryId":230,"countryCode":"UA","countryName":"Ukraine","latitude":"45.31658000","longitude":"35.74643000","wikiDataId":"Q2084111"},{"id":109707,"name":"Kamenolomnya","stateId":4689,"stateCode":"43","stateName":"Autonomous Republic of Crimea","countryId":230,"countryCode":"UA","countryName":"Ukraine","latitude":"45.24804000","longitude":"33.41773000","wikiDataId":"Q4209942"},{"id":109718,"name":"Kashtanovoye","stateId":4689,"stateCode":"43","stateName":"Autonomous Republic of Crimea","countryId":230,"countryCode":"UA","countryName":"Ukraine","latitude":"44.83210000","longitude":"34.05912000","wikiDataId":"Q2452778"},{"id":109719,"name":"Kashtany","stateId":4689,"stateCode":"43","stateName":"Autonomous Republic of Crimea","countryId":230,"countryCode":"UA","countryName":"Ukraine","latitude":"44.86760000","longitude":"33.78995000","wikiDataId":"Q2452778"},{"id":109725,"name":"Kerch","stateId":4689,"stateCode":"43","stateName":"Autonomous Republic of Crimea","countryId":230,"countryCode":"UA","countryName":"Ukraine","latitude":"45.35310000","longitude":"36.47429000","wikiDataId":"Q157065"},{"id":109726,"name":"Kerchens'ka Mis'ka Rada","stateId":4689,"stateCode":"43","stateName":"Autonomous Republic of Crimea","countryId":230,"countryCode":"UA","countryName":"Ukraine","latitude":"45.35307000","longitude":"36.47414000","wikiDataId":"Q2371662"},{"id":109734,"name":"Kholmovka","stateId":4689,"stateCode":"43","stateName":"Autonomous Republic of Crimea","countryId":230,"countryCode":"UA","countryName":"Ukraine","latitude":"44.65830000","longitude":"33.75456000","wikiDataId":"Q997404"},{"id":109750,"name":"Kirovo","stateId":4689,"stateCode":"43","stateName":"Autonomous Republic of Crimea","countryId":230,"countryCode":"UA","countryName":"Ukraine","latitude":"45.22106000","longitude":"35.84227000","wikiDataId":"Q4221563"},{"id":109752,"name":"Kirovske Raion","stateId":4689,"stateCode":"43","stateName":"Autonomous Republic of Crimea","countryId":230,"countryCode":"UA","countryName":"Ukraine","latitude":"45.15522000","longitude":"35.17696000","wikiDataId":"Q2355897"},{"id":109753,"name":"Kirovskoye","stateId":4689,"stateCode":"43","stateName":"Autonomous Republic of Crimea","countryId":230,"countryCode":"UA","countryName":"Ukraine","latitude":"45.22967000","longitude":"35.19987000","wikiDataId":"Q2355897"},{"id":109761,"name":"Klepinino","stateId":4689,"stateCode":"43","stateName":"Autonomous Republic of Crimea","countryId":230,"countryCode":"UA","countryName":"Ukraine","latitude":"45.52800000","longitude":"34.18315000","wikiDataId":"Q4223348"},{"id":109771,"name":"Koktebel","stateId":4689,"stateCode":"43","stateName":"Autonomous Republic of Crimea","countryId":230,"countryCode":"UA","countryName":"Ukraine","latitude":"44.96155000","longitude":"35.24660000","wikiDataId":"Q1743602"},{"id":109780,"name":"Kol’chugino","stateId":4689,"stateCode":"43","stateName":"Autonomous Republic of Crimea","countryId":230,"countryCode":"UA","countryName":"Ukraine","latitude":"44.94367000","longitude":"33.78865000","wikiDataId":"Q35698683"},{"id":109781,"name":"Kol’tsovo","stateId":4689,"stateCode":"43","stateName":"Autonomous Republic of Crimea","countryId":230,"countryCode":"UA","countryName":"Ukraine","latitude":"45.32807000","longitude":"33.44992000","wikiDataId":"Q35698683"},{"id":109774,"name":"Kolodeznoye","stateId":4689,"stateCode":"43","stateName":"Autonomous Republic of Crimea","countryId":230,"countryCode":"UA","countryName":"Ukraine","latitude":"45.22682000","longitude":"34.33698000","wikiDataId":"Q4228153"},{"id":109779,"name":"Koloski","stateId":4689,"stateCode":"43","stateName":"Autonomous Republic of Crimea","countryId":230,"countryCode":"UA","countryName":"Ukraine","latitude":"45.26936000","longitude":"33.29386000","wikiDataId":"Q35698683"},{"id":109784,"name":"Komsomol’skoye","stateId":4689,"stateCode":"43","stateName":"Autonomous Republic of Crimea","countryId":230,"countryCode":"UA","countryName":"Ukraine","latitude":"45.01900000","longitude":"34.03049000","wikiDataId":"Q2473646"},{"id":109788,"name":"Kondratyevo","stateId":4689,"stateCode":"43","stateName":"Autonomous Republic of Crimea","countryId":230,"countryCode":"UA","countryName":"Ukraine","latitude":"45.63125000","longitude":"34.47387000","wikiDataId":"Q2026916"},{"id":109790,"name":"Konstantinovka","stateId":4689,"stateCode":"43","stateName":"Autonomous Republic of Crimea","countryId":230,"countryCode":"UA","countryName":"Ukraine","latitude":"44.85511000","longitude":"34.12069000","wikiDataId":"Q162083"},{"id":109794,"name":"Koreiz","stateId":4689,"stateCode":"43","stateName":"Autonomous Republic of Crimea","countryId":230,"countryCode":"UA","countryName":"Ukraine","latitude":"44.43374000","longitude":"34.08516000","wikiDataId":"Q206189"},{"id":109796,"name":"Kormovoye","stateId":4689,"stateCode":"43","stateName":"Autonomous Republic of Crimea","countryId":230,"countryCode":"UA","countryName":"Ukraine","latitude":"45.50001000","longitude":"33.61192000","wikiDataId":"Q997398"},{"id":109812,"name":"Kostochkovka","stateId":4689,"stateCode":"43","stateName":"Autonomous Republic of Crimea","countryId":230,"countryCode":"UA","countryName":"Ukraine","latitude":"45.31747000","longitude":"34.67418000","wikiDataId":"Q593616"},{"id":109818,"name":"Kotel’nikovo","stateId":4689,"stateCode":"43","stateName":"Autonomous Republic of Crimea","countryId":230,"countryCode":"UA","countryName":"Ukraine","latitude":"45.36584000","longitude":"34.02575000","wikiDataId":"Q165243"},{"id":109822,"name":"Kovyl’noye","stateId":4689,"stateCode":"43","stateName":"Autonomous Republic of Crimea","countryId":230,"countryCode":"UA","countryName":"Ukraine","latitude":"45.69028000","longitude":"33.52775000","wikiDataId":"Q12111069"},{"id":109830,"name":"Krasna Zor'ka","stateId":4689,"stateCode":"43","stateName":"Autonomous Republic of Crimea","countryId":230,"countryCode":"UA","countryName":"Ukraine","latitude":"45.13432000","longitude":"34.04015000","wikiDataId":"Q4237885"},{"id":109831,"name":"Krasnaya Polyana","stateId":4689,"stateCode":"43","stateName":"Autonomous Republic of Crimea","countryId":230,"countryCode":"UA","countryName":"Ukraine","latitude":"45.48241000","longitude":"32.93790000","wikiDataId":"Q4237885"},{"id":109834,"name":"Krasnoarmeyskoye","stateId":4689,"stateCode":"43","stateName":"Autonomous Republic of Crimea","countryId":230,"countryCode":"UA","countryName":"Ukraine","latitude":"45.99103000","longitude":"34.03037000","wikiDataId":"Q4238632"},{"id":109835,"name":"Krasnoflotskoye","stateId":4689,"stateCode":"43","stateName":"Autonomous Republic of Crimea","countryId":230,"countryCode":"UA","countryName":"Ukraine","latitude":"45.31572000","longitude":"34.94756000","wikiDataId":"Q4238632"},{"id":109836,"name":"Krasnogorka","stateId":4689,"stateCode":"43","stateName":"Autonomous Republic of Crimea","countryId":230,"countryCode":"UA","countryName":"Ukraine","latitude":"45.24513000","longitude":"35.80739000","wikiDataId":"Q4238632"},{"id":109837,"name":"Krasnogvardeyskoye","stateId":4689,"stateCode":"43","stateName":"Autonomous Republic of Crimea","countryId":230,"countryCode":"UA","countryName":"Ukraine","latitude":"45.50271000","longitude":"34.30134000","wikiDataId":"Q4238632"},{"id":109839,"name":"Krasnohvardiiske Raion","stateId":4689,"stateCode":"43","stateName":"Autonomous Republic of Crimea","countryId":230,"countryCode":"UA","countryName":"Ukraine","latitude":"45.40230000","longitude":"34.25464000","wikiDataId":"Q2420522"},{"id":109840,"name":"Krasnokamenka","stateId":4689,"stateCode":"43","stateName":"Autonomous Republic of Crimea","countryId":230,"countryCode":"UA","countryName":"Ukraine","latitude":"44.56383000","longitude":"34.28877000","wikiDataId":"Q3847642"},{"id":109842,"name":"Krasnolesye","stateId":4689,"stateCode":"43","stateName":"Autonomous Republic of Crimea","countryId":230,"countryCode":"UA","countryName":"Ukraine","latitude":"44.83259000","longitude":"34.23086000","wikiDataId":"Q4238800"},{"id":109845,"name":"Krasnoperekops’k","stateId":4689,"stateCode":"43","stateName":"Autonomous Republic of Crimea","countryId":230,"countryCode":"UA","countryName":"Ukraine","latitude":"45.95716000","longitude":"33.79650000","wikiDataId":"Q161987"},{"id":109844,"name":"Krasnoperekopsk Raion","stateId":4689,"stateCode":"43","stateName":"Autonomous Republic of Crimea","countryId":230,"countryCode":"UA","countryName":"Ukraine","latitude":"45.96992000","longitude":"33.87990000","wikiDataId":"Q2237970"},{"id":109849,"name":"Krasnoyarskoye","stateId":4689,"stateCode":"43","stateName":"Autonomous Republic of Crimea","countryId":230,"countryCode":"UA","countryName":"Ukraine","latitude":"45.50661000","longitude":"33.26641000","wikiDataId":"Q4239123"},{"id":109850,"name":"Krasnoye","stateId":4689,"stateCode":"43","stateName":"Autonomous Republic of Crimea","countryId":230,"countryCode":"UA","countryName":"Ukraine","latitude":"45.13999000","longitude":"34.09452000","wikiDataId":"Q4239123"},{"id":109851,"name":"Krasnoznamenka","stateId":4689,"stateCode":"43","stateName":"Autonomous Republic of Crimea","countryId":230,"countryCode":"UA","countryName":"Ukraine","latitude":"45.28676000","longitude":"34.00036000","wikiDataId":"Q4239123"},{"id":109852,"name":"Krasnyi Mak","stateId":4689,"stateCode":"43","stateName":"Autonomous Republic of Crimea","countryId":230,"countryCode":"UA","countryName":"Ukraine","latitude":"44.64218000","longitude":"33.78130000","wikiDataId":"Q4239123"},{"id":109857,"name":"Krayneye","stateId":4689,"stateCode":"43","stateName":"Autonomous Republic of Crimea","countryId":230,"countryCode":"UA","countryName":"Ukraine","latitude":"45.22993000","longitude":"33.83239000","wikiDataId":"Q1020096"},{"id":109861,"name":"Krest’yanovka","stateId":4689,"stateCode":"43","stateName":"Autonomous Republic of Crimea","countryId":230,"countryCode":"UA","countryName":"Ukraine","latitude":"45.72268000","longitude":"33.93938000","wikiDataId":"Q2350295"},{"id":109863,"name":"Krinichnoye","stateId":4689,"stateCode":"43","stateName":"Autonomous Republic of Crimea","countryId":230,"countryCode":"UA","countryName":"Ukraine","latitude":"45.02428000","longitude":"34.61202000","wikiDataId":"Q4241112"},{"id":109869,"name":"Krymka","stateId":4689,"stateCode":"43","stateName":"Autonomous Republic of Crimea","countryId":230,"countryCode":"UA","countryName":"Ukraine","latitude":"45.70453000","longitude":"34.18782000","wikiDataId":"Q4242555"},{"id":109870,"name":"Krymskaya Roza","stateId":4689,"stateCode":"43","stateName":"Autonomous Republic of Crimea","countryId":230,"countryCode":"UA","countryName":"Ukraine","latitude":"45.05776000","longitude":"34.35631000","wikiDataId":"Q4242555"},{"id":109871,"name":"Krymskoye","stateId":4689,"stateCode":"43","stateName":"Autonomous Republic of Crimea","countryId":230,"countryCode":"UA","countryName":"Ukraine","latitude":"45.18836000","longitude":"33.80106000","wikiDataId":"Q4242555"},{"id":109881,"name":"Kuibyshevo","stateId":4689,"stateCode":"43","stateName":"Autonomous Republic of Crimea","countryId":230,"countryCode":"UA","countryName":"Ukraine","latitude":"44.62900000","longitude":"33.86895000","wikiDataId":"Q2391279"},{"id":109882,"name":"Kukushkino","stateId":4689,"stateCode":"43","stateName":"Autonomous Republic of Crimea","countryId":230,"countryCode":"UA","countryName":"Ukraine","latitude":"45.71924000","longitude":"33.39030000","wikiDataId":"Q2391279"},{"id":109890,"name":"Kurskoye","stateId":4689,"stateCode":"43","stateName":"Autonomous Republic of Crimea","countryId":230,"countryCode":"UA","countryName":"Ukraine","latitude":"45.02908000","longitude":"34.93623000","wikiDataId":"Q4361004"},{"id":109968,"name":"L’govskoye","stateId":4689,"stateCode":"43","stateName":"Autonomous Republic of Crimea","countryId":230,"countryCode":"UA","countryName":"Ukraine","latitude":"45.09801000","longitude":"34.95770000","wikiDataId":"Q3656124"},{"id":109910,"name":"Lekarstvennoye","stateId":4689,"stateCode":"43","stateName":"Autonomous Republic of Crimea","countryId":230,"countryCode":"UA","countryName":"Ukraine","latitude":"44.94194000","longitude":"33.82229000","wikiDataId":"Q4255904"},{"id":109912,"name":"Lenine Raion","stateId":4689,"stateCode":"43","stateName":"Autonomous Republic of Crimea","countryId":230,"countryCode":"UA","countryName":"Ukraine","latitude":"45.24693000","longitude":"36.00540000","wikiDataId":"Q2443152"},{"id":109913,"name":"Lenino","stateId":4689,"stateCode":"43","stateName":"Autonomous Republic of Crimea","countryId":230,"countryCode":"UA","countryName":"Ukraine","latitude":"45.29857000","longitude":"35.77708000","wikiDataId":"Q1817745"},{"id":109914,"name":"Leninskoye","stateId":4689,"stateCode":"43","stateName":"Autonomous Republic of Crimea","countryId":230,"countryCode":"UA","countryName":"Ukraine","latitude":"45.26844000","longitude":"34.05023000","wikiDataId":"Q1817745"},{"id":109915,"name":"Lesnovka","stateId":4689,"stateCode":"43","stateName":"Autonomous Republic of Crimea","countryId":230,"countryCode":"UA","countryName":"Ukraine","latitude":"45.15350000","longitude":"33.61889000","wikiDataId":"Q1817745"},{"id":109917,"name":"Levadki","stateId":4689,"stateCode":"43","stateName":"Autonomous Republic of Crimea","countryId":230,"countryCode":"UA","countryName":"Ukraine","latitude":"44.87083000","longitude":"34.04278000","wikiDataId":"Q2431181"},{"id":109919,"name":"Listvennoye","stateId":4689,"stateCode":"43","stateName":"Autonomous Republic of Crimea","countryId":230,"countryCode":"UA","countryName":"Ukraine","latitude":"45.48086000","longitude":"34.81087000","wikiDataId":"Q4259871"},{"id":109920,"name":"Litvinenkovo","stateId":4689,"stateCode":"43","stateName":"Autonomous Republic of Crimea","countryId":230,"countryCode":"UA","countryName":"Ukraine","latitude":"45.08648000","longitude":"34.31107000","wikiDataId":"Q4259871"},{"id":109926,"name":"Livadia","stateId":4689,"stateCode":"43","stateName":"Autonomous Republic of Crimea","countryId":230,"countryCode":"UA","countryName":"Ukraine","latitude":"44.47021000","longitude":"34.14272000","wikiDataId":"Q2287115"},{"id":109927,"name":"Lobanovo","stateId":4689,"stateCode":"43","stateName":"Autonomous Republic of Crimea","countryId":230,"countryCode":"UA","countryName":"Ukraine","latitude":"45.77552000","longitude":"34.24236000","wikiDataId":"Q2287115"},{"id":109933,"name":"Lozovoye","stateId":4689,"stateCode":"43","stateName":"Autonomous Republic of Crimea","countryId":230,"countryCode":"UA","countryName":"Ukraine","latitude":"44.90600000","longitude":"34.16414000","wikiDataId":"Q889630"},{"id":109935,"name":"Luchistoye","stateId":4689,"stateCode":"43","stateName":"Autonomous Republic of Crimea","countryId":230,"countryCode":"UA","countryName":"Ukraine","latitude":"44.73646000","longitude":"34.40063000","wikiDataId":"Q4265521"},{"id":109936,"name":"Luganskoye","stateId":4689,"stateCode":"43","stateName":"Autonomous Republic of Crimea","countryId":230,"countryCode":"UA","countryName":"Ukraine","latitude":"45.80190000","longitude":"34.23786000","wikiDataId":"Q4265521"},{"id":109937,"name":"Lugovoye","stateId":4689,"stateCode":"43","stateName":"Autonomous Republic of Crimea","countryId":230,"countryCode":"UA","countryName":"Ukraine","latitude":"45.23469000","longitude":"35.72202000","wikiDataId":"Q4265521"},{"id":109969,"name":"Magazinka","stateId":4689,"stateCode":"43","stateName":"Autonomous Republic of Crimea","countryId":230,"countryCode":"UA","countryName":"Ukraine","latitude":"45.86312000","longitude":"34.04969000","wikiDataId":"Q3656124"},{"id":109982,"name":"Malen’koye","stateId":4689,"stateCode":"43","stateName":"Autonomous Republic of Crimea","countryId":230,"countryCode":"UA","countryName":"Ukraine","latitude":"45.07585000","longitude":"33.99942000","wikiDataId":"Q591872"},{"id":109985,"name":"Malorechenskoye","stateId":4689,"stateCode":"43","stateName":"Autonomous Republic of Crimea","countryId":230,"countryCode":"UA","countryName":"Ukraine","latitude":"44.75888000","longitude":"34.55789000","wikiDataId":"Q2880849"},{"id":109987,"name":"Maly Mayak","stateId":4689,"stateCode":"43","stateName":"Autonomous Republic of Crimea","countryId":230,"countryCode":"UA","countryName":"Ukraine","latitude":"44.61356000","longitude":"34.36469000","wikiDataId":"Q3849361"},{"id":110005,"name":"Mar’yanovka","stateId":4689,"stateCode":"43","stateName":"Autonomous Republic of Crimea","countryId":230,"countryCode":"UA","countryName":"Ukraine","latitude":"45.44627000","longitude":"34.29474000","wikiDataId":"Q1902692"},{"id":109998,"name":"Marfovka","stateId":4689,"stateCode":"43","stateName":"Autonomous Republic of Crimea","countryId":230,"countryCode":"UA","countryName":"Ukraine","latitude":"45.19853000","longitude":"36.09144000","wikiDataId":"Q2494365"},{"id":110004,"name":"Maryevka","stateId":4689,"stateCode":"43","stateName":"Autonomous Republic of Crimea","countryId":230,"countryCode":"UA","countryName":"Ukraine","latitude":"45.11330000","longitude":"36.23992000","wikiDataId":"Q1902692"},{"id":110006,"name":"Maslovo","stateId":4689,"stateCode":"43","stateName":"Autonomous Republic of Crimea","countryId":230,"countryCode":"UA","countryName":"Ukraine","latitude":"45.79197000","longitude":"34.36298000","wikiDataId":"Q1902692"},{"id":110007,"name":"Massandra","stateId":4689,"stateCode":"43","stateName":"Autonomous Republic of Crimea","countryId":230,"countryCode":"UA","countryName":"Ukraine","latitude":"44.50958000","longitude":"34.18817000","wikiDataId":"Q206345"},{"id":110010,"name":"Mayskoye","stateId":4689,"stateCode":"43","stateName":"Autonomous Republic of Crimea","countryId":230,"countryCode":"UA","countryName":"Ukraine","latitude":"45.59555000","longitude":"34.55213000","wikiDataId":"Q4284579"},{"id":110011,"name":"Mazanka","stateId":4689,"stateCode":"43","stateName":"Autonomous Republic of Crimea","countryId":230,"countryCode":"UA","countryName":"Ukraine","latitude":"45.00550000","longitude":"34.25581000","wikiDataId":"Q4284579"},{"id":110013,"name":"Medvedevka","stateId":4689,"stateCode":"43","stateName":"Autonomous Republic of Crimea","countryId":230,"countryCode":"UA","countryName":"Ukraine","latitude":"45.88389000","longitude":"34.55562000","wikiDataId":"Q777931"},{"id":110014,"name":"Medvedevo","stateId":4689,"stateCode":"43","stateName":"Autonomous Republic of Crimea","countryId":230,"countryCode":"UA","countryName":"Ukraine","latitude":"45.38597000","longitude":"33.00400000","wikiDataId":"Q777931"},{"id":110020,"name":"Mel’nichnoye","stateId":4689,"stateCode":"43","stateName":"Autonomous Republic of Crimea","countryId":230,"countryCode":"UA","countryName":"Ukraine","latitude":"45.19885000","longitude":"34.42012000","wikiDataId":"Q2216819"},{"id":110026,"name":"Mezhvodnoye","stateId":4689,"stateCode":"43","stateName":"Autonomous Republic of Crimea","countryId":230,"countryCode":"UA","countryName":"Ukraine","latitude":"45.58751000","longitude":"32.84501000","wikiDataId":"Q4288066"},{"id":110027,"name":"Michurinskoye","stateId":4689,"stateCode":"43","stateName":"Autonomous Republic of Crimea","countryId":230,"countryCode":"UA","countryName":"Ukraine","latitude":"45.07430000","longitude":"34.70672000","wikiDataId":"Q4288066"},{"id":110028,"name":"Mikhaylovka","stateId":4689,"stateCode":"43","stateName":"Autonomous Republic of Crimea","countryId":230,"countryCode":"UA","countryName":"Ukraine","latitude":"45.11325000","longitude":"33.61071000","wikiDataId":"Q4288066"},{"id":110032,"name":"Mirnovka","stateId":4689,"stateCode":"43","stateName":"Autonomous Republic of Crimea","countryId":230,"countryCode":"UA","countryName":"Ukraine","latitude":"45.69083000","longitude":"34.30966000","wikiDataId":"Q290569"},{"id":110033,"name":"Mirnoye","stateId":4689,"stateCode":"43","stateName":"Autonomous Republic of Crimea","countryId":230,"countryCode":"UA","countryName":"Ukraine","latitude":"44.98330000","longitude":"34.06160000","wikiDataId":"Q290569"},{"id":110034,"name":"Mirny","stateId":4689,"stateCode":"43","stateName":"Autonomous Republic of Crimea","countryId":230,"countryCode":"UA","countryName":"Ukraine","latitude":"45.30788000","longitude":"33.03501000","wikiDataId":"Q821951"},{"id":110036,"name":"Mitrofanovka","stateId":4689,"stateCode":"43","stateName":"Autonomous Republic of Crimea","countryId":230,"countryCode":"UA","countryName":"Ukraine","latitude":"45.45114000","longitude":"34.67883000","wikiDataId":"Q4295916"},{"id":110037,"name":"Mityayevo","stateId":4689,"stateCode":"43","stateName":"Autonomous Republic of Crimea","countryId":230,"countryCode":"UA","countryName":"Ukraine","latitude":"45.23423000","longitude":"33.70150000","wikiDataId":"Q4295916"},{"id":110046,"name":"Molochnoye","stateId":4689,"stateCode":"43","stateName":"Autonomous Republic of Crimea","countryId":230,"countryCode":"UA","countryName":"Ukraine","latitude":"45.19960000","longitude":"33.22233000","wikiDataId":"Q997469"},{"id":110050,"name":"Molodyozhnoye","stateId":4689,"stateCode":"43","stateName":"Autonomous Republic of Crimea","countryId":230,"countryCode":"UA","countryName":"Ukraine","latitude":"45.00354000","longitude":"34.05634000","wikiDataId":"Q2238005"},{"id":110053,"name":"Morskoye","stateId":4689,"stateCode":"43","stateName":"Autonomous Republic of Crimea","countryId":230,"countryCode":"UA","countryName":"Ukraine","latitude":"44.82593000","longitude":"34.80314000","wikiDataId":"Q4303312"},{"id":110061,"name":"Muromskoye","stateId":4689,"stateCode":"43","stateName":"Autonomous Republic of Crimea","countryId":230,"countryCode":"UA","countryName":"Ukraine","latitude":"45.09051000","longitude":"34.84900000","wikiDataId":"Q177141"},{"id":110064,"name":"Muskatnoye","stateId":4689,"stateCode":"43","stateName":"Autonomous Republic of Crimea","countryId":230,"countryCode":"UA","countryName":"Ukraine","latitude":"45.46586000","longitude":"34.54316000","wikiDataId":"Q1999815"},{"id":110077,"name":"Mysovoe","stateId":4689,"stateCode":"43","stateName":"Autonomous Republic of Crimea","countryId":230,"countryCode":"UA","countryName":"Ukraine","latitude":"45.44788000","longitude":"35.83528000","wikiDataId":"Q4309555"},{"id":110083,"name":"Nasypnoe","stateId":4689,"stateCode":"43","stateName":"Autonomous Republic of Crimea","countryId":230,"countryCode":"UA","countryName":"Ukraine","latitude":"45.05285000","longitude":"35.29415000","wikiDataId":"Q2620669"},{"id":110085,"name":"Naydenovka","stateId":4689,"stateCode":"43","stateName":"Autonomous Republic of Crimea","countryId":230,"countryCode":"UA","countryName":"Ukraine","latitude":"45.27088000","longitude":"34.44898000","wikiDataId":"Q4311321"},{"id":110088,"name":"Nekrasovka","stateId":4689,"stateCode":"43","stateName":"Autonomous Republic of Crimea","countryId":230,"countryCode":"UA","countryName":"Ukraine","latitude":"45.44085000","longitude":"34.98584000","wikiDataId":"Q2658202"},{"id":110089,"name":"Nekrasovo","stateId":4689,"stateCode":"43","stateName":"Autonomous Republic of Crimea","countryId":230,"countryCode":"UA","countryName":"Ukraine","latitude":"45.42453000","longitude":"34.28545000","wikiDataId":"Q2658202"},{"id":110095,"name":"Nikita","stateId":4689,"stateCode":"43","stateName":"Autonomous Republic of Crimea","countryId":230,"countryCode":"UA","countryName":"Ukraine","latitude":"44.51564000","longitude":"34.23840000","wikiDataId":"Q2368326"},{"id":110096,"name":"Nikolayevka","stateId":4689,"stateCode":"43","stateName":"Autonomous Republic of Crimea","countryId":230,"countryCode":"UA","countryName":"Ukraine","latitude":"44.96213000","longitude":"33.61061000","wikiDataId":"Q2368326"},{"id":110099,"name":"Nizhnegorskiy","stateId":4689,"stateCode":"43","stateName":"Autonomous Republic of Crimea","countryId":230,"countryCode":"UA","countryName":"Ukraine","latitude":"45.44789000","longitude":"34.73839000","wikiDataId":"Q2626741"},{"id":110100,"name":"Nizhnegorskiy rayon","stateId":4689,"stateCode":"43","stateName":"Autonomous Republic of Crimea","countryId":230,"countryCode":"UA","countryName":"Ukraine","latitude":"45.48430000","longitude":"34.76798000","wikiDataId":"Q2420508"},{"id":110118,"name":"Novoandreyevka","stateId":4689,"stateCode":"43","stateName":"Autonomous Republic of Crimea","countryId":230,"countryCode":"UA","countryName":"Ukraine","latitude":"45.19904000","longitude":"34.09384000","wikiDataId":"Q2581621"},{"id":110124,"name":"Novoestoniya","stateId":4689,"stateCode":"43","stateName":"Autonomous Republic of Crimea","countryId":230,"countryCode":"UA","countryName":"Ukraine","latitude":"45.49960000","longitude":"34.24298000","wikiDataId":"Q149193"},{"id":110126,"name":"Novofedorovka","stateId":4689,"stateCode":"43","stateName":"Autonomous Republic of Crimea","countryId":230,"countryCode":"UA","countryName":"Ukraine","latitude":"45.09473000","longitude":"33.57211000","wikiDataId":"Q4326149"},{"id":110127,"name":"Novogrigoryevka","stateId":4689,"stateCode":"43","stateName":"Autonomous Republic of Crimea","countryId":230,"countryCode":"UA","countryName":"Ukraine","latitude":"45.45200000","longitude":"34.60378000","wikiDataId":"Q4326149"},{"id":110129,"name":"Novoivanovka","stateId":4689,"stateCode":"43","stateName":"Autonomous Republic of Crimea","countryId":230,"countryCode":"UA","countryName":"Ukraine","latitude":"45.44914000","longitude":"33.09833000","wikiDataId":"Q149024"},{"id":110130,"name":"Novokrymskoye","stateId":4689,"stateCode":"43","stateName":"Autonomous Republic of Crimea","countryId":230,"countryCode":"UA","countryName":"Ukraine","latitude":"45.78007000","longitude":"34.15543000","wikiDataId":"Q149024"},{"id":110136,"name":"Novonikolayevka","stateId":4689,"stateCode":"43","stateName":"Autonomous Republic of Crimea","countryId":230,"countryCode":"UA","countryName":"Ukraine","latitude":"45.30855000","longitude":"36.05749000","wikiDataId":"Q997478"},{"id":110138,"name":"Novoozyornoye","stateId":4689,"stateCode":"43","stateName":"Autonomous Republic of Crimea","countryId":230,"countryCode":"UA","countryName":"Ukraine","latitude":"45.38314000","longitude":"33.11715000","wikiDataId":"Q3889296"},{"id":110139,"name":"Novopavlovka","stateId":4689,"stateCode":"43","stateName":"Autonomous Republic of Crimea","countryId":230,"countryCode":"UA","countryName":"Ukraine","latitude":"45.86634000","longitude":"33.89018000","wikiDataId":"Q3889296"},{"id":110140,"name":"Novopokrovka","stateId":4689,"stateCode":"43","stateName":"Autonomous Republic of Crimea","countryId":230,"countryCode":"UA","countryName":"Ukraine","latitude":"45.16517000","longitude":"35.25304000","wikiDataId":"Q3889296"},{"id":110147,"name":"Novosel’skoye","stateId":4689,"stateCode":"43","stateName":"Autonomous Republic of Crimea","countryId":230,"countryCode":"UA","countryName":"Ukraine","latitude":"45.50357000","longitude":"32.72250000","wikiDataId":"Q4325271"},{"id":110144,"name":"Novoselovskoye","stateId":4689,"stateCode":"43","stateName":"Autonomous Republic of Crimea","countryId":230,"countryCode":"UA","countryName":"Ukraine","latitude":"45.44276000","longitude":"33.59795000","wikiDataId":"Q4325077"},{"id":110148,"name":"Novostepnoye","stateId":4689,"stateCode":"43","stateName":"Autonomous Republic of Crimea","countryId":230,"countryCode":"UA","countryName":"Ukraine","latitude":"45.66206000","longitude":"34.38700000","wikiDataId":"Q4325271"},{"id":110149,"name":"Novosyolovka","stateId":4689,"stateCode":"43","stateName":"Autonomous Republic of Crimea","countryId":230,"countryCode":"UA","countryName":"Ukraine","latitude":"44.99377000","longitude":"33.83525000","wikiDataId":"Q4325271"},{"id":110155,"name":"Novozhilovka","stateId":4689,"stateCode":"43","stateName":"Autonomous Republic of Crimea","countryId":230,"countryCode":"UA","countryName":"Ukraine","latitude":"45.15960000","longitude":"34.23270000","wikiDataId":"Q1025851"},{"id":110156,"name":"Novy Svet","stateId":4689,"stateCode":"43","stateName":"Autonomous Republic of Crimea","countryId":230,"countryCode":"UA","countryName":"Ukraine","latitude":"44.83087000","longitude":"34.91370000","wikiDataId":"Q388147"},{"id":110178,"name":"Okhotnikovo","stateId":4689,"stateCode":"43","stateName":"Autonomous Republic of Crimea","countryId":230,"countryCode":"UA","countryName":"Ukraine","latitude":"45.23985000","longitude":"33.59405000","wikiDataId":"Q1874"},{"id":110179,"name":"Okhotskoye","stateId":4689,"stateCode":"43","stateName":"Autonomous Republic of Crimea","countryId":230,"countryCode":"UA","countryName":"Ukraine","latitude":"45.48612000","longitude":"34.86401000","wikiDataId":"Q1874"},{"id":110182,"name":"Oktyabr'skoye","stateId":4689,"stateCode":"43","stateName":"Autonomous Republic of Crimea","countryId":230,"countryCode":"UA","countryName":"Ukraine","latitude":"45.36215000","longitude":"36.36803000","wikiDataId":"Q1786696"},{"id":110183,"name":"Oktyabr’skoye","stateId":4689,"stateCode":"43","stateName":"Autonomous Republic of Crimea","countryId":230,"countryCode":"UA","countryName":"Ukraine","latitude":"45.28866000","longitude":"34.13521000","wikiDataId":"Q1786696"},{"id":110184,"name":"Okunevka","stateId":4689,"stateCode":"43","stateName":"Autonomous Republic of Crimea","countryId":230,"countryCode":"UA","countryName":"Ukraine","latitude":"45.36855000","longitude":"32.76357000","wikiDataId":"Q1786696"},{"id":110191,"name":"Olenevka","stateId":4689,"stateCode":"43","stateName":"Autonomous Republic of Crimea","countryId":230,"countryCode":"UA","countryName":"Ukraine","latitude":"45.38333000","longitude":"32.53333000","wikiDataId":"Q4333548"},{"id":110201,"name":"Ordzhonikidze","stateId":4689,"stateCode":"43","stateName":"Autonomous Republic of Crimea","countryId":230,"countryCode":"UA","countryName":"Ukraine","latitude":"44.96401000","longitude":"35.35576000","wikiDataId":"Q1010485"},{"id":110202,"name":"Orekhovo","stateId":4689,"stateCode":"43","stateName":"Autonomous Republic of Crimea","countryId":230,"countryCode":"UA","countryName":"Ukraine","latitude":"45.12944000","longitude":"33.63180000","wikiDataId":"Q4336318"},{"id":110204,"name":"Orlovskoye","stateId":4689,"stateCode":"43","stateName":"Autonomous Republic of Crimea","countryId":230,"countryCode":"UA","countryName":"Ukraine","latitude":"45.81070000","longitude":"33.97308000","wikiDataId":"Q521105"},{"id":110206,"name":"Ostanino","stateId":4689,"stateCode":"43","stateName":"Autonomous Republic of Crimea","countryId":230,"countryCode":"UA","countryName":"Ukraine","latitude":"45.32731000","longitude":"35.91295000","wikiDataId":"Q521105"},{"id":110209,"name":"Ostrovskoye","stateId":4689,"stateCode":"43","stateName":"Autonomous Republic of Crimea","countryId":230,"countryCode":"UA","countryName":"Ukraine","latitude":"45.74232000","longitude":"34.06607000","wikiDataId":"Q140671"},{"id":110220,"name":"Pakharevka","stateId":4689,"stateCode":"43","stateName":"Autonomous Republic of Crimea","countryId":230,"countryCode":"UA","countryName":"Ukraine","latitude":"45.83472000","longitude":"34.16129000","wikiDataId":"Q4332333"},{"id":110223,"name":"Partenit","stateId":4689,"stateCode":"43","stateName":"Autonomous Republic of Crimea","countryId":230,"countryCode":"UA","countryName":"Ukraine","latitude":"44.57800000","longitude":"34.34464000","wikiDataId":"Q1401243"},{"id":110224,"name":"Partizanskoye","stateId":4689,"stateCode":"43","stateName":"Autonomous Republic of Crimea","countryId":230,"countryCode":"UA","countryName":"Ukraine","latitude":"44.83379000","longitude":"34.08465000","wikiDataId":"Q1401243"},{"id":110225,"name":"Partizany","stateId":4689,"stateCode":"43","stateName":"Autonomous Republic of Crimea","countryId":230,"countryCode":"UA","countryName":"Ukraine","latitude":"45.14373000","longitude":"35.15509000","wikiDataId":"Q1401243"},{"id":110243,"name":"Pereval'noye","stateId":4689,"stateCode":"43","stateName":"Autonomous Republic of Crimea","countryId":230,"countryCode":"UA","countryName":"Ukraine","latitude":"44.84838000","longitude":"34.31271000","wikiDataId":"Q4350000"},{"id":110245,"name":"Perovo","stateId":4689,"stateCode":"43","stateName":"Autonomous Republic of Crimea","countryId":230,"countryCode":"UA","countryName":"Ukraine","latitude":"44.92513000","longitude":"34.05753000","wikiDataId":"Q2354490"},{"id":110248,"name":"Pervomayskiy rayon","stateId":4689,"stateCode":"43","stateName":"Autonomous Republic of Crimea","countryId":230,"countryCode":"UA","countryName":"Ukraine","latitude":"45.59825000","longitude":"33.83249000","wikiDataId":"Q2353513"},{"id":110249,"name":"Pervomayskoye","stateId":4689,"stateCode":"43","stateName":"Autonomous Republic of Crimea","countryId":230,"countryCode":"UA","countryName":"Ukraine","latitude":"45.71744000","longitude":"33.85596000","wikiDataId":"Q2368313"},{"id":110254,"name":"Peschanoye","stateId":4689,"stateCode":"43","stateName":"Autonomous Republic of Crimea","countryId":230,"countryCode":"UA","countryName":"Ukraine","latitude":"44.84342000","longitude":"33.60921000","wikiDataId":"Q4359998"},{"id":110260,"name":"Petrovka","stateId":4689,"stateCode":"43","stateName":"Autonomous Republic of Crimea","countryId":230,"countryCode":"UA","countryName":"Ukraine","latitude":"45.49776000","longitude":"34.28816000","wikiDataId":"Q1026907"},{"id":110272,"name":"Pionerskoye","stateId":4689,"stateCode":"43","stateName":"Autonomous Republic of Crimea","countryId":230,"countryCode":"UA","countryName":"Ukraine","latitude":"44.88083000","longitude":"34.20194000","wikiDataId":"Q714660"},{"id":110277,"name":"Plodovoye","stateId":4689,"stateCode":"43","stateName":"Autonomous Republic of Crimea","countryId":230,"countryCode":"UA","countryName":"Ukraine","latitude":"44.87156000","longitude":"33.85615000","wikiDataId":"Q4364755"},{"id":110280,"name":"Pobednoye","stateId":4689,"stateCode":"43","stateName":"Autonomous Republic of Crimea","countryId":230,"countryCode":"UA","countryName":"Ukraine","latitude":"45.70109000","longitude":"34.44805000","wikiDataId":"Q4366051"},{"id":110283,"name":"Pochetnoye","stateId":4689,"stateCode":"43","stateName":"Autonomous Republic of Crimea","countryId":230,"countryCode":"UA","countryName":"Ukraine","latitude":"45.99495000","longitude":"33.76588000","wikiDataId":"Q149060"},{"id":110295,"name":"Poltavka","stateId":4689,"stateCode":"43","stateName":"Autonomous Republic of Crimea","countryId":230,"countryCode":"UA","countryName":"Ukraine","latitude":"45.35133000","longitude":"34.18371000","wikiDataId":"Q997351"},{"id":110305,"name":"Poshtove","stateId":4689,"stateCode":"43","stateName":"Autonomous Republic of Crimea","countryId":230,"countryCode":"UA","countryName":"Ukraine","latitude":"44.83540000","longitude":"33.96159000","wikiDataId":"Q750499"},{"id":110307,"name":"Pozharskoye","stateId":4689,"stateCode":"43","stateName":"Autonomous Republic of Crimea","countryId":230,"countryCode":"UA","countryName":"Ukraine","latitude":"44.93554000","longitude":"33.87109000","wikiDataId":"Q4374741"},{"id":110308,"name":"Pravda","stateId":4689,"stateCode":"43","stateName":"Autonomous Republic of Crimea","countryId":230,"countryCode":"UA","countryName":"Ukraine","latitude":"45.77903000","longitude":"33.84649000","wikiDataId":"Q4374741"},{"id":110310,"name":"Primorskiy","stateId":4689,"stateCode":"43","stateName":"Autonomous Republic of Crimea","countryId":230,"countryCode":"UA","countryName":"Ukraine","latitude":"45.11904000","longitude":"35.48025000","wikiDataId":"Q4377263"},{"id":110311,"name":"Priozyornoye","stateId":4689,"stateCode":"43","stateName":"Autonomous Republic of Crimea","countryId":230,"countryCode":"UA","countryName":"Ukraine","latitude":"45.26990000","longitude":"36.33405000","wikiDataId":"Q4378947"},{"id":110312,"name":"Privetnoye","stateId":4689,"stateCode":"43","stateName":"Autonomous Republic of Crimea","countryId":230,"countryCode":"UA","countryName":"Ukraine","latitude":"45.11969000","longitude":"35.05960000","wikiDataId":"Q4378947"},{"id":110314,"name":"Prostornoye","stateId":4689,"stateCode":"43","stateName":"Autonomous Republic of Crimea","countryId":230,"countryCode":"UA","countryName":"Ukraine","latitude":"45.65597000","longitude":"34.69837000","wikiDataId":"Q4380462"},{"id":110315,"name":"Prudovoye","stateId":4689,"stateCode":"43","stateName":"Autonomous Republic of Crimea","countryId":230,"countryCode":"UA","countryName":"Ukraine","latitude":"44.90424000","longitude":"33.78114000","wikiDataId":"Q4380462"},{"id":110316,"name":"Prudy","stateId":4689,"stateCode":"43","stateName":"Autonomous Republic of Crimea","countryId":230,"countryCode":"UA","countryName":"Ukraine","latitude":"45.23922000","longitude":"34.70217000","wikiDataId":"Q4380462"},{"id":110326,"name":"Pshenichnoye","stateId":4689,"stateCode":"43","stateName":"Autonomous Republic of Crimea","countryId":230,"countryCode":"UA","countryName":"Ukraine","latitude":"45.64627000","longitude":"34.83767000","wikiDataId":"Q4379454"},{"id":110329,"name":"Pushkino","stateId":4689,"stateCode":"43","stateName":"Autonomous Republic of Crimea","countryId":230,"countryCode":"UA","countryName":"Ukraine","latitude":"45.20373000","longitude":"34.97642000","wikiDataId":"Q4379454"},{"id":110333,"name":"Pyatikhatka","stateId":4689,"stateCode":"43","stateName":"Autonomous Republic of Crimea","countryId":230,"countryCode":"UA","countryName":"Ukraine","latitude":"45.32347000","longitude":"34.25516000","wikiDataId":"Q1075057"},{"id":110348,"name":"Razdol’nenskiy rayon","stateId":4689,"stateCode":"43","stateName":"Autonomous Republic of Crimea","countryId":230,"countryCode":"UA","countryName":"Ukraine","latitude":"45.67086000","longitude":"33.44075000","wikiDataId":"Q533212"},{"id":110349,"name":"Razdol’noye","stateId":4689,"stateCode":"43","stateName":"Autonomous Republic of Crimea","countryId":230,"countryCode":"UA","countryName":"Ukraine","latitude":"45.77083000","longitude":"33.48777000","wikiDataId":"Q2506771"},{"id":110358,"name":"Rodnikovo","stateId":4689,"stateCode":"43","stateName":"Autonomous Republic of Crimea","countryId":230,"countryCode":"UA","countryName":"Ukraine","latitude":"45.04296000","longitude":"33.95407000","wikiDataId":"Q4395945"},{"id":110367,"name":"Romashkino","stateId":4689,"stateCode":"43","stateName":"Autonomous Republic of Crimea","countryId":230,"countryCode":"UA","countryName":"Ukraine","latitude":"45.25647000","longitude":"33.25517000","wikiDataId":"Q2629338"},{"id":110371,"name":"Roshchino","stateId":4689,"stateCode":"43","stateName":"Autonomous Republic of Crimea","countryId":230,"countryCode":"UA","countryName":"Ukraine","latitude":"45.60916000","longitude":"34.37992000","wikiDataId":"Q4397710"},{"id":110372,"name":"Roskoshnoye","stateId":4689,"stateCode":"43","stateName":"Autonomous Republic of Crimea","countryId":230,"countryCode":"UA","countryName":"Ukraine","latitude":"45.65187000","longitude":"34.11552000","wikiDataId":"Q4397710"},{"id":110375,"name":"Rovnoye","stateId":4689,"stateCode":"43","stateName":"Autonomous Republic of Crimea","countryId":230,"countryCode":"UA","countryName":"Ukraine","latitude":"45.35134000","longitude":"34.35230000","wikiDataId":"Q1012631"},{"id":110389,"name":"Ruch’i","stateId":4689,"stateCode":"43","stateName":"Autonomous Republic of Crimea","countryId":230,"countryCode":"UA","countryName":"Ukraine","latitude":"45.78564000","longitude":"33.66093000","wikiDataId":"Q922375"},{"id":110392,"name":"Rusakovka","stateId":4689,"stateCode":"43","stateName":"Autonomous Republic of Crimea","countryId":230,"countryCode":"UA","countryName":"Ukraine","latitude":"45.12369000","longitude":"34.47458000","wikiDataId":"Q1973639"},{"id":110395,"name":"Rybach'e","stateId":4689,"stateCode":"43","stateName":"Autonomous Republic of Crimea","countryId":230,"countryCode":"UA","countryName":"Ukraine","latitude":"44.77331000","longitude":"34.59609000","wikiDataId":"Q4401498"},{"id":110399,"name":"Sadovoye","stateId":4689,"stateCode":"43","stateName":"Autonomous Republic of Crimea","countryId":230,"countryCode":"UA","countryName":"Ukraine","latitude":"45.31037000","longitude":"34.65260000","wikiDataId":"Q71731"},{"id":110402,"name":"Saki","stateId":4689,"stateCode":"43","stateName":"Autonomous Republic of Crimea","countryId":230,"countryCode":"UA","countryName":"Ukraine","latitude":"45.13424000","longitude":"33.59996000","wikiDataId":"Q161970"},{"id":110403,"name":"Sakskiy rayon","stateId":4689,"stateCode":"43","stateName":"Autonomous Republic of Crimea","countryId":230,"countryCode":"UA","countryName":"Ukraine","latitude":"45.27799000","longitude":"33.52911000","wikiDataId":"Q2353478"},{"id":110409,"name":"Sary-Bash","stateId":4689,"stateCode":"43","stateName":"Autonomous Republic of Crimea","countryId":230,"countryCode":"UA","countryName":"Ukraine","latitude":"45.57142000","longitude":"33.78728000","wikiDataId":"Q782264"},{"id":110416,"name":"Semisotka","stateId":4689,"stateCode":"43","stateName":"Autonomous Republic of Crimea","countryId":230,"countryCode":"UA","countryName":"Ukraine","latitude":"45.24676000","longitude":"35.56500000","wikiDataId":"Q149155"},{"id":110418,"name":"Senokosnoye","stateId":4689,"stateCode":"43","stateName":"Autonomous Republic of Crimea","countryId":230,"countryCode":"UA","countryName":"Ukraine","latitude":"45.73277000","longitude":"33.51552000","wikiDataId":"Q4415528"},{"id":110421,"name":"Serebryanka","stateId":4689,"stateCode":"43","stateName":"Autonomous Republic of Crimea","countryId":230,"countryCode":"UA","countryName":"Ukraine","latitude":"45.63937000","longitude":"33.49632000","wikiDataId":"Q4417363"},{"id":110434,"name":"Shchebetovka","stateId":4689,"stateCode":"43","stateName":"Autonomous Republic of Crimea","countryId":230,"countryCode":"UA","countryName":"Ukraine","latitude":"44.93821000","longitude":"35.15800000","wikiDataId":"Q3894352"},{"id":110437,"name":"Shchyolkino","stateId":4689,"stateCode":"43","stateName":"Autonomous Republic of Crimea","countryId":230,"countryCode":"UA","countryName":"Ukraine","latitude":"45.42985000","longitude":"35.82250000","wikiDataId":"Q997522"},{"id":110439,"name":"Shelkovichnoye","stateId":4689,"stateCode":"43","stateName":"Autonomous Republic of Crimea","countryId":230,"countryCode":"UA","countryName":"Ukraine","latitude":"45.18748000","longitude":"33.68807000","wikiDataId":"Q1020441"},{"id":110446,"name":"Shirokoye","stateId":4689,"stateCode":"43","stateName":"Autonomous Republic of Crimea","countryId":230,"countryCode":"UA","countryName":"Ukraine","latitude":"45.20029000","longitude":"34.05069000","wikiDataId":"Q1002607"},{"id":110448,"name":"Shkol’noye","stateId":4689,"stateCode":"43","stateName":"Autonomous Republic of Crimea","countryId":230,"countryCode":"UA","countryName":"Ukraine","latitude":"45.05758000","longitude":"33.89737000","wikiDataId":"Q4525284"},{"id":110452,"name":"Shtormovoye","stateId":4689,"stateCode":"43","stateName":"Autonomous Republic of Crimea","countryId":230,"countryCode":"UA","countryName":"Ukraine","latitude":"45.26717000","longitude":"33.08693000","wikiDataId":"Q4526937"},{"id":110459,"name":"Simeiz","stateId":4689,"stateCode":"43","stateName":"Autonomous Republic of Crimea","countryId":230,"countryCode":"UA","countryName":"Ukraine","latitude":"44.40646000","longitude":"34.00704000","wikiDataId":"Q514390"},{"id":110461,"name":"Simferopol","stateId":4689,"stateCode":"43","stateName":"Autonomous Republic of Crimea","countryId":230,"countryCode":"UA","countryName":"Ukraine","latitude":"44.95719000","longitude":"34.11079000","wikiDataId":"Q19566"},{"id":110462,"name":"Simferopol Raion","stateId":4689,"stateCode":"43","stateName":"Autonomous Republic of Crimea","countryId":230,"countryCode":"UA","countryName":"Ukraine","latitude":"44.95690000","longitude":"34.10225000","wikiDataId":"Q2237983"},{"id":110463,"name":"Sinitsyno","stateId":4689,"stateCode":"43","stateName":"Autonomous Republic of Crimea","countryId":230,"countryCode":"UA","countryName":"Ukraine","latitude":"45.23862000","longitude":"35.24659000","wikiDataId":"Q2237983"},{"id":110465,"name":"Sizovka","stateId":4689,"stateCode":"43","stateName":"Autonomous Republic of Crimea","countryId":230,"countryCode":"UA","countryName":"Ukraine","latitude":"45.34892000","longitude":"33.87669000","wikiDataId":"Q1940853"},{"id":110469,"name":"Skalistoye","stateId":4689,"stateCode":"43","stateName":"Autonomous Republic of Crimea","countryId":230,"countryCode":"UA","countryName":"Ukraine","latitude":"44.81686000","longitude":"33.97791000","wikiDataId":"Q149159"},{"id":110473,"name":"Skvortsovo","stateId":4689,"stateCode":"43","stateName":"Autonomous Republic of Crimea","countryId":230,"countryCode":"UA","countryName":"Ukraine","latitude":"45.07542000","longitude":"33.82084000","wikiDataId":"Q913962"},{"id":110477,"name":"Slavnoye","stateId":4689,"stateCode":"43","stateName":"Autonomous Republic of Crimea","countryId":230,"countryCode":"UA","countryName":"Ukraine","latitude":"45.72176000","longitude":"33.23689000","wikiDataId":"Q4423206"},{"id":110481,"name":"Slavyanskoye","stateId":4689,"stateCode":"43","stateName":"Autonomous Republic of Crimea","countryId":230,"countryCode":"UA","countryName":"Ukraine","latitude":"45.72768000","longitude":"33.32165000","wikiDataId":"Q70231"},{"id":110497,"name":"Sofiivka","stateId":4689,"stateCode":"43","stateName":"Autonomous Republic of Crimea","countryId":230,"countryCode":"UA","countryName":"Ukraine","latitude":"45.08985000","longitude":"33.99887000","wikiDataId":"Q1035648"},{"id":110501,"name":"Sokolinoye","stateId":4689,"stateCode":"43","stateName":"Autonomous Republic of Crimea","countryId":230,"countryCode":"UA","countryName":"Ukraine","latitude":"44.55041000","longitude":"33.95897000","wikiDataId":"Q1107226"},{"id":110504,"name":"Solnechnaya Dolina","stateId":4689,"stateCode":"43","stateName":"Autonomous Republic of Crimea","countryId":230,"countryCode":"UA","countryName":"Ukraine","latitude":"44.87185000","longitude":"35.10622000","wikiDataId":"Q2399843"},{"id":110505,"name":"Solnechnogorskoye","stateId":4689,"stateCode":"43","stateName":"Autonomous Republic of Crimea","countryId":230,"countryCode":"UA","countryName":"Ukraine","latitude":"44.74722000","longitude":"34.53999000","wikiDataId":"Q4427787"},{"id":110506,"name":"Solnechnoye","stateId":4689,"stateCode":"43","stateName":"Autonomous Republic of Crimea","countryId":230,"countryCode":"UA","countryName":"Ukraine","latitude":"45.04767000","longitude":"34.08380000","wikiDataId":"Q4427787"},{"id":110517,"name":"Sovetskiy","stateId":4689,"stateCode":"43","stateName":"Autonomous Republic of Crimea","countryId":230,"countryCode":"UA","countryName":"Ukraine","latitude":"45.34267000","longitude":"34.92463000","wikiDataId":"Q1718330"},{"id":110518,"name":"Sovietskyi Raion","stateId":4689,"stateCode":"43","stateName":"Autonomous Republic of Crimea","countryId":230,"countryCode":"UA","countryName":"Ukraine","latitude":"45.31516000","longitude":"34.92914000","wikiDataId":"Q595689"},{"id":110519,"name":"Sovkhoznoye","stateId":4689,"stateCode":"43","stateName":"Autonomous Republic of Crimea","countryId":230,"countryCode":"UA","countryName":"Ukraine","latitude":"45.96005000","longitude":"33.77155000","wikiDataId":"Q595689"},{"id":110523,"name":"Stakhanovka","stateId":4689,"stateCode":"43","stateName":"Autonomous Republic of Crimea","countryId":230,"countryCode":"UA","countryName":"Ukraine","latitude":"45.37062000","longitude":"33.94883000","wikiDataId":"Q2473601"},{"id":110524,"name":"Stal’noye","stateId":4689,"stateCode":"43","stateName":"Autonomous Republic of Crimea","countryId":230,"countryCode":"UA","countryName":"Ukraine","latitude":"45.70814000","longitude":"34.56238000","wikiDataId":"Q2473601"},{"id":110536,"name":"Stary Krym","stateId":4689,"stateCode":"43","stateName":"Autonomous Republic of Crimea","countryId":230,"countryCode":"UA","countryName":"Ukraine","latitude":"45.02887000","longitude":"35.09174000","wikiDataId":"Q576937"},{"id":110549,"name":"Stepnoye","stateId":4689,"stateCode":"43","stateName":"Autonomous Republic of Crimea","countryId":230,"countryCode":"UA","countryName":"Ukraine","latitude":"45.65212000","longitude":"33.77441000","wikiDataId":"Q4441924"},{"id":110553,"name":"Stolbovoye","stateId":4689,"stateCode":"43","stateName":"Autonomous Republic of Crimea","countryId":230,"countryCode":"UA","countryName":"Ukraine","latitude":"45.36270000","longitude":"33.49584000","wikiDataId":"Q4442750"},{"id":110556,"name":"Strogonovka","stateId":4689,"stateCode":"43","stateName":"Autonomous Republic of Crimea","countryId":230,"countryCode":"UA","countryName":"Ukraine","latitude":"44.94970000","longitude":"34.17924000","wikiDataId":"Q4444081"},{"id":110560,"name":"Sudak","stateId":4689,"stateCode":"43","stateName":"Autonomous Republic of Crimea","countryId":230,"countryCode":"UA","countryName":"Ukraine","latitude":"44.84924000","longitude":"34.97471000","wikiDataId":"Q7830"},{"id":110565,"name":"Susanino","stateId":4689,"stateCode":"43","stateName":"Autonomous Republic of Crimea","countryId":230,"countryCode":"UA","countryName":"Ukraine","latitude":"45.49898000","longitude":"33.69854000","wikiDataId":"Q4446633"},{"id":110567,"name":"Suvorovo","stateId":4689,"stateCode":"43","stateName":"Autonomous Republic of Crimea","countryId":230,"countryCode":"UA","countryName":"Ukraine","latitude":"46.08865000","longitude":"33.68800000","wikiDataId":"Q1999854"},{"id":110568,"name":"Suvorovskoye","stateId":4689,"stateCode":"43","stateName":"Autonomous Republic of Crimea","countryId":230,"countryCode":"UA","countryName":"Ukraine","latitude":"45.25171000","longitude":"33.37194000","wikiDataId":"Q1999854"},{"id":110576,"name":"Svetloye","stateId":4689,"stateCode":"43","stateName":"Autonomous Republic of Crimea","countryId":230,"countryCode":"UA","countryName":"Ukraine","latitude":"45.63320000","longitude":"34.66264000","wikiDataId":"Q2493295"},{"id":110586,"name":"Tabachnoye","stateId":4689,"stateCode":"43","stateName":"Autonomous Republic of Crimea","countryId":230,"countryCode":"UA","countryName":"Ukraine","latitude":"44.90175000","longitude":"33.67638000","wikiDataId":"Q714666"},{"id":110588,"name":"Tankovoye","stateId":4689,"stateCode":"43","stateName":"Autonomous Republic of Crimea","countryId":230,"countryCode":"UA","countryName":"Ukraine","latitude":"44.65829000","longitude":"33.80929000","wikiDataId":"Q219593"},{"id":110596,"name":"Tenistoye","stateId":4689,"stateCode":"43","stateName":"Autonomous Republic of Crimea","countryId":230,"countryCode":"UA","countryName":"Ukraine","latitude":"44.74303000","longitude":"33.66812000","wikiDataId":"Q2652162"},{"id":110599,"name":"Teplovka","stateId":4689,"stateCode":"43","stateName":"Autonomous Republic of Crimea","countryId":230,"countryCode":"UA","countryName":"Ukraine","latitude":"45.03239000","longitude":"33.69588000","wikiDataId":"Q889566"},{"id":110610,"name":"Tokarevo","stateId":4689,"stateCode":"43","stateName":"Autonomous Republic of Crimea","countryId":230,"countryCode":"UA","countryName":"Ukraine","latitude":"45.28367000","longitude":"35.15244000","wikiDataId":"Q1035651"},{"id":110622,"name":"Trudovoye","stateId":4689,"stateCode":"43","stateName":"Autonomous Republic of Crimea","countryId":230,"countryCode":"UA","countryName":"Ukraine","latitude":"44.99133000","longitude":"34.20311000","wikiDataId":"Q606706"},{"id":110628,"name":"Tselinnoye","stateId":4689,"stateCode":"43","stateName":"Autonomous Republic of Crimea","countryId":230,"countryCode":"UA","countryName":"Ukraine","latitude":"45.90633000","longitude":"34.18063000","wikiDataId":"Q2991904"},{"id":110630,"name":"Tsvetochnoye","stateId":4689,"stateCode":"43","stateName":"Autonomous Republic of Crimea","countryId":230,"countryCode":"UA","countryName":"Ukraine","latitude":"45.08655000","longitude":"34.38521000","wikiDataId":"Q2603013"},{"id":110638,"name":"Turgenevka","stateId":4689,"stateCode":"43","stateName":"Autonomous Republic of Crimea","countryId":230,"countryCode":"UA","countryName":"Ukraine","latitude":"44.69747000","longitude":"33.83007000","wikiDataId":"Q2353469"},{"id":110648,"name":"Uglovoye","stateId":4689,"stateCode":"43","stateName":"Autonomous Republic of Crimea","countryId":230,"countryCode":"UA","countryName":"Ukraine","latitude":"44.82146000","longitude":"33.60452000","wikiDataId":"Q4468971"},{"id":110652,"name":"Ukrainka","stateId":4689,"stateCode":"43","stateName":"Autonomous Republic of Crimea","countryId":230,"countryCode":"UA","countryName":"Ukraine","latitude":"44.88730000","longitude":"34.13973000","wikiDataId":"Q47218"},{"id":110653,"name":"Ukromnoye","stateId":4689,"stateCode":"43","stateName":"Autonomous Republic of Crimea","countryId":230,"countryCode":"UA","countryName":"Ukraine","latitude":"45.04272000","longitude":"34.00312000","wikiDataId":"Q47218"},{"id":110658,"name":"Urozhaynoye","stateId":4689,"stateCode":"43","stateName":"Autonomous Republic of Crimea","countryId":230,"countryCode":"UA","countryName":"Ukraine","latitude":"45.04522000","longitude":"34.13511000","wikiDataId":"Q4476673"},{"id":110664,"name":"Uvarovka","stateId":4689,"stateCode":"43","stateName":"Autonomous Republic of Crimea","countryId":230,"countryCode":"UA","countryName":"Ukraine","latitude":"45.45108000","longitude":"34.78812000","wikiDataId":"Q4478919"},{"id":110665,"name":"Uvarovo","stateId":4689,"stateCode":"43","stateName":"Autonomous Republic of Crimea","countryId":230,"countryCode":"UA","countryName":"Ukraine","latitude":"45.26260000","longitude":"35.66506000","wikiDataId":"Q4478919"},{"id":110666,"name":"Uyutnoye","stateId":4689,"stateCode":"43","stateName":"Autonomous Republic of Crimea","countryId":230,"countryCode":"UA","countryName":"Ukraine","latitude":"45.19769000","longitude":"33.29796000","wikiDataId":"Q4479861"},{"id":110676,"name":"Vasilyevka","stateId":4689,"stateCode":"43","stateName":"Autonomous Republic of Crimea","countryId":230,"countryCode":"UA","countryName":"Ukraine","latitude":"45.13938000","longitude":"34.72291000","wikiDataId":"Q149054"},{"id":110703,"name":"Veresayevo","stateId":4689,"stateCode":"43","stateName":"Autonomous Republic of Crimea","countryId":230,"countryCode":"UA","countryName":"Ukraine","latitude":"45.30551000","longitude":"33.50004000","wikiDataId":"Q4107674"},{"id":110711,"name":"Verkhorechye","stateId":4689,"stateCode":"43","stateName":"Autonomous Republic of Crimea","countryId":230,"countryCode":"UA","countryName":"Ukraine","latitude":"44.69738000","longitude":"33.98696000","wikiDataId":"Q639428"},{"id":110714,"name":"Vesele","stateId":4689,"stateCode":"43","stateName":"Autonomous Republic of Crimea","countryId":230,"countryCode":"UA","countryName":"Ukraine","latitude":"44.85807000","longitude":"34.87952000","wikiDataId":"Q2064567"},{"id":110715,"name":"Veselovka","stateId":4689,"stateCode":"43","stateName":"Autonomous Republic of Crimea","countryId":230,"countryCode":"UA","countryName":"Ukraine","latitude":"45.37733000","longitude":"33.21385000","wikiDataId":"Q2064567"},{"id":110717,"name":"Vilino","stateId":4689,"stateCode":"43","stateName":"Autonomous Republic of Crimea","countryId":230,"countryCode":"UA","countryName":"Ukraine","latitude":"44.84560000","longitude":"33.67161000","wikiDataId":"Q3915403"},{"id":110721,"name":"Vinnitskoye","stateId":4689,"stateCode":"43","stateName":"Autonomous Republic of Crimea","countryId":230,"countryCode":"UA","countryName":"Ukraine","latitude":"44.98129000","longitude":"33.73920000","wikiDataId":"Q2996129"},{"id":110723,"name":"Vinogradnoye","stateId":4689,"stateCode":"43","stateName":"Autonomous Republic of Crimea","countryId":230,"countryCode":"UA","countryName":"Ukraine","latitude":"44.48149000","longitude":"34.12973000","wikiDataId":"Q157144"},{"id":110724,"name":"Vinogradovo","stateId":4689,"stateCode":"43","stateName":"Autonomous Republic of Crimea","countryId":230,"countryCode":"UA","countryName":"Ukraine","latitude":"45.39264000","longitude":"33.64668000","wikiDataId":"Q157144"},{"id":110725,"name":"Vishennoye","stateId":4689,"stateCode":"43","stateName":"Autonomous Republic of Crimea","countryId":230,"countryCode":"UA","countryName":"Ukraine","latitude":"45.14509000","longitude":"34.59691000","wikiDataId":"Q157144"},{"id":110726,"name":"Vishnyovka","stateId":4689,"stateCode":"43","stateName":"Autonomous Republic of Crimea","countryId":230,"countryCode":"UA","countryName":"Ukraine","latitude":"45.95966000","longitude":"33.95289000","wikiDataId":"Q157144"},{"id":110728,"name":"Vladimirovka","stateId":4689,"stateCode":"43","stateName":"Autonomous Republic of Crimea","countryId":230,"countryCode":"UA","countryName":"Ukraine","latitude":"45.14760000","longitude":"33.57583000","wikiDataId":"Q4110938"},{"id":110729,"name":"Vladislavovka","stateId":4689,"stateCode":"43","stateName":"Autonomous Republic of Crimea","countryId":230,"countryCode":"UA","countryName":"Ukraine","latitude":"45.16828000","longitude":"35.37658000","wikiDataId":"Q4110938"},{"id":110731,"name":"Voinka","stateId":4689,"stateCode":"43","stateName":"Autonomous Republic of Crimea","countryId":230,"countryCode":"UA","countryName":"Ukraine","latitude":"45.86990000","longitude":"33.99138000","wikiDataId":"Q4122416"},{"id":110739,"name":"Vol’noye","stateId":4689,"stateCode":"43","stateName":"Autonomous Republic of Crimea","countryId":230,"countryCode":"UA","countryName":"Ukraine","latitude":"45.56570000","longitude":"34.30360000","wikiDataId":"Q502042"},{"id":110740,"name":"Vorobyovo","stateId":4689,"stateCode":"43","stateName":"Autonomous Republic of Crimea","countryId":230,"countryCode":"UA","countryName":"Ukraine","latitude":"45.32895000","longitude":"33.24654000","wikiDataId":"Q502042"},{"id":110746,"name":"Voskhod","stateId":4689,"stateCode":"43","stateName":"Autonomous Republic of Crimea","countryId":230,"countryCode":"UA","countryName":"Ukraine","latitude":"45.50999000","longitude":"34.39355000","wikiDataId":"Q2034431"},{"id":110748,"name":"Voykovo","stateId":4689,"stateCode":"43","stateName":"Autonomous Republic of Crimea","countryId":230,"countryCode":"UA","countryName":"Ukraine","latitude":"45.38329000","longitude":"36.43739000","wikiDataId":"Q4122529"},{"id":110778,"name":"Yalta","stateId":4689,"stateCode":"43","stateName":"Autonomous Republic of Crimea","countryId":230,"countryCode":"UA","countryName":"Ukraine","latitude":"44.50218000","longitude":"34.16624000","wikiDataId":"Q128499"},{"id":110782,"name":"Yantarnoye","stateId":4689,"stateCode":"43","stateName":"Autonomous Republic of Crimea","countryId":230,"countryCode":"UA","countryName":"Ukraine","latitude":"45.43473000","longitude":"34.22134000","wikiDataId":"Q1967911"},{"id":110785,"name":"Yarkoye","stateId":4689,"stateCode":"43","stateName":"Autonomous Republic of Crimea","countryId":230,"countryCode":"UA","countryName":"Ukraine","latitude":"45.69120000","longitude":"34.26323000","wikiDataId":"Q146524"},{"id":110786,"name":"Yarkoye Pole","stateId":4689,"stateCode":"43","stateName":"Autonomous Republic of Crimea","countryId":230,"countryCode":"UA","countryName":"Ukraine","latitude":"45.20581000","longitude":"35.19848000","wikiDataId":"Q146524"},{"id":110789,"name":"Yasnopolyanskoye","stateId":4689,"stateCode":"43","stateName":"Autonomous Republic of Crimea","countryId":230,"countryCode":"UA","countryName":"Ukraine","latitude":"45.94097000","longitude":"34.35262000","wikiDataId":"Q1093421"},{"id":110794,"name":"Yemelyanovka","stateId":4689,"stateCode":"43","stateName":"Autonomous Republic of Crimea","countryId":230,"countryCode":"UA","countryName":"Ukraine","latitude":"45.53287000","longitude":"34.89624000","wikiDataId":"Q4174790"},{"id":110798,"name":"Yermakovo","stateId":4689,"stateCode":"43","stateName":"Autonomous Republic of Crimea","countryId":230,"countryCode":"UA","countryName":"Ukraine","latitude":"45.85364000","longitude":"34.48644000","wikiDataId":"Q2022712"},{"id":110800,"name":"Yevpatoriya","stateId":4689,"stateCode":"43","stateName":"Autonomous Republic of Crimea","countryId":230,"countryCode":"UA","countryName":"Ukraine","latitude":"45.20091000","longitude":"33.36655000","wikiDataId":"Q33345"},{"id":110813,"name":"Zalesye","stateId":4689,"stateCode":"43","stateName":"Autonomous Republic of Crimea","countryId":230,"countryCode":"UA","countryName":"Ukraine","latitude":"44.88687000","longitude":"34.10168000","wikiDataId":"Q4185199"},{"id":110819,"name":"Zaozyornoye","stateId":4689,"stateCode":"43","stateName":"Autonomous Republic of Crimea","countryId":230,"countryCode":"UA","countryName":"Ukraine","latitude":"45.15816000","longitude":"33.27866000","wikiDataId":"Q3889732"},{"id":110822,"name":"Zarechnoye","stateId":4689,"stateCode":"43","stateName":"Autonomous Republic of Crimea","countryId":230,"countryCode":"UA","countryName":"Ukraine","latitude":"44.85048000","longitude":"34.26426000","wikiDataId":"Q1654125"},{"id":110829,"name":"Zavet-Leninskiy","stateId":4689,"stateCode":"43","stateName":"Autonomous Republic of Crimea","countryId":230,"countryCode":"UA","countryName":"Ukraine","latitude":"45.86258000","longitude":"34.39160000","wikiDataId":"Q4182902"},{"id":110830,"name":"Zavetnoye","stateId":4689,"stateCode":"43","stateName":"Autonomous Republic of Crimea","countryId":230,"countryCode":"UA","countryName":"Ukraine","latitude":"45.32697000","longitude":"34.80837000","wikiDataId":"Q4182902"},{"id":110835,"name":"Zelenogorskoye","stateId":4689,"stateCode":"43","stateName":"Autonomous Republic of Crimea","countryId":230,"countryCode":"UA","countryName":"Ukraine","latitude":"45.01249000","longitude":"34.46848000","wikiDataId":"Q4189998"},{"id":110836,"name":"Zelyonoye","stateId":4689,"stateCode":"43","stateName":"Autonomous Republic of Crimea","countryId":230,"countryCode":"UA","countryName":"Ukraine","latitude":"44.59583000","longitude":"34.00921000","wikiDataId":"Q4189998"},{"id":110837,"name":"Zemlyanichnoye","stateId":4689,"stateCode":"43","stateName":"Autonomous Republic of Crimea","countryId":230,"countryCode":"UA","countryName":"Ukraine","latitude":"44.97444000","longitude":"34.83553000","wikiDataId":"Q4189998"},{"id":110838,"name":"Zernovoye","stateId":4689,"stateCode":"43","stateName":"Autonomous Republic of Crimea","countryId":230,"countryCode":"UA","countryName":"Ukraine","latitude":"45.32364000","longitude":"34.48099000","wikiDataId":"Q4189998"},{"id":110841,"name":"Zheleznodorozhnoye","stateId":4689,"stateCode":"43","stateName":"Autonomous Republic of Crimea","countryId":230,"countryCode":"UA","countryName":"Ukraine","latitude":"44.71710000","longitude":"33.80417000","wikiDataId":"Q219770"},{"id":110842,"name":"Zhelyabovka","stateId":4689,"stateCode":"43","stateName":"Autonomous Republic of Crimea","countryId":230,"countryCode":"UA","countryName":"Ukraine","latitude":"45.39877000","longitude":"34.75776000","wikiDataId":"Q4179237"},{"id":110843,"name":"Zhemchuzhina","stateId":4689,"stateCode":"43","stateName":"Autonomous Republic of Crimea","countryId":230,"countryCode":"UA","countryName":"Ukraine","latitude":"45.27466000","longitude":"34.65778000","wikiDataId":"Q4179237"},{"id":110848,"name":"Zhuravki","stateId":4689,"stateCode":"43","stateName":"Autonomous Republic of Crimea","countryId":230,"countryCode":"UA","countryName":"Ukraine","latitude":"45.12629000","longitude":"35.21513000","wikiDataId":"Q4181679"},{"id":110849,"name":"Zhuravli","stateId":4689,"stateCode":"43","stateName":"Autonomous Republic of Crimea","countryId":230,"countryCode":"UA","countryName":"Ukraine","latitude":"45.25246000","longitude":"33.64104000","wikiDataId":"Q4181679"},{"id":110850,"name":"Zhuravlyovka","stateId":4689,"stateCode":"43","stateName":"Autonomous Republic of Crimea","countryId":230,"countryCode":"UA","countryName":"Ukraine","latitude":"45.17680000","longitude":"33.99680000","wikiDataId":"Q4181679"},{"id":110855,"name":"Zimino","stateId":4689,"stateCode":"43","stateName":"Autonomous Republic of Crimea","countryId":230,"countryCode":"UA","countryName":"Ukraine","latitude":"45.50797000","longitude":"33.51431000","wikiDataId":"Q2620750"},{"id":110862,"name":"Zolotoye Pole","stateId":4689,"stateCode":"43","stateName":"Autonomous Republic of Crimea","countryId":230,"countryCode":"UA","countryName":"Ukraine","latitude":"45.12774000","longitude":"34.99148000","wikiDataId":"Q219769"},{"id":110864,"name":"Zorkino","stateId":4689,"stateCode":"43","stateName":"Autonomous Republic of Crimea","countryId":230,"countryCode":"UA","countryName":"Ukraine","latitude":"45.54762000","longitude":"34.71028000","wikiDataId":"Q2602963"},{"id":110868,"name":"Zuya","stateId":4689,"stateCode":"43","stateName":"Autonomous Republic of Crimea","countryId":230,"countryCode":"UA","countryName":"Ukraine","latitude":"45.05418000","longitude":"34.32152000","wikiDataId":"Q2562216"},{"id":110870,"name":"Zybiny","stateId":4689,"stateCode":"43","stateName":"Autonomous Republic of Crimea","countryId":230,"countryCode":"UA","countryName":"Ukraine","latitude":"45.23674000","longitude":"34.64987000","wikiDataId":"Q219836"}]