[{"id":105212,"name":"Amphoe Ban Pho","stateId":3552,"stateCode":"24","stateName":"Chachoengsao","countryId":219,"countryCode":"TH","countryName":"Thailand","latitude":"13.61000000","longitude":"101.07838000","wikiDataId":"Q475156"},{"id":105226,"name":"Amphoe Bang Khla","stateId":3552,"stateCode":"24","stateName":"Chachoengsao","countryId":219,"countryCode":"TH","countryName":"Thailand","latitude":"13.74186000","longitude":"101.20754000","wikiDataId":"Q475201"},{"id":105233,"name":"Amphoe Bang Nam Priao","stateId":3552,"stateCode":"24","stateName":"Chachoengsao","countryId":219,"countryCode":"TH","countryName":"Thailand","latitude":"13.88034000","longitude":"101.03232000","wikiDataId":"Q475222"},{"id":105236,"name":"Amphoe Bang Pakong","stateId":3552,"stateCode":"24","stateName":"Chachoengsao","countryId":219,"countryCode":"TH","countryName":"Thailand","latitude":"13.53241000","longitude":"100.96045000","wikiDataId":"Q475231"},{"id":105408,"name":"Amphoe Khlong Khuean","stateId":3552,"stateCode":"24","stateName":"Chachoengsao","countryId":219,"countryCode":"TH","countryName":"Thailand","latitude":"13.77961000","longitude":"101.15633000","wikiDataId":"Q475702"},{"id":105535,"name":"Amphoe Mueang Chachoengsao","stateId":3552,"stateCode":"24","stateName":"Chachoengsao","countryId":219,"countryCode":"TH","countryName":"Thailand","latitude":"13.71758000","longitude":"101.02152000","wikiDataId":"Q1935487"},{"id":105729,"name":"Amphoe Phanom Sarakham","stateId":3552,"stateCode":"24","stateName":"Chachoengsao","countryId":219,"countryCode":"TH","countryName":"Thailand","latitude":"13.73806000","longitude":"101.41202000","wikiDataId":"Q476379"},{"id":105788,"name":"Amphoe Plaeng Yao","stateId":3552,"stateCode":"24","stateName":"Chachoengsao","countryId":219,"countryCode":"TH","countryName":"Thailand","latitude":"13.56381000","longitude":"101.33972000","wikiDataId":"Q476508"},{"id":105806,"name":"Amphoe Ratchasan","stateId":3552,"stateCode":"24","stateName":"Chachoengsao","countryId":219,"countryCode":"TH","countryName":"Thailand","latitude":"13.78660000","longitude":"101.28136000","wikiDataId":"Q476556"},{"id":106185,"name":"Amphoe Sanam Chai Khet","stateId":3552,"stateCode":"24","stateName":"Chachoengsao","countryId":219,"countryCode":"TH","countryName":"Thailand","latitude":"13.62612000","longitude":"101.65475000","wikiDataId":"Q476628"},{"id":106286,"name":"Amphoe Tha Takiap","stateId":3552,"stateCode":"24","stateName":"Chachoengsao","countryId":219,"countryCode":"TH","countryName":"Thailand","latitude":"13.39510000","longitude":"101.73457000","wikiDataId":"Q476858"},{"id":106427,"name":"Bang Khla","stateId":3552,"stateCode":"24","stateName":"Chachoengsao","countryId":219,"countryCode":"TH","countryName":"Thailand","latitude":"13.72144000","longitude":"101.20814000","wikiDataId":"Q15980674"},{"id":106437,"name":"Bang Nam Priao","stateId":3552,"stateCode":"24","stateName":"Chachoengsao","countryId":219,"countryCode":"TH","countryName":"Thailand","latitude":"13.84739000","longitude":"101.05306000","wikiDataId":"Q28735472"},{"id":106439,"name":"Bang Pakong","stateId":3552,"stateCode":"24","stateName":"Chachoengsao","countryId":219,"countryCode":"TH","countryName":"Thailand","latitude":"13.54297000","longitude":"100.99333000","wikiDataId":"Q28735471"},{"id":106460,"name":"Chachoengsao","stateId":3552,"stateCode":"24","stateName":"Chachoengsao","countryId":219,"countryCode":"TH","countryName":"Thailand","latitude":"13.68820000","longitude":"101.07156000","wikiDataId":"Q1026368"},{"id":106523,"name":"Khlong Khuean","stateId":3552,"stateCode":"24","stateName":"Chachoengsao","countryId":219,"countryCode":"TH","countryName":"Thailand","latitude":"13.79131000","longitude":"101.16353000","wikiDataId":"Q13025313"},{"id":106623,"name":"Phanom Sarakham","stateId":3552,"stateCode":"24","stateName":"Chachoengsao","countryId":219,"countryCode":"TH","countryName":"Thailand","latitude":"13.74872000","longitude":"101.34888000","wikiDataId":"Q28735477"}]