[{"id":62322,"name":"Askenish","stateId":3749,"stateCode":"09","stateName":"Hanover Parish","countryId":108,"countryCode":"JM","countryName":"Jamaica","latitude":"18.38492000","longitude":"-78.14910000","wikiDataId":"Q567350"},{"id":62409,"name":"Cacoon","stateId":3749,"stateCode":"09","stateName":"Hanover Parish","countryId":108,"countryCode":"JM","countryName":"Jamaica","latitude":"18.41642000","longitude":"-78.20730000","wikiDataId":"Q1001895"},{"id":62410,"name":"Cacoon Castle","stateId":3749,"stateCode":"09","stateName":"Hanover Parish","countryId":108,"countryCode":"JM","countryName":"Jamaica","latitude":"18.40247000","longitude":"-78.01336000","wikiDataId":"Q1001895"},{"id":62422,"name":"Cascade","stateId":3749,"stateCode":"09","stateName":"Hanover Parish","countryId":108,"countryCode":"JM","countryName":"Jamaica","latitude":"18.39747000","longitude":"-78.10337000","wikiDataId":"Q1001895"},{"id":62425,"name":"Cash Hill","stateId":3749,"stateCode":"09","stateName":"Hanover Parish","countryId":108,"countryCode":"JM","countryName":"Jamaica","latitude":"18.36920000","longitude":"-78.10938000","wikiDataId":"Q1001895"},{"id":62432,"name":"Cauldwell","stateId":3749,"stateCode":"09","stateName":"Hanover Parish","countryId":108,"countryCode":"JM","countryName":"Jamaica","latitude":"18.38583000","longitude":"-78.24110000","wikiDataId":"Q1001895"},{"id":62443,"name":"Chambers Pen","stateId":3749,"stateCode":"09","stateName":"Hanover Parish","countryId":108,"countryCode":"JM","countryName":"Jamaica","latitude":"18.40520000","longitude":"-78.15975000","wikiDataId":"Q1001895"},{"id":62452,"name":"Chester Castle","stateId":3749,"stateCode":"09","stateName":"Hanover Parish","countryId":108,"countryCode":"JM","countryName":"Jamaica","latitude":"18.33822000","longitude":"-77.94722000","wikiDataId":"Q5073143"},{"id":62479,"name":"Copse","stateId":3749,"stateCode":"09","stateName":"Hanover Parish","countryId":108,"countryCode":"JM","countryName":"Jamaica","latitude":"18.39466000","longitude":"-77.97678000","wikiDataId":"Q1127696"},{"id":62484,"name":"Cousins Cove","stateId":3749,"stateCode":"09","stateName":"Hanover Parish","countryId":108,"countryCode":"JM","countryName":"Jamaica","latitude":"18.42425000","longitude":"-78.23752000","wikiDataId":"Q1127696"},{"id":62512,"name":"Dias","stateId":3749,"stateCode":"09","stateName":"Hanover Parish","countryId":108,"countryCode":"JM","countryName":"Jamaica","latitude":"18.39379000","longitude":"-78.18562000","wikiDataId":"Q1166379"},{"id":62608,"name":"Great Valley","stateId":3749,"stateCode":"09","stateName":"Hanover Parish","countryId":108,"countryCode":"JM","countryName":"Jamaica","latitude":"18.41169000","longitude":"-78.05023000","wikiDataId":"Q1394786"},{"id":62610,"name":"Green Island","stateId":3749,"stateCode":"09","stateName":"Hanover Parish","countryId":108,"countryCode":"JM","countryName":"Jamaica","latitude":"18.38399000","longitude":"-78.27015000","wikiDataId":"Q1394786"},{"id":62620,"name":"Haddington","stateId":3749,"stateCode":"09","stateName":"Hanover Parish","countryId":108,"countryCode":"JM","countryName":"Jamaica","latitude":"18.42043000","longitude":"-78.00383000","wikiDataId":"Q1394786"},{"id":62657,"name":"Hopewell","stateId":3749,"stateCode":"09","stateName":"Hanover Parish","countryId":108,"countryCode":"JM","countryName":"Jamaica","latitude":"18.44321000","longitude":"-78.02636000","wikiDataId":"Q1008008"},{"id":62672,"name":"Jericho","stateId":3749,"stateCode":"09","stateName":"Hanover Parish","countryId":108,"countryCode":"JM","countryName":"Jamaica","latitude":"18.43744000","longitude":"-78.13028000","wikiDataId":"Q1008008"},{"id":62685,"name":"Kendal","stateId":3749,"stateCode":"09","stateName":"Hanover Parish","countryId":108,"countryCode":"JM","countryName":"Jamaica","latitude":"18.36287000","longitude":"-78.22720000","wikiDataId":"Q1008008"},{"id":62693,"name":"Kingsvale","stateId":3749,"stateCode":"09","stateName":"Hanover Parish","countryId":108,"countryCode":"JM","countryName":"Jamaica","latitude":"18.38087000","longitude":"-78.20523000","wikiDataId":"Q34692"},{"id":62702,"name":"Lances Bay","stateId":3749,"stateCode":"09","stateName":"Hanover Parish","countryId":108,"countryCode":"JM","countryName":"Jamaica","latitude":"18.43819000","longitude":"-78.21442000","wikiDataId":"Q34692"},{"id":62723,"name":"Logwood","stateId":3749,"stateCode":"09","stateName":"Hanover Parish","countryId":108,"countryCode":"JM","countryName":"Jamaica","latitude":"18.34878000","longitude":"-78.29620000","wikiDataId":"Q1827268"},{"id":62731,"name":"Lucea","stateId":3749,"stateCode":"09","stateName":"Hanover Parish","countryId":108,"countryCode":"JM","countryName":"Jamaica","latitude":"18.45095000","longitude":"-78.17356000","wikiDataId":"Q1632220"},{"id":62732,"name":"Lucea East","stateId":3749,"stateCode":"09","stateName":"Hanover Parish","countryId":108,"countryCode":"JM","countryName":"Jamaica","latitude":"18.42198000","longitude":"-78.16675000","wikiDataId":"Q1632220"},{"id":62733,"name":"Lucea West","stateId":3749,"stateCode":"09","stateName":"Hanover Parish","countryId":108,"countryCode":"JM","countryName":"Jamaica","latitude":"18.44238000","longitude":"-78.18663000","wikiDataId":"Q1632220"},{"id":62752,"name":"March Town","stateId":3749,"stateCode":"09","stateName":"Hanover Parish","countryId":108,"countryCode":"JM","countryName":"Jamaica","latitude":"18.32951000","longitude":"-78.27656000","wikiDataId":"Q1807660"},{"id":62758,"name":"Maryland","stateId":3749,"stateCode":"09","stateName":"Hanover Parish","countryId":108,"countryCode":"JM","countryName":"Jamaica","latitude":"18.38679000","longitude":"-78.12825000","wikiDataId":"Q1807660"},{"id":62799,"name":"Mount Peto","stateId":3749,"stateCode":"09","stateName":"Hanover Parish","countryId":108,"countryCode":"JM","countryName":"Jamaica","latitude":"18.35747000","longitude":"-78.02289000","wikiDataId":"Q429741"},{"id":62844,"name":"Orange Bay","stateId":3749,"stateCode":"09","stateName":"Hanover Parish","countryId":108,"countryCode":"JM","countryName":"Jamaica","latitude":"18.34266000","longitude":"-78.32005000","wikiDataId":"Q7099213"},{"id":62873,"name":"Pell River","stateId":3749,"stateCode":"09","stateName":"Hanover Parish","countryId":108,"countryCode":"JM","countryName":"Jamaica","latitude":"18.37886000","longitude":"-78.21904000","wikiDataId":"Q7099213"},{"id":62890,"name":"Pondside","stateId":3749,"stateCode":"09","stateName":"Hanover Parish","countryId":108,"countryCode":"JM","countryName":"Jamaica","latitude":"18.40222000","longitude":"-78.07344000","wikiDataId":"Q7099213"},{"id":62913,"name":"Ramble","stateId":3749,"stateCode":"09","stateName":"Hanover Parish","countryId":108,"countryCode":"JM","countryName":"Jamaica","latitude":"18.34674000","longitude":"-77.98802000","wikiDataId":"Q2125159"},{"id":62945,"name":"Rock Spring","stateId":3749,"stateCode":"09","stateName":"Hanover Parish","countryId":108,"countryCode":"JM","countryName":"Jamaica","latitude":"18.34797000","longitude":"-78.24392000","wikiDataId":"Q2125159"},{"id":62968,"name":"Sandy Bay","stateId":3749,"stateCode":"09","stateName":"Hanover Parish","countryId":108,"countryCode":"JM","countryName":"Jamaica","latitude":"18.43750000","longitude":"-78.08383000","wikiDataId":"Q630692"},{"id":62972,"name":"Santoy","stateId":3749,"stateCode":"09","stateName":"Hanover Parish","countryId":108,"countryCode":"JM","countryName":"Jamaica","latitude":"18.35875000","longitude":"-78.28386000","wikiDataId":"Q2222888"},{"id":63038,"name":"Success","stateId":3749,"stateCode":"09","stateName":"Hanover Parish","countryId":108,"countryCode":"JM","countryName":"Jamaica","latitude":"18.37729000","longitude":"-78.05105000","wikiDataId":"Q1651059"},{"id":63120,"name":"Woodlands","stateId":3749,"stateCode":"09","stateName":"Hanover Parish","countryId":108,"countryCode":"JM","countryName":"Jamaica","latitude":"18.44555000","longitude":"-77.99963000","wikiDataId":"Q1651059"},{"id":63123,"name":"Woodsville","stateId":3749,"stateCode":"09","stateName":"Hanover Parish","countryId":108,"countryCode":"JM","countryName":"Jamaica","latitude":"18.36950000","longitude":"-78.07217000","wikiDataId":"Q1651059"}]