[{"id":90438,"name":"Bâcleș","stateId":4751,"stateCode":"MH","stateName":"Mehedinți County","countryId":181,"countryCode":"RO","countryName":"Romania","latitude":"44.48333000","longitude":"23.13333000","wikiDataId":"Q1846565"},{"id":90031,"name":"Baia de Aramă","stateId":4751,"stateCode":"MH","stateName":"Mehedinți County","countryId":181,"countryCode":"RO","countryName":"Romania","latitude":"44.99929000","longitude":"22.80784000","wikiDataId":"Q16898407"},{"id":90036,"name":"Bala","stateId":4751,"stateCode":"MH","stateName":"Mehedinți County","countryId":181,"countryCode":"RO","countryName":"Romania","latitude":"44.88389000","longitude":"22.83333000","wikiDataId":"Q932323"},{"id":90523,"name":"Bălăciţa","stateId":4751,"stateCode":"MH","stateName":"Mehedinți County","countryId":181,"countryCode":"RO","countryName":"Romania","latitude":"44.38333000","longitude":"23.13333000","wikiDataId":"Q283479"},{"id":90046,"name":"Balta","stateId":4751,"stateCode":"MH","stateName":"Mehedinți County","countryId":181,"countryCode":"RO","countryName":"Romania","latitude":"44.88694000","longitude":"22.63694000","wikiDataId":"Q6275173"},{"id":90049,"name":"Balta Verde","stateId":4751,"stateCode":"MH","stateName":"Mehedinți County","countryId":181,"countryCode":"RO","countryName":"Romania","latitude":"44.34411000","longitude":"22.59878000","wikiDataId":"Q12080693"},{"id":90444,"name":"Bâlvăneşti","stateId":4751,"stateCode":"MH","stateName":"Mehedinți County","countryId":181,"countryCode":"RO","countryName":"Romania","latitude":"44.79750000","longitude":"22.68028000","wikiDataId":"Q2258398"},{"id":90149,"name":"Bistrița","stateId":4751,"stateCode":"MH","stateName":"Mehedinți County","countryId":181,"countryCode":"RO","countryName":"Romania","latitude":"44.58511000","longitude":"22.78762000","wikiDataId":"Q12087028"},{"id":90272,"name":"Braniștea","stateId":4751,"stateCode":"MH","stateName":"Mehedinți County","countryId":181,"countryCode":"RO","countryName":"Romania","latitude":"44.24201000","longitude":"22.97354000","wikiDataId":"Q2091745"},{"id":90299,"name":"Brezniţa Ocol","stateId":4751,"stateCode":"MH","stateName":"Mehedinți County","countryId":181,"countryCode":"RO","countryName":"Romania","latitude":"44.66667000","longitude":"22.61833000","wikiDataId":"Q2605902"},{"id":90300,"name":"Brezniţa-Motru","stateId":4751,"stateCode":"MH","stateName":"Mehedinți County","countryId":181,"countryCode":"RO","countryName":"Romania","latitude":"44.56667000","longitude":"23.21667000","wikiDataId":"Q2465539"},{"id":90310,"name":"Broşteni","stateId":4751,"stateCode":"MH","stateName":"Mehedinți County","countryId":181,"countryCode":"RO","countryName":"Romania","latitude":"44.76083000","longitude":"22.97944000","wikiDataId":"Q275649"},{"id":90417,"name":"Burila Mare","stateId":4751,"stateCode":"MH","stateName":"Mehedinți County","countryId":181,"countryCode":"RO","countryName":"Romania","latitude":"44.45278000","longitude":"22.57361000","wikiDataId":"Q2465449"},{"id":90428,"name":"Butoieşti","stateId":4751,"stateCode":"MH","stateName":"Mehedinți County","countryId":181,"countryCode":"RO","countryName":"Romania","latitude":"44.58333000","longitude":"23.36667000","wikiDataId":"Q1861214"},{"id":93883,"name":"Căzăneşti","stateId":4751,"stateCode":"MH","stateName":"Mehedinți County","countryId":181,"countryCode":"RO","countryName":"Romania","latitude":"44.72333000","longitude":"22.89056000","wikiDataId":"Q1865646"},{"id":90634,"name":"Cerneți","stateId":4751,"stateCode":"MH","stateName":"Mehedinți County","countryId":181,"countryCode":"RO","countryName":"Romania","latitude":"44.63476000","longitude":"22.70931000","wikiDataId":"Q12169894"},{"id":90708,"name":"Ciochiuța","stateId":4751,"stateCode":"MH","stateName":"Mehedinți County","countryId":181,"countryCode":"RO","countryName":"Romania","latitude":"44.60306000","longitude":"23.11698000","wikiDataId":"Q12724641"},{"id":90725,"name":"Cioroboreni","stateId":4751,"stateCode":"MH","stateName":"Mehedinți County","countryId":181,"countryCode":"RO","countryName":"Romania","latitude":"44.38877000","longitude":"22.76326000","wikiDataId":"Q12170627"},{"id":90732,"name":"Cireşu","stateId":4751,"stateCode":"MH","stateName":"Mehedinți County","countryId":181,"countryCode":"RO","countryName":"Romania","latitude":"44.82333000","longitude":"22.53806000","wikiDataId":"Q371856"},{"id":90808,"name":"Comanda","stateId":4751,"stateCode":"MH","stateName":"Mehedinți County","countryId":181,"countryCode":"RO","countryName":"Romania","latitude":"44.64863000","longitude":"23.16413000","wikiDataId":"Q12111904"},{"id":91181,"name":"Comuna Bâcleş","stateId":4751,"stateCode":"MH","stateName":"Mehedinți County","countryId":181,"countryCode":"RO","countryName":"Romania","latitude":"44.48031000","longitude":"23.12207000","wikiDataId":"Q16426903"},{"id":90920,"name":"Comuna Bala","stateId":4751,"stateCode":"MH","stateName":"Mehedinți County","countryId":181,"countryCode":"RO","countryName":"Romania","latitude":"44.89479000","longitude":"22.83235000","wikiDataId":"Q12724528"},{"id":91224,"name":"Comuna Bălăciţa","stateId":4751,"stateCode":"MH","stateName":"Mehedinți County","countryId":181,"countryCode":"RO","countryName":"Romania","latitude":"44.39040000","longitude":"23.12095000","wikiDataId":"Q16426900"},{"id":90928,"name":"Comuna Balta","stateId":4751,"stateCode":"MH","stateName":"Mehedinți County","countryId":181,"countryCode":"RO","countryName":"Romania","latitude":"44.90652000","longitude":"22.61789000","wikiDataId":"Q2605922"},{"id":91183,"name":"Comuna Bâlvăneşti","stateId":4751,"stateCode":"MH","stateName":"Mehedinți County","countryId":181,"countryCode":"RO","countryName":"Romania","latitude":"44.79756000","longitude":"22.68313000","wikiDataId":"Q16426906"},{"id":91080,"name":"Comuna Braniştea","stateId":4751,"stateCode":"MH","stateName":"Mehedinți County","countryId":181,"countryCode":"RO","countryName":"Romania","latitude":"44.23768000","longitude":"22.96793000","wikiDataId":"Q2923825"},{"id":91097,"name":"Comuna Brezniţa Ocol","stateId":4751,"stateCode":"MH","stateName":"Mehedinți County","countryId":181,"countryCode":"RO","countryName":"Romania","latitude":"44.69266000","longitude":"22.60992000","wikiDataId":"Q12724581"},{"id":91098,"name":"Comuna Brezniţa-Motru","stateId":4751,"stateCode":"MH","stateName":"Mehedinți County","countryId":181,"countryCode":"RO","countryName":"Romania","latitude":"44.55668000","longitude":"23.24187000","wikiDataId":"Q12724580"},{"id":91103,"name":"Comuna Broşteni","stateId":4751,"stateCode":"MH","stateName":"Mehedinți County","countryId":181,"countryCode":"RO","countryName":"Romania","latitude":"44.74698000","longitude":"22.99083000","wikiDataId":"Q12724579"},{"id":91169,"name":"Comuna Burila Mare","stateId":4751,"stateCode":"MH","stateName":"Mehedinți County","countryId":181,"countryCode":"RO","countryName":"Romania","latitude":"44.47835000","longitude":"22.54915000","wikiDataId":"Q12724599"},{"id":91176,"name":"Comuna Butoieşti","stateId":4751,"stateCode":"MH","stateName":"Mehedinți County","countryId":181,"countryCode":"RO","countryName":"Romania","latitude":"44.57037000","longitude":"23.37587000","wikiDataId":"Q16426911"},{"id":91597,"name":"Comuna Căzăneşti","stateId":4751,"stateCode":"MH","stateName":"Mehedinți County","countryId":181,"countryCode":"RO","countryName":"Romania","latitude":"44.70475000","longitude":"22.90575000","wikiDataId":"Q16439816"},{"id":91360,"name":"Comuna Cireşu","stateId":4751,"stateCode":"MH","stateName":"Mehedinți County","countryId":181,"countryCode":"RO","countryName":"Romania","latitude":"44.81995000","longitude":"22.54058000","wikiDataId":"Q2974190"},{"id":91431,"name":"Comuna Corcova","stateId":4751,"stateCode":"MH","stateName":"Mehedinți County","countryId":181,"countryCode":"RO","countryName":"Romania","latitude":"44.67794000","longitude":"23.07843000","wikiDataId":"Q12724663"},{"id":91434,"name":"Comuna Corlăţel","stateId":4751,"stateCode":"MH","stateName":"Mehedinți County","countryId":181,"countryCode":"RO","countryName":"Romania","latitude":"44.38101000","longitude":"22.92847000","wikiDataId":"Q12724667"},{"id":91522,"name":"Comuna Cujmir","stateId":4751,"stateCode":"MH","stateName":"Mehedinți County","countryId":181,"countryCode":"RO","countryName":"Romania","latitude":"44.19723000","longitude":"22.93125000","wikiDataId":"Q12724687"},{"id":91730,"name":"Comuna Dârvari","stateId":4751,"stateCode":"MH","stateName":"Mehedinți County","countryId":181,"countryCode":"RO","countryName":"Romania","latitude":"44.18184000","longitude":"23.06648000","wikiDataId":"Q16426932"},{"id":91619,"name":"Comuna Devesel","stateId":4751,"stateCode":"MH","stateName":"Mehedinți County","countryId":181,"countryCode":"RO","countryName":"Romania","latitude":"44.48787000","longitude":"22.67669000","wikiDataId":"Q16426923"},{"id":91704,"name":"Comuna Dubova","stateId":4751,"stateCode":"MH","stateName":"Mehedinți County","countryId":181,"countryCode":"RO","countryName":"Romania","latitude":"44.57284000","longitude":"22.18226000","wikiDataId":"Q12724751"},{"id":91712,"name":"Comuna Dumbrava","stateId":4751,"stateCode":"MH","stateName":"Mehedinți County","countryId":181,"countryCode":"RO","countryName":"Romania","latitude":"44.52117000","longitude":"23.13564000","wikiDataId":"Q2605524"},{"id":91752,"name":"Comuna Eşelniţa","stateId":4751,"stateCode":"MH","stateName":"Mehedinți County","countryId":181,"countryCode":"RO","countryName":"Romania","latitude":"44.69905000","longitude":"22.36577000","wikiDataId":"Q16426938"},{"id":91772,"name":"Comuna Floreşti","stateId":4751,"stateCode":"MH","stateName":"Mehedinți County","countryId":181,"countryCode":"RO","countryName":"Romania","latitude":"44.79545000","longitude":"22.90986000","wikiDataId":"Q12724766"},{"id":91973,"name":"Comuna Gârla Mare","stateId":4751,"stateCode":"MH","stateName":"Mehedinți County","countryId":181,"countryCode":"RO","countryName":"Romania","latitude":"44.21087000","longitude":"22.77696000","wikiDataId":"Q12724833"},{"id":91887,"name":"Comuna Godeanu","stateId":4751,"stateCode":"MH","stateName":"Mehedinți County","countryId":181,"countryCode":"RO","countryName":"Romania","latitude":"44.80808000","longitude":"22.60870000","wikiDataId":"Q2465460"},{"id":91892,"name":"Comuna Gogoşu","stateId":4751,"stateCode":"MH","stateName":"Mehedinți County","countryId":181,"countryCode":"RO","countryName":"Romania","latitude":"44.37930000","longitude":"22.57357000","wikiDataId":"Q16426942"},{"id":91916,"name":"Comuna Greci","stateId":4751,"stateCode":"MH","stateName":"Mehedinți County","countryId":181,"countryCode":"RO","countryName":"Romania","latitude":"44.57162000","longitude":"23.10745000","wikiDataId":"Q16426944"},{"id":91926,"name":"Comuna Grozeşti","stateId":4751,"stateCode":"MH","stateName":"Mehedinți County","countryId":181,"countryCode":"RO","countryName":"Romania","latitude":"44.63649000","longitude":"23.33206000","wikiDataId":"Q12724819"},{"id":91930,"name":"Comuna Gruia","stateId":4751,"stateCode":"MH","stateName":"Mehedinți County","countryId":181,"countryCode":"RO","countryName":"Romania","latitude":"44.28593000","longitude":"22.72949000","wikiDataId":"Q12724820"},{"id":92002,"name":"Comuna Hinova","stateId":4751,"stateCode":"MH","stateName":"Mehedinți County","countryId":181,"countryCode":"RO","countryName":"Romania","latitude":"44.54565000","longitude":"22.77675000","wikiDataId":"Q12724844"},{"id":92031,"name":"Comuna Husnicioara","stateId":4751,"stateCode":"MH","stateName":"Mehedinți County","countryId":181,"countryCode":"RO","countryName":"Romania","latitude":"44.66283000","longitude":"22.83939000","wikiDataId":"Q2335259"},{"id":92074,"name":"Comuna Ilovăt","stateId":4751,"stateCode":"MH","stateName":"Mehedinți County","countryId":181,"countryCode":"RO","countryName":"Romania","latitude":"44.81543000","longitude":"22.73749000","wikiDataId":"Q12724877"},{"id":92073,"name":"Comuna Iloviţa","stateId":4751,"stateCode":"MH","stateName":"Mehedinți County","countryId":181,"countryCode":"RO","countryName":"Romania","latitude":"44.78026000","longitude":"22.49234000","wikiDataId":"Q12724874"},{"id":92095,"name":"Comuna Isverna","stateId":4751,"stateCode":"MH","stateName":"Mehedinți County","countryId":181,"countryCode":"RO","countryName":"Romania","latitude":"44.96572000","longitude":"22.67037000","wikiDataId":"Q16426950"},{"id":92111,"name":"Comuna Izvoru Bârzii","stateId":4751,"stateCode":"MH","stateName":"Mehedinți County","countryId":181,"countryCode":"RO","countryName":"Romania","latitude":"44.70830000","longitude":"22.67003000","wikiDataId":"Q16426953"},{"id":92118,"name":"Comuna Jiana","stateId":4751,"stateCode":"MH","stateName":"Mehedinți County","countryId":181,"countryCode":"RO","countryName":"Romania","latitude":"44.39156000","longitude":"22.71076000","wikiDataId":"Q12724886"},{"id":92179,"name":"Comuna Livezile","stateId":4751,"stateCode":"MH","stateName":"Mehedinți County","countryId":181,"countryCode":"RO","countryName":"Romania","latitude":"44.54482000","longitude":"22.86644000","wikiDataId":"Q16426956"},{"id":92234,"name":"Comuna Malovãţ","stateId":4751,"stateCode":"MH","stateName":"Mehedinți County","countryId":181,"countryCode":"RO","countryName":"Romania","latitude":"44.72156000","longitude":"22.74546000","wikiDataId":"Q12724922"},{"id":92474,"name":"Comuna Obârşia De Câmp","stateId":4751,"stateCode":"MH","stateName":"Mehedinți County","countryId":181,"countryCode":"RO","countryName":"Romania","latitude":"44.17507000","longitude":"22.97076000","wikiDataId":"Q2605895"},{"id":92475,"name":"Comuna Obârşia-Cloşani","stateId":4751,"stateCode":"MH","stateName":"Mehedinți County","countryId":181,"countryCode":"RO","countryName":"Romania","latitude":"45.01667000","longitude":"22.68333000","wikiDataId":"Q2605928"},{"id":92503,"name":"Comuna Oprişor","stateId":4751,"stateCode":"MH","stateName":"Mehedinți County","countryId":181,"countryCode":"RO","countryName":"Romania","latitude":"44.30105000","longitude":"23.08646000","wikiDataId":"Q12725008"},{"id":92529,"name":"Comuna Padina","stateId":4751,"stateCode":"MH","stateName":"Mehedinți County","countryId":181,"countryCode":"RO","countryName":"Romania","latitude":"44.43776000","longitude":"23.01426000","wikiDataId":"Q2605887"},{"id":92724,"name":"Comuna Pătulele","stateId":4751,"stateCode":"MH","stateName":"Mehedinți County","countryId":181,"countryCode":"RO","countryName":"Romania","latitude":"44.34984000","longitude":"22.80368000","wikiDataId":"Q2465435"},{"id":92612,"name":"Comuna Podeni","stateId":4751,"stateCode":"MH","stateName":"Mehedinți County","countryId":181,"countryCode":"RO","countryName":"Romania","latitude":"44.89218000","longitude":"22.55503000","wikiDataId":"Q12725048"},{"id":92650,"name":"Comuna Ponoarele","stateId":4751,"stateCode":"MH","stateName":"Mehedinți County","countryId":181,"countryCode":"RO","countryName":"Romania","latitude":"44.97347000","longitude":"22.75676000","wikiDataId":"Q288036"},{"id":92659,"name":"Comuna Poroina Mare","stateId":4751,"stateCode":"MH","stateName":"Mehedinți County","countryId":181,"countryCode":"RO","countryName":"Romania","latitude":"44.49516000","longitude":"22.94161000","wikiDataId":"Q12725056"},{"id":92678,"name":"Comuna Pristol","stateId":4751,"stateCode":"MH","stateName":"Mehedinți County","countryId":181,"countryCode":"RO","countryName":"Romania","latitude":"44.22080000","longitude":"22.71200000","wikiDataId":"Q12725063"},{"id":92687,"name":"Comuna Prunişor","stateId":4751,"stateCode":"MH","stateName":"Mehedinți County","countryId":181,"countryCode":"RO","countryName":"Romania","latitude":"44.60030000","longitude":"22.90476000","wikiDataId":"Q16426962"},{"id":92697,"name":"Comuna Punghina","stateId":4751,"stateCode":"MH","stateName":"Mehedinți County","countryId":181,"countryCode":"RO","countryName":"Romania","latitude":"44.29534000","longitude":"22.96318000","wikiDataId":"Q5065667"},{"id":92779,"name":"Comuna Rogova","stateId":4751,"stateCode":"MH","stateName":"Mehedinți County","countryId":181,"countryCode":"RO","countryName":"Romania","latitude":"44.47076000","longitude":"22.82951000","wikiDataId":"Q16426966"},{"id":92865,"name":"Comuna Salcia","stateId":4751,"stateCode":"MH","stateName":"Mehedinți County","countryId":181,"countryCode":"RO","countryName":"Romania","latitude":"44.14124000","longitude":"22.93048000","wikiDataId":"Q2246077"},{"id":92935,"name":"Comuna Simian","stateId":4751,"stateCode":"MH","stateName":"Mehedinți County","countryId":181,"countryCode":"RO","countryName":"Romania","latitude":"44.62736000","longitude":"22.74227000","wikiDataId":"Q16439834"},{"id":92945,"name":"Comuna Siseşti","stateId":4751,"stateCode":"MH","stateName":"Mehedinți County","countryId":181,"countryCode":"RO","countryName":"Romania","latitude":"44.77146000","longitude":"22.83754000","wikiDataId":"Q12725296"},{"id":92978,"name":"Comuna Sovarna","stateId":4751,"stateCode":"MH","stateName":"Mehedinți County","countryId":181,"countryCode":"RO","countryName":"Romania","latitude":"44.84837000","longitude":"22.81235000","wikiDataId":"Q16426977"},{"id":93014,"name":"Comuna Stângăceaua","stateId":4751,"stateCode":"MH","stateName":"Mehedinți County","countryId":181,"countryCode":"RO","countryName":"Romania","latitude":"44.60024000","longitude":"23.29263000","wikiDataId":"Q1956235"},{"id":93043,"name":"Comuna Sviniţa","stateId":4751,"stateCode":"MH","stateName":"Mehedinți County","countryId":181,"countryCode":"RO","countryName":"Romania","latitude":"44.50013000","longitude":"22.10488000","wikiDataId":"Q16426969"},{"id":93223,"name":"Comuna Tâmna","stateId":4751,"stateCode":"MH","stateName":"Mehedinți County","countryId":181,"countryCode":"RO","countryName":"Romania","latitude":"44.56147000","longitude":"23.00793000","wikiDataId":"Q12725223"},{"id":93433,"name":"Comuna Vânători","stateId":4751,"stateCode":"MH","stateName":"Mehedinți County","countryId":181,"countryCode":"RO","countryName":"Romania","latitude":"44.24781000","longitude":"22.92979000","wikiDataId":"Q16426980"},{"id":93431,"name":"Comuna Vânjuleţ","stateId":4751,"stateCode":"MH","stateName":"Mehedinți County","countryId":181,"countryCode":"RO","countryName":"Romania","latitude":"44.43124000","longitude":"22.80212000","wikiDataId":"Q2573855"},{"id":93384,"name":"Comuna Vlădaia","stateId":4751,"stateCode":"MH","stateName":"Mehedinți County","countryId":181,"countryCode":"RO","countryName":"Romania","latitude":"44.36108000","longitude":"23.03758000","wikiDataId":"Q1922374"},{"id":93403,"name":"Comuna Voloiac","stateId":4751,"stateCode":"MH","stateName":"Mehedinți County","countryId":181,"countryCode":"RO","countryName":"Romania","latitude":"44.63241000","longitude":"23.05948000","wikiDataId":"Q12725268"},{"id":93410,"name":"Comuna Vrata","stateId":4751,"stateCode":"MH","stateName":"Mehedinți County","countryId":181,"countryCode":"RO","countryName":"Romania","latitude":"44.19197000","longitude":"22.84928000","wikiDataId":"Q16426985"},{"id":93622,"name":"Corcova","stateId":4751,"stateCode":"MH","stateName":"Mehedinți County","countryId":181,"countryCode":"RO","countryName":"Romania","latitude":"44.70000000","longitude":"23.05000000","wikiDataId":"Q2353798"},{"id":93628,"name":"Corlăţel","stateId":4751,"stateCode":"MH","stateName":"Mehedinți County","countryId":181,"countryCode":"RO","countryName":"Romania","latitude":"44.39861000","longitude":"22.93306000","wikiDataId":"Q652805"},{"id":93766,"name":"Cujmir","stateId":4751,"stateCode":"MH","stateName":"Mehedinți County","countryId":181,"countryCode":"RO","countryName":"Romania","latitude":"44.20667000","longitude":"22.92667000","wikiDataId":"Q2127632"},{"id":94123,"name":"Dănceu","stateId":4751,"stateCode":"MH","stateName":"Mehedinți County","countryId":181,"countryCode":"RO","countryName":"Romania","latitude":"44.36416000","longitude":"22.72098000","wikiDataId":"Q12100120"},{"id":94111,"name":"Dârvari","stateId":4751,"stateCode":"MH","stateName":"Mehedinți County","countryId":181,"countryCode":"RO","countryName":"Romania","latitude":"44.20000000","longitude":"23.05000000","wikiDataId":"Q2465426"},{"id":93929,"name":"Devesel","stateId":4751,"stateCode":"MH","stateName":"Mehedinți County","countryId":181,"countryCode":"RO","countryName":"Romania","latitude":"44.46889000","longitude":"22.66722000","wikiDataId":"Q1987188"},{"id":94032,"name":"Drobeta-Turnu Severin","stateId":4751,"stateCode":"MH","stateName":"Mehedinți County","countryId":181,"countryCode":"RO","countryName":"Romania","latitude":"44.62693000","longitude":"22.65288000","wikiDataId":"Q773407"},{"id":94066,"name":"Dubova","stateId":4751,"stateCode":"MH","stateName":"Mehedinți County","countryId":181,"countryCode":"RO","countryName":"Romania","latitude":"44.61667000","longitude":"22.26667000","wikiDataId":"Q910564"},{"id":94068,"name":"Dudașu","stateId":4751,"stateCode":"MH","stateName":"Mehedinți County","countryId":181,"countryCode":"RO","countryName":"Romania","latitude":"44.65253000","longitude":"22.69683000","wikiDataId":"Q12102726"},{"id":94082,"name":"Dumbrava de Sus","stateId":4751,"stateCode":"MH","stateName":"Mehedinți County","countryId":181,"countryCode":"RO","countryName":"Romania","latitude":"44.51667000","longitude":"23.11667000","wikiDataId":"Q911095"},{"id":94147,"name":"Eşelniţa","stateId":4751,"stateCode":"MH","stateName":"Mehedinți County","countryId":181,"countryCode":"RO","countryName":"Romania","latitude":"44.69917000","longitude":"22.36222000","wikiDataId":"Q586861"},{"id":94184,"name":"Floreşti","stateId":4751,"stateCode":"MH","stateName":"Mehedinți County","countryId":181,"countryCode":"RO","countryName":"Romania","latitude":"44.76306000","longitude":"22.94778000","wikiDataId":"Q2316523"},{"id":94491,"name":"Gârla-Mare","stateId":4751,"stateCode":"MH","stateName":"Mehedinți County","countryId":181,"countryCode":"RO","countryName":"Romania","latitude":"44.20917000","longitude":"22.77500000","wikiDataId":"Q2176284"},{"id":94290,"name":"Gemeni","stateId":4751,"stateCode":"MH","stateName":"Mehedinți County","countryId":181,"countryCode":"RO","countryName":"Romania","latitude":"44.17265000","longitude":"23.08251000","wikiDataId":"Q12100726"},{"id":94367,"name":"Godeanu","stateId":4751,"stateCode":"MH","stateName":"Mehedinți County","countryId":181,"countryCode":"RO","countryName":"Romania","latitude":"44.80111000","longitude":"22.60861000","wikiDataId":"Q12096432"},{"id":94372,"name":"Gogoşu","stateId":4751,"stateCode":"MH","stateName":"Mehedinți County","countryId":181,"countryCode":"RO","countryName":"Romania","latitude":"44.37389000","longitude":"22.59306000","wikiDataId":"Q2605935"},{"id":94408,"name":"Greci","stateId":4751,"stateCode":"MH","stateName":"Mehedinți County","countryId":181,"countryCode":"RO","countryName":"Romania","latitude":"44.55000000","longitude":"23.11667000","wikiDataId":"Q2605908"},{"id":94423,"name":"Grozeşti","stateId":4751,"stateCode":"MH","stateName":"Mehedinți County","countryId":181,"countryCode":"RO","countryName":"Romania","latitude":"44.65000000","longitude":"23.31667000","wikiDataId":"Q2410884"},{"id":94429,"name":"Gruia","stateId":4751,"stateCode":"MH","stateName":"Mehedinți County","countryId":181,"countryCode":"RO","countryName":"Romania","latitude":"44.26750000","longitude":"22.70472000","wikiDataId":"Q1550352"},{"id":94466,"name":"Gura Văii","stateId":4751,"stateCode":"MH","stateName":"Mehedinți County","countryId":181,"countryCode":"RO","countryName":"Romania","latitude":"44.66732000","longitude":"22.55646000","wikiDataId":"Q15651296"},{"id":94475,"name":"Gvardinița","stateId":4751,"stateCode":"MH","stateName":"Mehedinți County","countryId":181,"countryCode":"RO","countryName":"Romania","latitude":"44.39505000","longitude":"23.14635000","wikiDataId":"Q12094474"},{"id":94520,"name":"Halânga","stateId":4751,"stateCode":"MH","stateName":"Mehedinți County","countryId":181,"countryCode":"RO","countryName":"Romania","latitude":"44.68116000","longitude":"22.69037000","wikiDataId":"Q12166822"},{"id":94537,"name":"Hinova","stateId":4751,"stateCode":"MH","stateName":"Mehedinți County","countryId":181,"countryCode":"RO","countryName":"Romania","latitude":"44.54056000","longitude":"22.77694000","wikiDataId":"Q2465415"},{"id":94585,"name":"Husnicioara","stateId":4751,"stateCode":"MH","stateName":"Mehedinți County","countryId":181,"countryCode":"RO","countryName":"Romania","latitude":"44.67806000","longitude":"22.84250000","wikiDataId":"Q12168035"},{"id":94660,"name":"Ilovăț","stateId":4751,"stateCode":"MH","stateName":"Mehedinți County","countryId":181,"countryCode":"RO","countryName":"Romania","latitude":"44.81197000","longitude":"22.76333000","wikiDataId":"Q2465591"},{"id":94659,"name":"Iloviţa","stateId":4751,"stateCode":"MH","stateName":"Mehedinți County","countryId":181,"countryCode":"RO","countryName":"Romania","latitude":"44.75639000","longitude":"22.47278000","wikiDataId":"Q2026105"},{"id":94693,"name":"Isverna","stateId":4751,"stateCode":"MH","stateName":"Mehedinți County","countryId":181,"countryCode":"RO","countryName":"Romania","latitude":"44.97972000","longitude":"22.62917000","wikiDataId":"Q305238"},{"id":94700,"name":"Izimșa","stateId":4751,"stateCode":"MH","stateName":"Mehedinți County","countryId":181,"countryCode":"RO","countryName":"Romania","latitude":"44.17819000","longitude":"22.95649000","wikiDataId":"Q12074138"},{"id":94709,"name":"Izvoarele","stateId":4751,"stateCode":"MH","stateName":"Mehedinți County","countryId":181,"countryCode":"RO","countryName":"Romania","latitude":"44.30958000","longitude":"22.66348000","wikiDataId":"Q12074017"},{"id":94717,"name":"Izvoru Bârzii","stateId":4751,"stateCode":"MH","stateName":"Mehedinți County","countryId":181,"countryCode":"RO","countryName":"Romania","latitude":"44.70667000","longitude":"22.67417000","wikiDataId":"Q660169"},{"id":94726,"name":"Jiana","stateId":4751,"stateCode":"MH","stateName":"Mehedinți County","countryId":181,"countryCode":"RO","countryName":"Romania","latitude":"44.40184000","longitude":"22.71278000","wikiDataId":"Q2164070"},{"id":94727,"name":"Jiana Veche","stateId":4751,"stateCode":"MH","stateName":"Mehedinți County","countryId":181,"countryCode":"RO","countryName":"Romania","latitude":"44.39083000","longitude":"22.66861000","wikiDataId":"Q12104926"},{"id":94732,"name":"Jidoștița","stateId":4751,"stateCode":"MH","stateName":"Mehedinți County","countryId":181,"countryCode":"RO","countryName":"Romania","latitude":"44.71582000","longitude":"22.59311000","wikiDataId":"Q12104500"},{"id":94741,"name":"Jirov","stateId":4751,"stateCode":"MH","stateName":"Mehedinți County","countryId":181,"countryCode":"RO","countryName":"Romania","latitude":"44.67098000","longitude":"23.08693000","wikiDataId":"Q12104549"},{"id":94822,"name":"Livezile","stateId":4751,"stateCode":"MH","stateName":"Mehedinți County","countryId":181,"countryCode":"RO","countryName":"Romania","latitude":"44.51222000","longitude":"22.86333000","wikiDataId":"Q2465443"},{"id":94914,"name":"Malovăţ","stateId":4751,"stateCode":"MH","stateName":"Mehedinți County","countryId":181,"countryCode":"RO","countryName":"Romania","latitude":"44.70444000","longitude":"22.73111000","wikiDataId":"Q975394"},{"id":95138,"name":"Municipiul Drobeta-Turnu Severin","stateId":4751,"stateCode":"MH","stateName":"Mehedinți County","countryId":181,"countryCode":"RO","countryName":"Romania","latitude":"44.64287000","longitude":"22.60669000","wikiDataId":"Q193890"},{"id":95165,"name":"Municipiul Orşova","stateId":4751,"stateCode":"MH","stateName":"Mehedinți County","countryId":181,"countryCode":"RO","countryName":"Romania","latitude":"44.72520000","longitude":"22.39771000","wikiDataId":"Q750243"},{"id":95334,"name":"Nicolae Bălcescu","stateId":4751,"stateCode":"MH","stateName":"Mehedinți County","countryId":181,"countryCode":"RO","countryName":"Romania","latitude":"44.37427000","longitude":"22.85837000","wikiDataId":"Q572409"},{"id":95391,"name":"Obârșia de Câmp","stateId":4751,"stateCode":"MH","stateName":"Mehedinți County","countryId":181,"countryCode":"RO","countryName":"Romania","latitude":"44.17222000","longitude":"22.98000000","wikiDataId":"Q12134899"},{"id":95390,"name":"Obârşia-Cloşani","stateId":4751,"stateCode":"MH","stateName":"Mehedinți County","countryId":181,"countryCode":"RO","countryName":"Romania","latitude":"45.01667000","longitude":"22.68333000","wikiDataId":"Q12134898"},{"id":95443,"name":"Oprişor","stateId":4751,"stateCode":"MH","stateName":"Mehedinți County","countryId":181,"countryCode":"RO","countryName":"Romania","latitude":"44.28333000","longitude":"23.08333000","wikiDataId":"Q2190792"},{"id":95454,"name":"Oraş Baia De Aramã","stateId":4751,"stateCode":"MH","stateName":"Mehedinți County","countryId":181,"countryCode":"RO","countryName":"Romania","latitude":"45.00366000","longitude":"22.80709000","wikiDataId":"Q778516"},{"id":95593,"name":"Oraş Strehaia","stateId":4751,"stateCode":"MH","stateName":"Mehedinți County","countryId":181,"countryCode":"RO","countryName":"Romania","latitude":"44.62360000","longitude":"23.18792000","wikiDataId":"Q777619"},{"id":95621,"name":"Oraş Vânju Mare","stateId":4751,"stateCode":"MH","stateName":"Mehedinți County","countryId":181,"countryCode":"RO","countryName":"Romania","latitude":"44.42326000","longitude":"22.87340000","wikiDataId":"Q629776"},{"id":95657,"name":"Orevița Mare","stateId":4751,"stateCode":"MH","stateName":"Mehedinți County","countryId":181,"countryCode":"RO","countryName":"Romania","latitude":"44.45715000","longitude":"22.91317000","wikiDataId":"Q12136283"},{"id":95669,"name":"Orşova","stateId":4751,"stateCode":"MH","stateName":"Mehedinți County","countryId":181,"countryCode":"RO","countryName":"Romania","latitude":"44.72299000","longitude":"22.39619000","wikiDataId":"Q12136316"},{"id":95680,"name":"Ostrovu Mare","stateId":4751,"stateCode":"MH","stateName":"Mehedinți County","countryId":181,"countryCode":"RO","countryName":"Romania","latitude":"44.37931000","longitude":"22.51581000","wikiDataId":"Q12136786"},{"id":95696,"name":"Padina Mică","stateId":4751,"stateCode":"MH","stateName":"Mehedinți County","countryId":181,"countryCode":"RO","countryName":"Romania","latitude":"44.42722000","longitude":"22.99250000","wikiDataId":"Q12139345"},{"id":96024,"name":"Pătulele","stateId":4751,"stateCode":"MH","stateName":"Mehedinți County","countryId":181,"countryCode":"RO","countryName":"Romania","latitude":"44.34528000","longitude":"22.77278000","wikiDataId":"Q12140340"},{"id":95843,"name":"Podeni","stateId":4751,"stateCode":"MH","stateName":"Mehedinți County","countryId":181,"countryCode":"RO","countryName":"Romania","latitude":"44.88139000","longitude":"22.54333000","wikiDataId":"Q2536675"},{"id":95905,"name":"Ponoarele","stateId":4751,"stateCode":"MH","stateName":"Mehedinți County","countryId":181,"countryCode":"RO","countryName":"Romania","latitude":"44.97389000","longitude":"22.76444000","wikiDataId":"Q12142246"},{"id":95920,"name":"Poroina Mare","stateId":4751,"stateCode":"MH","stateName":"Mehedinți County","countryId":181,"countryCode":"RO","countryName":"Romania","latitude":"44.49528000","longitude":"22.93639000","wikiDataId":"Q954644"},{"id":95955,"name":"Pristol","stateId":4751,"stateCode":"MH","stateName":"Mehedinți County","countryId":181,"countryCode":"RO","countryName":"Romania","latitude":"44.22472000","longitude":"22.70917000","wikiDataId":"Q1659448"},{"id":95968,"name":"Prunişor","stateId":4751,"stateCode":"MH","stateName":"Mehedinți County","countryId":181,"countryCode":"RO","countryName":"Romania","latitude":"44.60944000","longitude":"22.91528000","wikiDataId":"Q921751"},{"id":95982,"name":"Punghina","stateId":4751,"stateCode":"MH","stateName":"Mehedinți County","countryId":181,"countryCode":"RO","countryName":"Romania","latitude":"44.28194000","longitude":"22.93472000","wikiDataId":"Q2465407"},{"id":96068,"name":"Recea","stateId":4751,"stateCode":"MH","stateName":"Mehedinți County","countryId":181,"countryCode":"RO","countryName":"Romania","latitude":"44.31949000","longitude":"22.91659000","wikiDataId":"Q12147777"},{"id":96101,"name":"Rogova","stateId":4751,"stateCode":"MH","stateName":"Mehedinți County","countryId":181,"countryCode":"RO","countryName":"Romania","latitude":"44.47167000","longitude":"22.80667000","wikiDataId":"Q2465565"},{"id":96137,"name":"Roșiori","stateId":4751,"stateCode":"MH","stateName":"Mehedinți County","countryId":181,"countryCode":"RO","countryName":"Romania","latitude":"44.25633000","longitude":"22.92838000","wikiDataId":"Q857008"},{"id":96232,"name":"Salcia","stateId":4751,"stateCode":"MH","stateName":"Mehedinți County","countryId":181,"countryCode":"RO","countryName":"Romania","latitude":"44.14083000","longitude":"22.92778000","wikiDataId":"Q5071275"},{"id":97051,"name":"Şimian","stateId":4751,"stateCode":"MH","stateName":"Mehedinți County","countryId":181,"countryCode":"RO","countryName":"Romania","latitude":"44.61417000","longitude":"22.70722000","wikiDataId":"Q2719217"},{"id":97061,"name":"Şişeşti","stateId":4751,"stateCode":"MH","stateName":"Mehedinți County","countryId":181,"countryCode":"RO","countryName":"Romania","latitude":"44.77750000","longitude":"22.83944000","wikiDataId":"Q3383074"},{"id":97075,"name":"Şovarna","stateId":4751,"stateCode":"MH","stateName":"Mehedinți County","countryId":181,"countryCode":"RO","countryName":"Romania","latitude":"44.85361000","longitude":"22.79250000","wikiDataId":"Q2465395"},{"id":96473,"name":"Stângăceaua","stateId":4751,"stateCode":"MH","stateName":"Mehedinți County","countryId":181,"countryCode":"RO","countryName":"Romania","latitude":"44.60896000","longitude":"23.31273000","wikiDataId":"Q12157935"},{"id":96449,"name":"Strehaia","stateId":4751,"stateCode":"MH","stateName":"Mehedinți County","countryId":181,"countryCode":"RO","countryName":"Romania","latitude":"44.61667000","longitude":"23.20000000","wikiDataId":"Q12158091"},{"id":96515,"name":"Sviniţa","stateId":4751,"stateCode":"MH","stateName":"Mehedinți County","countryId":181,"countryCode":"RO","countryName":"Romania","latitude":"44.49972000","longitude":"22.10611000","wikiDataId":"Q278492"},{"id":96577,"name":"Tâmna","stateId":4751,"stateCode":"MH","stateName":"Mehedinți County","countryId":181,"countryCode":"RO","countryName":"Romania","latitude":"44.56667000","longitude":"23.01667000","wikiDataId":"Q2465554"},{"id":96928,"name":"Vânători","stateId":4751,"stateCode":"MH","stateName":"Mehedinți County","countryId":181,"countryCode":"RO","countryName":"Romania","latitude":"44.24278000","longitude":"22.92889000","wikiDataId":"Q965720"},{"id":96926,"name":"Vânju-Mare","stateId":4751,"stateCode":"MH","stateName":"Mehedinți County","countryId":181,"countryCode":"RO","countryName":"Romania","latitude":"44.42528000","longitude":"22.86972000","wikiDataId":"Q6468441"},{"id":96927,"name":"Vânjuleţ","stateId":4751,"stateCode":"MH","stateName":"Mehedinți County","countryId":181,"countryCode":"RO","countryName":"Romania","latitude":"44.44111000","longitude":"22.79250000","wikiDataId":"Q12089406"},{"id":96859,"name":"Vlădaia","stateId":4751,"stateCode":"MH","stateName":"Mehedinți County","countryId":181,"countryCode":"RO","countryName":"Romania","latitude":"44.35000000","longitude":"23.03333000","wikiDataId":"Q12089881"},{"id":96887,"name":"Voloiac","stateId":4751,"stateCode":"MH","stateName":"Mehedinți County","countryId":181,"countryCode":"RO","countryName":"Romania","latitude":"44.61667000","longitude":"23.10000000","wikiDataId":"Q2465580"},{"id":96897,"name":"Vrata","stateId":4751,"stateCode":"MH","stateName":"Mehedinți County","countryId":181,"countryCode":"RO","countryName":"Romania","latitude":"44.19197000","longitude":"22.84928000","wikiDataId":"Q2357474"}]