[{"id":79769,"name":"Amberley","stateId":4066,"stateCode":"CAN","stateName":"Canterbury Region","countryId":158,"countryCode":"NZ","countryName":"New Zealand","latitude":"-43.15589000","longitude":"172.72975000","wikiDataId":"Q457210"},{"id":79771,"name":"Ashburton","stateId":4066,"stateCode":"CAN","stateName":"Canterbury Region","countryId":158,"countryCode":"NZ","countryName":"New Zealand","latitude":"-43.89834000","longitude":"171.73011000","wikiDataId":"Q724923"},{"id":79772,"name":"Ashburton District","stateId":4066,"stateCode":"CAN","stateName":"Canterbury Region","countryId":158,"countryCode":"NZ","countryName":"New Zealand","latitude":"-43.90000000","longitude":"171.75000000","wikiDataId":"Q15784197"},{"id":79780,"name":"Burnham","stateId":4066,"stateCode":"CAN","stateName":"Canterbury Region","countryId":158,"countryCode":"NZ","countryName":"New Zealand","latitude":"-43.61667000","longitude":"172.31667000","wikiDataId":"Q137105"},{"id":79783,"name":"Christchurch","stateId":4066,"stateCode":"CAN","stateName":"Canterbury Region","countryId":158,"countryCode":"NZ","countryName":"New Zealand","latitude":"-43.53333000","longitude":"172.63333000","wikiDataId":"Q79990"},{"id":79784,"name":"Christchurch City","stateId":4066,"stateCode":"CAN","stateName":"Canterbury Region","countryId":158,"countryCode":"NZ","countryName":"New Zealand","latitude":"-43.64578000","longitude":"172.74586000","wikiDataId":"Q32159699"},{"id":79788,"name":"Darfield","stateId":4066,"stateCode":"CAN","stateName":"Canterbury Region","countryId":158,"countryCode":"NZ","countryName":"New Zealand","latitude":"-43.48333000","longitude":"172.11667000","wikiDataId":"Q1165830"},{"id":79795,"name":"Geraldine","stateId":4066,"stateCode":"CAN","stateName":"Canterbury Region","countryId":158,"countryCode":"NZ","countryName":"New Zealand","latitude":"-44.09061000","longitude":"171.24458000","wikiDataId":"Q1002934"},{"id":79805,"name":"Kaiapoi","stateId":4066,"stateCode":"CAN","stateName":"Canterbury Region","countryId":158,"countryCode":"NZ","countryName":"New Zealand","latitude":"-43.37832000","longitude":"172.64013000","wikiDataId":"Q1013339"},{"id":79816,"name":"Leeston","stateId":4066,"stateCode":"CAN","stateName":"Canterbury Region","countryId":158,"countryCode":"NZ","countryName":"New Zealand","latitude":"-43.76667000","longitude":"172.30000000","wikiDataId":"Q985373"},{"id":79818,"name":"Lincoln","stateId":4066,"stateCode":"CAN","stateName":"Canterbury Region","countryId":158,"countryCode":"NZ","countryName":"New Zealand","latitude":"-43.65000000","longitude":"172.48333000","wikiDataId":"Q1186226"},{"id":79820,"name":"Mackenzie District","stateId":4066,"stateCode":"CAN","stateName":"Canterbury Region","countryId":158,"countryCode":"NZ","countryName":"New Zealand","latitude":"-43.93987000","longitude":"170.51913000","wikiDataId":"Q1760822"},{"id":79829,"name":"Methven","stateId":4066,"stateCode":"CAN","stateName":"Canterbury Region","countryId":158,"countryCode":"NZ","countryName":"New Zealand","latitude":"-43.63333000","longitude":"171.65000000","wikiDataId":"Q1925567"},{"id":79849,"name":"Oxford","stateId":4066,"stateCode":"CAN","stateName":"Canterbury Region","countryId":158,"countryCode":"NZ","countryName":"New Zealand","latitude":"-43.30000000","longitude":"172.18333000","wikiDataId":"Q1936464"},{"id":79861,"name":"Pleasant Point","stateId":4066,"stateCode":"CAN","stateName":"Canterbury Region","countryId":158,"countryCode":"NZ","countryName":"New Zealand","latitude":"-44.26667000","longitude":"171.13333000","wikiDataId":"Q1474784"},{"id":79864,"name":"Prebbleton","stateId":4066,"stateCode":"CAN","stateName":"Canterbury Region","countryId":158,"countryCode":"NZ","countryName":"New Zealand","latitude":"-43.58333000","longitude":"172.51667000","wikiDataId":"Q176330"},{"id":79868,"name":"Rakaia","stateId":4066,"stateCode":"CAN","stateName":"Canterbury Region","countryId":158,"countryCode":"NZ","countryName":"New Zealand","latitude":"-43.75000000","longitude":"172.01667000","wikiDataId":"Q1015735"},{"id":79872,"name":"Rolleston","stateId":4066,"stateCode":"CAN","stateName":"Canterbury Region","countryId":158,"countryCode":"NZ","countryName":"New Zealand","latitude":"-43.58333000","longitude":"172.38333000","wikiDataId":"Q1099966"},{"id":79877,"name":"Selwyn District","stateId":4066,"stateCode":"CAN","stateName":"Canterbury Region","countryId":158,"countryCode":"NZ","countryName":"New Zealand","latitude":"-43.32226000","longitude":"171.87064000","wikiDataId":"Q1210763"},{"id":79893,"name":"Timaru","stateId":4066,"stateCode":"CAN","stateName":"Canterbury Region","countryId":158,"countryCode":"NZ","countryName":"New Zealand","latitude":"-44.39672000","longitude":"171.25364000","wikiDataId":"Q1016574"},{"id":79894,"name":"Timaru District","stateId":4066,"stateCode":"CAN","stateName":"Canterbury Region","countryId":158,"countryCode":"NZ","countryName":"New Zealand","latitude":"-44.40000000","longitude":"171.21667000","wikiDataId":"Q14395599"},{"id":79895,"name":"Tinwald","stateId":4066,"stateCode":"CAN","stateName":"Canterbury Region","countryId":158,"countryCode":"NZ","countryName":"New Zealand","latitude":"-43.91667000","longitude":"171.71667000","wikiDataId":"Q14395599"},{"id":79902,"name":"Waimakariri District","stateId":4066,"stateCode":"CAN","stateName":"Canterbury Region","countryId":158,"countryCode":"NZ","countryName":"New Zealand","latitude":"-43.20750000","longitude":"172.33286000","wikiDataId":"Q1542322"},{"id":79925,"name":"Woodend","stateId":4066,"stateCode":"CAN","stateName":"Canterbury Region","countryId":158,"countryCode":"NZ","countryName":"New Zealand","latitude":"-43.31667000","longitude":"172.66667000","wikiDataId":"Q8032610"}]