[{"id":67407,"name":"Crnilište","stateId":675,"stateCode":"27","stateName":"Dolneni Municipality","countryId":129,"countryCode":"MK","countryName":"North Macedonia","latitude":"41.53025000","longitude":"21.41416000","wikiDataId":"Q339762"},{"id":67412,"name":"Desovo","stateId":675,"stateCode":"27","stateName":"Dolneni Municipality","countryId":129,"countryCode":"MK","countryName":"North Macedonia","latitude":"41.46278000","longitude":"21.49111000","wikiDataId":"Q3024547"},{"id":67418,"name":"Dolneni","stateId":675,"stateCode":"27","stateName":"Dolneni Municipality","countryId":129,"countryCode":"MK","countryName":"North Macedonia","latitude":"41.42579000","longitude":"21.45402000","wikiDataId":"Q3034185"},{"id":67468,"name":"Lažani","stateId":675,"stateCode":"27","stateName":"Dolneni Municipality","countryId":129,"countryCode":"MK","countryName":"North Macedonia","latitude":"41.44222000","longitude":"21.31583000","wikiDataId":"Q2507299"},{"id":67572,"name":"Žitoše","stateId":675,"stateCode":"27","stateName":"Dolneni Municipality","countryId":129,"countryCode":"MK","countryName":"North Macedonia","latitude":"41.41991000","longitude":"21.29078000","wikiDataId":"Q3074920"}]