[{"id":110,"name":"Attard","countryId":135,"countryCode":"MT","countryName":"Malta","stateCode":"01","type":null,"latitude":"35.89049670","longitude":"14.41993220"},{"id":108,"name":"Balzan","countryId":135,"countryCode":"MT","countryName":"Malta","stateCode":"02","type":null,"latitude":"35.89574140","longitude":"14.45340650"},{"id":107,"name":"Birgu","countryId":135,"countryCode":"MT","countryName":"Malta","stateCode":"03","type":null,"latitude":"35.88792140","longitude":"14.52256200"},{"id":97,"name":"Birkirkara","countryId":135,"countryCode":"MT","countryName":"Malta","stateCode":"04","type":null,"latitude":"35.89547060","longitude":"14.46650720"},{"id":88,"name":"Birżebbuġa","countryId":135,"countryCode":"MT","countryName":"Malta","stateCode":"05","type":null,"latitude":"35.81359890","longitude":"14.52474630"},{"id":138,"name":"Cospicua","countryId":135,"countryCode":"MT","countryName":"Malta","stateCode":"06","type":null,"latitude":"35.88067530","longitude":"14.52183380"},{"id":117,"name":"Dingli","countryId":135,"countryCode":"MT","countryName":"Malta","stateCode":"07","type":null,"latitude":"35.86273090","longitude":"14.38501070"},{"id":129,"name":"Fgura","countryId":135,"countryCode":"MT","countryName":"Malta","stateCode":"08","type":null,"latitude":"35.87382690","longitude":"14.52329010"},{"id":84,"name":"Floriana","countryId":135,"countryCode":"MT","countryName":"Malta","stateCode":"09","type":null,"latitude":"45.49521850","longitude":"-73.71395760"},{"id":134,"name":"Fontana","countryId":135,"countryCode":"MT","countryName":"Malta","stateCode":"10","type":null,"latitude":"34.09223350","longitude":"-117.43504800"},{"id":130,"name":"Għajnsielem","countryId":135,"countryCode":"MT","countryName":"Malta","stateCode":"13","type":null,"latitude":"36.02479660","longitude":"14.28029610"},{"id":92,"name":"Għarb","countryId":135,"countryCode":"MT","countryName":"Malta","stateCode":"14","type":null,"latitude":"36.06890900","longitude":"14.20180980"},{"id":120,"name":"Għargħur","countryId":135,"countryCode":"MT","countryName":"Malta","stateCode":"15","type":null,"latitude":"35.92205690","longitude":"14.45631760"},{"id":106,"name":"Għasri","countryId":135,"countryCode":"MT","countryName":"Malta","stateCode":"16","type":null,"latitude":"36.06680750","longitude":"14.21924750"},{"id":124,"name":"Għaxaq","countryId":135,"countryCode":"MT","countryName":"Malta","stateCode":"17","type":null,"latitude":"35.84403590","longitude":"14.51600900"},{"id":118,"name":"Gudja","countryId":135,"countryCode":"MT","countryName":"Malta","stateCode":"11","type":null,"latitude":"35.84698030","longitude":"14.50290400"},{"id":113,"name":"Gżira","countryId":135,"countryCode":"MT","countryName":"Malta","stateCode":"12","type":null,"latitude":"35.90589700","longitude":"14.49533380"},{"id":105,"name":"Ħamrun","countryId":135,"countryCode":"MT","countryName":"Malta","stateCode":"18","type":null,"latitude":"35.88612370","longitude":"14.48834420"},{"id":93,"name":"Iklin","countryId":135,"countryCode":"MT","countryName":"Malta","stateCode":"19","type":null,"latitude":"35.90987740","longitude":"14.45777320"},{"id":99,"name":"Kalkara","countryId":135,"countryCode":"MT","countryName":"Malta","stateCode":"21","type":null,"latitude":"35.89142420","longitude":"14.53202780"},{"id":91,"name":"Kerċem","countryId":135,"countryCode":"MT","countryName":"Malta","stateCode":"22","type":null,"latitude":"36.04479390","longitude":"14.22506050"},{"id":82,"name":"Kirkop","countryId":135,"countryCode":"MT","countryName":"Malta","stateCode":"23","type":null,"latitude":"35.84378620","longitude":"14.48543240"},{"id":126,"name":"Lija","countryId":135,"countryCode":"MT","countryName":"Malta","stateCode":"24","type":null,"latitude":"49.18007600","longitude":"-123.10331700"},{"id":77,"name":"Luqa","countryId":135,"countryCode":"MT","countryName":"Malta","stateCode":"25","type":null,"latitude":"35.85828650","longitude":"14.48688830"},{"id":128,"name":"Marsa","countryId":135,"countryCode":"MT","countryName":"Malta","stateCode":"26","type":null,"latitude":"34.03195870","longitude":"-118.44555350"},{"id":137,"name":"Marsaskala","countryId":135,"countryCode":"MT","countryName":"Malta","stateCode":"27","type":null,"latitude":"35.86036400","longitude":"14.55678760"},{"id":78,"name":"Marsaxlokk","countryId":135,"countryCode":"MT","countryName":"Malta","stateCode":"28","type":null,"latitude":"35.84116990","longitude":"14.53930970"},{"id":89,"name":"Mdina","countryId":135,"countryCode":"MT","countryName":"Malta","stateCode":"29","type":null,"latitude":"35.88809300","longitude":"14.40683570"},{"id":102,"name":"Mellieħa","countryId":135,"countryCode":"MT","countryName":"Malta","stateCode":"30","type":null,"latitude":"35.95235290","longitude":"14.35009750"},{"id":109,"name":"Mġarr","countryId":135,"countryCode":"MT","countryName":"Malta","stateCode":"31","type":null,"latitude":"35.91893270","longitude":"14.36173430"},{"id":140,"name":"Mosta","countryId":135,"countryCode":"MT","countryName":"Malta","stateCode":"32","type":null,"latitude":"35.91415040","longitude":"14.42284270"},{"id":74,"name":"Mqabba","countryId":135,"countryCode":"MT","countryName":"Malta","stateCode":"33","type":null,"latitude":"35.84441430","longitude":"14.46941860"},{"id":96,"name":"Msida","countryId":135,"countryCode":"MT","countryName":"Malta","stateCode":"34","type":null,"latitude":"35.89563880","longitude":"14.48688830"},{"id":131,"name":"Mtarfa","countryId":135,"countryCode":"MT","countryName":"Malta","stateCode":"35","type":null,"latitude":"35.88951250","longitude":"14.39519530"},{"id":132,"name":"Munxar","countryId":135,"countryCode":"MT","countryName":"Malta","stateCode":"36","type":null,"latitude":"36.02880580","longitude":"14.22506050"},{"id":133,"name":"Nadur","countryId":135,"countryCode":"MT","countryName":"Malta","stateCode":"37","type":null,"latitude":"36.04470190","longitude":"14.29192730"},{"id":112,"name":"Naxxar","countryId":135,"countryCode":"MT","countryName":"Malta","stateCode":"38","type":null,"latitude":"35.93175180","longitude":"14.43157460"},{"id":115,"name":"Paola","countryId":135,"countryCode":"MT","countryName":"Malta","stateCode":"39","type":null,"latitude":"38.57223530","longitude":"-94.87912940"},{"id":125,"name":"Pembroke","countryId":135,"countryCode":"MT","countryName":"Malta","stateCode":"40","type":null,"latitude":"34.68016260","longitude":"-79.19503730"},{"id":127,"name":"Pietà","countryId":135,"countryCode":"MT","countryName":"Malta","stateCode":"41","type":null,"latitude":"42.21862000","longitude":"-83.73464700"},{"id":79,"name":"Qala","countryId":135,"countryCode":"MT","countryName":"Malta","stateCode":"42","type":null,"latitude":"36.03886280","longitude":"14.31810100"},{"id":119,"name":"Qormi","countryId":135,"countryCode":"MT","countryName":"Malta","stateCode":"43","type":null,"latitude":"35.87643880","longitude":"14.46941860"},{"id":111,"name":"Qrendi","countryId":135,"countryCode":"MT","countryName":"Malta","stateCode":"44","type":null,"latitude":"35.83284880","longitude":"14.45486210"},{"id":83,"name":"Rabat","countryId":135,"countryCode":"MT","countryName":"Malta","stateCode":"46","type":null,"latitude":"33.97159040","longitude":"-6.84981290"},{"id":87,"name":"Saint Lawrence","countryId":135,"countryCode":"MT","countryName":"Malta","stateCode":"50","type":null,"latitude":"38.95780560","longitude":"-95.25656890"},{"id":75,"name":"San Ġwann","countryId":135,"countryCode":"MT","countryName":"Malta","stateCode":"49","type":null,"latitude":"35.90773650","longitude":"14.47524160"},{"id":116,"name":"Sannat","countryId":135,"countryCode":"MT","countryName":"Malta","stateCode":"52","type":null,"latitude":"36.01926430","longitude":"14.25994370"},{"id":94,"name":"Santa Luċija","countryId":135,"countryCode":"MT","countryName":"Malta","stateCode":"53","type":null,"latitude":"35.85614200","longitude":"14.50436000"},{"id":90,"name":"Santa Venera","countryId":135,"countryCode":"MT","countryName":"Malta","stateCode":"54","type":null,"latitude":"35.89022010","longitude":"14.47669740"},{"id":136,"name":"Senglea","countryId":135,"countryCode":"MT","countryName":"Malta","stateCode":"20","type":null,"latitude":"35.88730410","longitude":"14.51673710"},{"id":98,"name":"Siġġiewi","countryId":135,"countryCode":"MT","countryName":"Malta","stateCode":"55","type":null,"latitude":"35.84637420","longitude":"14.43157460"},{"id":104,"name":"Sliema","countryId":135,"countryCode":"MT","countryName":"Malta","stateCode":"56","type":null,"latitude":"35.91100810","longitude":"14.50290400"},{"id":100,"name":"St. Julian's","countryId":135,"countryCode":"MT","countryName":"Malta","stateCode":"48","type":null,"latitude":"42.21225130","longitude":"-85.89171270"},{"id":139,"name":"St. Paul's Bay","countryId":135,"countryCode":"MT","countryName":"Malta","stateCode":"51","type":null,"latitude":"35.93601700","longitude":"14.39665030"},{"id":86,"name":"Swieqi","countryId":135,"countryCode":"MT","countryName":"Malta","stateCode":"57","type":null,"latitude":"35.91911820","longitude":"14.46941860"},{"id":122,"name":"Ta' Xbiex","countryId":135,"countryCode":"MT","countryName":"Malta","stateCode":"58","type":null,"latitude":"35.89914480","longitude":"14.49635190"},{"id":103,"name":"Tarxien","countryId":135,"countryCode":"MT","countryName":"Malta","stateCode":"59","type":null,"latitude":"35.86725520","longitude":"14.51164050"},{"id":95,"name":"Valletta","countryId":135,"countryCode":"MT","countryName":"Malta","stateCode":"60","type":null,"latitude":"35.89890850","longitude":"14.51455280"},{"id":101,"name":"Victoria","countryId":135,"countryCode":"MT","countryName":"Malta","stateCode":"45","type":null,"latitude":"28.80526740","longitude":"-97.00359820"},{"id":114,"name":"Xagħra","countryId":135,"countryCode":"MT","countryName":"Malta","stateCode":"61","type":null,"latitude":"36.05084500","longitude":"14.26748200"},{"id":121,"name":"Xewkija","countryId":135,"countryCode":"MT","countryName":"Malta","stateCode":"62","type":null,"latitude":"36.02992360","longitude":"14.25994370"},{"id":81,"name":"Xgħajra","countryId":135,"countryCode":"MT","countryName":"Malta","stateCode":"63","type":null,"latitude":"35.88682820","longitude":"14.54723910"},{"id":123,"name":"Żabbar","countryId":135,"countryCode":"MT","countryName":"Malta","stateCode":"64","type":null,"latitude":"35.87247150","longitude":"14.54513540"},{"id":85,"name":"Żebbuġ Gozo","countryId":135,"countryCode":"MT","countryName":"Malta","stateCode":"65","type":null,"latitude":"36.07164030","longitude":"14.24540800"},{"id":80,"name":"Żebbuġ Malta","countryId":135,"countryCode":"MT","countryName":"Malta","stateCode":"66","type":null,"latitude":"35.87646480","longitude":"14.43908400"},{"id":135,"name":"Żejtun","countryId":135,"countryCode":"MT","countryName":"Malta","stateCode":"67","type":null,"latitude":"35.85487140","longitude":"14.53639690"},{"id":76,"name":"Żurrieq","countryId":135,"countryCode":"MT","countryName":"Malta","stateCode":"68","type":null,"latitude":"35.82163060","longitude":"14.48106480"}]