[{"id":107055,"name":"Acıgöl","stateId":2196,"stateCode":"50","stateName":"Nevşehir","countryId":225,"countryCode":"TR","countryName":"Turkey","latitude":"38.55028000","longitude":"34.50917000","wikiDataId":"Q2006400"},{"id":107211,"name":"Avanos","stateId":2196,"stateCode":"50","stateName":"Nevşehir","countryId":225,"countryCode":"TR","countryName":"Turkey","latitude":"38.71500000","longitude":"34.84667000","wikiDataId":"Q780974"},{"id":107481,"name":"Derinkuyu","stateId":2196,"stateCode":"50","stateName":"Nevşehir","countryId":225,"countryCode":"TR","countryName":"Turkey","latitude":"38.37510000","longitude":"34.73419000","wikiDataId":"Q2000455"},{"id":107734,"name":"Gülşehir","stateId":2196,"stateCode":"50","stateName":"Nevşehir","countryId":225,"countryCode":"TR","countryName":"Turkey","latitude":"38.74594000","longitude":"34.62524000","wikiDataId":"Q2670812"},{"id":107765,"name":"Hacıbektaş","stateId":2196,"stateCode":"50","stateName":"Nevşehir","countryId":225,"countryCode":"TR","countryName":"Turkey","latitude":"38.94077000","longitude":"34.55770000","wikiDataId":"Q1027277"},{"id":108032,"name":"Kozaklı","stateId":2196,"stateCode":"50","stateName":"Nevşehir","countryId":225,"countryCode":"TR","countryName":"Turkey","latitude":"39.23204000","longitude":"34.85585000","wikiDataId":"Q1004520"},{"id":108192,"name":"Merkez","stateId":2196,"stateCode":"50","stateName":"Nevşehir","countryId":225,"countryCode":"TR","countryName":"Turkey","latitude":"38.60039000","longitude":"34.68537000","wikiDataId":"Q3055997"},{"id":108873,"name":"Ürgüp","stateId":2196,"stateCode":"50","stateName":"Nevşehir","countryId":225,"countryCode":"TR","countryName":"Turkey","latitude":"38.57342000","longitude":"34.94020000","wikiDataId":"Q335010"}]