[{"id":312,"name":"Archis","stateId":2032,"stateCode":"TV","stateName":"Tavush Region","countryId":12,"countryCode":"AM","countryName":"Armenia","latitude":"41.16351000","longitude":"44.87631000","wikiDataId":"Q33901"},{"id":331,"name":"Artsvaberd","stateId":2032,"stateCode":"TV","stateName":"Tavush Region","countryId":12,"countryCode":"AM","countryName":"Armenia","latitude":"40.83947000","longitude":"45.47033000","wikiDataId":"Q2672592"},{"id":339,"name":"Aygehovit","stateId":2032,"stateCode":"TV","stateName":"Tavush Region","countryId":12,"countryCode":"AM","countryName":"Armenia","latitude":"40.97951000","longitude":"45.25033000","wikiDataId":"Q2672616"},{"id":345,"name":"Azatamut","stateId":2032,"stateCode":"TV","stateName":"Tavush Region","countryId":12,"countryCode":"AM","countryName":"Armenia","latitude":"40.98204000","longitude":"45.18551000","wikiDataId":"Q2536393"},{"id":348,"name":"Bagratashen","stateId":2032,"stateCode":"TV","stateName":"Tavush Region","countryId":12,"countryCode":"AM","countryName":"Armenia","latitude":"41.24358000","longitude":"44.81737000","wikiDataId":"Q33812"},{"id":354,"name":"Berd","stateId":2032,"stateCode":"TV","stateName":"Tavush Region","countryId":12,"countryCode":"AM","countryName":"Armenia","latitude":"40.88135000","longitude":"45.38901000","wikiDataId":"Q1886688"},{"id":355,"name":"Berdavan","stateId":2032,"stateCode":"TV","stateName":"Tavush Region","countryId":12,"countryCode":"AM","countryName":"Armenia","latitude":"41.20503000","longitude":"44.99967000","wikiDataId":"Q33876"},{"id":372,"name":"Dilijan","stateId":2032,"stateCode":"TV","stateName":"Tavush Region","countryId":12,"countryCode":"AM","countryName":"Armenia","latitude":"40.74170000","longitude":"44.85010000","wikiDataId":"Q39569"},{"id":407,"name":"Haghartsin","stateId":2032,"stateCode":"TV","stateName":"Tavush Region","countryId":12,"countryCode":"AM","countryName":"Armenia","latitude":"40.77614000","longitude":"44.96847000","wikiDataId":"Q2536499"},{"id":418,"name":"Ijevan","stateId":2032,"stateCode":"TV","stateName":"Tavush Region","countryId":12,"countryCode":"AM","countryName":"Armenia","latitude":"40.87877000","longitude":"45.14851000","wikiDataId":"Q62367"},{"id":431,"name":"Khasht’arrak","stateId":2032,"stateCode":"TV","stateName":"Tavush Region","countryId":12,"countryCode":"AM","countryName":"Armenia","latitude":"40.93668000","longitude":"45.18210000","wikiDataId":"Q69477"},{"id":471,"name":"Mosesgegh","stateId":2032,"stateCode":"TV","stateName":"Tavush Region","countryId":12,"countryCode":"AM","countryName":"Armenia","latitude":"40.90534000","longitude":"45.48838000","wikiDataId":"Q33808"},{"id":480,"name":"Navur","stateId":2032,"stateCode":"TV","stateName":"Tavush Region","countryId":12,"countryCode":"AM","countryName":"Armenia","latitude":"40.86695000","longitude":"45.34179000","wikiDataId":"Q33922"},{"id":494,"name":"Noyemberyan","stateId":2032,"stateCode":"TV","stateName":"Tavush Region","countryId":12,"countryCode":"AM","countryName":"Armenia","latitude":"41.17244000","longitude":"44.99917000","wikiDataId":"Q34372"},{"id":498,"name":"Parravak’ar","stateId":2032,"stateCode":"TV","stateName":"Tavush Region","countryId":12,"countryCode":"AM","countryName":"Armenia","latitude":"40.98248000","longitude":"45.36696000","wikiDataId":"Q2536571"},{"id":510,"name":"Sarigyugh","stateId":2032,"stateCode":"TV","stateName":"Tavush Region","countryId":12,"countryCode":"AM","countryName":"Armenia","latitude":"41.03531000","longitude":"45.14486000","wikiDataId":"Q69271"},{"id":569,"name":"Voskevan","stateId":2032,"stateCode":"TV","stateName":"Tavush Region","countryId":12,"countryCode":"AM","countryName":"Armenia","latitude":"41.12081000","longitude":"45.06381000","wikiDataId":"Q33809"}]