[{"id":158,"name":"Bashkia Dropull","stateId":621,"stateCode":"GJ","stateName":"Gjirokastër District","countryId":3,"countryCode":"AL","countryName":"Albania","latitude":"39.98584000","longitude":"20.30529000","wikiDataId":"Q16350064"},{"id":164,"name":"Bashkia Kelcyrë","stateId":621,"stateCode":"GJ","stateName":"Gjirokastër District","countryId":3,"countryCode":"AL","countryName":"Albania","latitude":"40.36196000","longitude":"20.16476000","wikiDataId":"Q16350064"},{"id":172,"name":"Bashkia Libohovë","stateId":621,"stateCode":"GJ","stateName":"Gjirokastër District","countryId":3,"countryCode":"AL","countryName":"Albania","latitude":"40.10754000","longitude":"20.25753000","wikiDataId":"Q16350064"},{"id":177,"name":"Bashkia Memaliaj","stateId":621,"stateCode":"GJ","stateName":"Gjirokastër District","countryId":3,"countryCode":"AL","countryName":"Albania","latitude":"40.41524000","longitude":"19.96911000","wikiDataId":"Q16350064"},{"id":183,"name":"Bashkia Përmet","stateId":621,"stateCode":"GJ","stateName":"Gjirokastër District","countryId":3,"countryCode":"AL","countryName":"Albania","latitude":"40.23246000","longitude":"20.41091000","wikiDataId":"Q16350064"},{"id":187,"name":"Bashkia Tepelenë","stateId":621,"stateCode":"GJ","stateName":"Gjirokastër District","countryId":3,"countryCode":"AL","countryName":"Albania","latitude":"40.26736000","longitude":"19.97003000","wikiDataId":"Q16350064"},{"id":204,"name":"Gjinkar","stateId":621,"stateCode":"GJ","stateName":"Gjirokastër District","countryId":3,"countryCode":"AL","countryName":"Albania","latitude":"40.19944000","longitude":"20.40611000","wikiDataId":"Q155137"},{"id":205,"name":"Gjirokastër","stateId":621,"stateCode":"GJ","stateName":"Gjirokastër District","countryId":3,"countryCode":"AL","countryName":"Albania","latitude":"40.07583000","longitude":"20.13889000","wikiDataId":"Q173690"},{"id":220,"name":"Këlcyrë","stateId":621,"stateCode":"GJ","stateName":"Gjirokastër District","countryId":3,"countryCode":"AL","countryName":"Albania","latitude":"40.31306000","longitude":"20.18944000","wikiDataId":"Q1007556"},{"id":221,"name":"Lazarat","stateId":621,"stateCode":"GJ","stateName":"Gjirokastër District","countryId":3,"countryCode":"AL","countryName":"Albania","latitude":"40.04667000","longitude":"20.14750000","wikiDataId":"Q2713473"},{"id":225,"name":"Libohovë","stateId":621,"stateCode":"GJ","stateName":"Gjirokastër District","countryId":3,"countryCode":"AL","countryName":"Albania","latitude":"40.03111000","longitude":"20.26306000","wikiDataId":"Q18738"},{"id":231,"name":"Memaliaj","stateId":621,"stateCode":"GJ","stateName":"Gjirokastër District","countryId":3,"countryCode":"AL","countryName":"Albania","latitude":"40.35167000","longitude":"19.98028000","wikiDataId":"Q18749"},{"id":240,"name":"Përmet","stateId":621,"stateCode":"GJ","stateName":"Gjirokastër District","countryId":3,"countryCode":"AL","countryName":"Albania","latitude":"40.23361000","longitude":"20.35167000","wikiDataId":"Q642856"},{"id":270,"name":"Tepelenë","stateId":621,"stateCode":"GJ","stateName":"Gjirokastër District","countryId":3,"countryCode":"AL","countryName":"Albania","latitude":"40.29583000","longitude":"20.01917000","wikiDataId":"Q81631"}]