[{"id":23462,"name":"Aach","stateId":3019,"stateCode":"RP","stateName":"Rhineland-Palatinate","countryId":82,"countryCode":"DE","countryName":"Germany","latitude":"49.78333000","longitude":"6.60000000","wikiDataId":"Q300691"},{"id":23486,"name":"Adenau","stateId":3019,"stateCode":"RP","stateName":"Rhineland-Palatinate","countryId":82,"countryCode":"DE","countryName":"Germany","latitude":"50.38238000","longitude":"6.93291000","wikiDataId":"Q183485"},{"id":23512,"name":"Ahrbrück","stateId":3019,"stateCode":"RP","stateName":"Rhineland-Palatinate","countryId":82,"countryCode":"DE","countryName":"Germany","latitude":"50.48225000","longitude":"6.98804000","wikiDataId":"Q186680"},{"id":23535,"name":"Albersweiler","stateId":3019,"stateCode":"RP","stateName":"Rhineland-Palatinate","countryId":82,"countryCode":"DE","countryName":"Germany","latitude":"49.21917000","longitude":"8.03000000","wikiDataId":"Q564724"},{"id":23538,"name":"Albig","stateId":3019,"stateCode":"RP","stateName":"Rhineland-Palatinate","countryId":82,"countryCode":"DE","countryName":"Germany","latitude":"49.77361000","longitude":"8.12139000","wikiDataId":"Q567131"},{"id":23539,"name":"Albisheim","stateId":3019,"stateCode":"RP","stateName":"Rhineland-Palatinate","countryId":82,"countryCode":"DE","countryName":"Germany","latitude":"49.64941000","longitude":"8.09442000","wikiDataId":"Q565830"},{"id":23565,"name":"Alpenrod","stateId":3019,"stateCode":"RP","stateName":"Rhineland-Palatinate","countryId":82,"countryCode":"DE","countryName":"Germany","latitude":"50.63333000","longitude":"7.86667000","wikiDataId":"Q569275"},{"id":23569,"name":"Alsdorf","stateId":3019,"stateCode":"RP","stateName":"Rhineland-Palatinate","countryId":82,"countryCode":"DE","countryName":"Germany","latitude":"50.77736000","longitude":"7.88562000","wikiDataId":"Q6992"},{"id":23570,"name":"Alsenz","stateId":3019,"stateCode":"RP","stateName":"Rhineland-Palatinate","countryId":82,"countryCode":"DE","countryName":"Germany","latitude":"49.71667000","longitude":"7.81667000","wikiDataId":"Q551751"},{"id":23572,"name":"Alsheim","stateId":3019,"stateCode":"RP","stateName":"Rhineland-Palatinate","countryId":82,"countryCode":"DE","countryName":"Germany","latitude":"49.76806000","longitude":"8.34028000","wikiDataId":"Q629109"},{"id":23590,"name":"Altenahr","stateId":3019,"stateCode":"RP","stateName":"Rhineland-Palatinate","countryId":82,"countryCode":"DE","countryName":"Germany","latitude":"50.51694000","longitude":"6.99206000","wikiDataId":"Q436606"},{"id":23598,"name":"Altendiez","stateId":3019,"stateCode":"RP","stateName":"Rhineland-Palatinate","countryId":82,"countryCode":"DE","countryName":"Germany","latitude":"50.36667000","longitude":"7.98333000","wikiDataId":"Q339103"},{"id":23601,"name":"Altenglan","stateId":3019,"stateCode":"RP","stateName":"Rhineland-Palatinate","countryId":82,"countryCode":"DE","countryName":"Germany","latitude":"49.55000000","longitude":"7.46667000","wikiDataId":"Q437110"},{"id":23605,"name":"Altenkirchen","stateId":3019,"stateCode":"RP","stateName":"Rhineland-Palatinate","countryId":82,"countryCode":"DE","countryName":"Germany","latitude":"50.68594000","longitude":"7.64176000","wikiDataId":"Q488373"},{"id":23627,"name":"Altleiningen","stateId":3019,"stateCode":"RP","stateName":"Rhineland-Palatinate","countryId":82,"countryCode":"DE","countryName":"Germany","latitude":"49.50750000","longitude":"8.07333000","wikiDataId":"Q442426"},{"id":23632,"name":"Altrich","stateId":3019,"stateCode":"RP","stateName":"Rhineland-Palatinate","countryId":82,"countryCode":"DE","countryName":"Germany","latitude":"49.95701000","longitude":"6.91217000","wikiDataId":"Q445040"},{"id":23633,"name":"Altrip","stateId":3019,"stateCode":"RP","stateName":"Rhineland-Palatinate","countryId":82,"countryCode":"DE","countryName":"Germany","latitude":"49.43556000","longitude":"8.49472000","wikiDataId":"Q22461"},{"id":23642,"name":"Alzey","stateId":3019,"stateCode":"RP","stateName":"Rhineland-Palatinate","countryId":82,"countryCode":"DE","countryName":"Germany","latitude":"49.74657000","longitude":"8.11513000","wikiDataId":"Q450726"},{"id":23654,"name":"Andernach","stateId":3019,"stateCode":"RP","stateName":"Rhineland-Palatinate","countryId":82,"countryCode":"DE","countryName":"Germany","latitude":"50.43109000","longitude":"7.40425000","wikiDataId":"Q490058"},{"id":23658,"name":"Anhausen","stateId":3019,"stateCode":"RP","stateName":"Rhineland-Palatinate","countryId":82,"countryCode":"DE","countryName":"Germany","latitude":"50.50000000","longitude":"7.55000000","wikiDataId":"Q545296"},{"id":23663,"name":"Annweiler am Trifels","stateId":3019,"stateCode":"RP","stateName":"Rhineland-Palatinate","countryId":82,"countryCode":"DE","countryName":"Germany","latitude":"49.20613000","longitude":"7.97527000","wikiDataId":"Q22953"},{"id":23678,"name":"Appenheim","stateId":3019,"stateCode":"RP","stateName":"Rhineland-Palatinate","countryId":82,"countryCode":"DE","countryName":"Germany","latitude":"49.93000000","longitude":"8.03333000","wikiDataId":"Q572452"},{"id":23682,"name":"Argenthal","stateId":3019,"stateCode":"RP","stateName":"Rhineland-Palatinate","countryId":82,"countryCode":"DE","countryName":"Germany","latitude":"49.96667000","longitude":"7.60000000","wikiDataId":"Q564613"},{"id":23683,"name":"Armsheim","stateId":3019,"stateCode":"RP","stateName":"Rhineland-Palatinate","countryId":82,"countryCode":"DE","countryName":"Germany","latitude":"49.80972000","longitude":"8.05667000","wikiDataId":"Q371728"},{"id":23695,"name":"Arzbach","stateId":3019,"stateCode":"RP","stateName":"Rhineland-Palatinate","countryId":82,"countryCode":"DE","countryName":"Germany","latitude":"50.37902000","longitude":"7.74948000","wikiDataId":"Q567126"},{"id":23698,"name":"Arzfeld","stateId":3019,"stateCode":"RP","stateName":"Rhineland-Palatinate","countryId":82,"countryCode":"DE","countryName":"Germany","latitude":"50.08957000","longitude":"6.27069000","wikiDataId":"Q543532"},{"id":23699,"name":"Asbach","stateId":3019,"stateCode":"RP","stateName":"Rhineland-Palatinate","countryId":82,"countryCode":"DE","countryName":"Germany","latitude":"50.66667000","longitude":"7.41667000","wikiDataId":"Q632039"},{"id":23746,"name":"Ayl","stateId":3019,"stateCode":"RP","stateName":"Rhineland-Palatinate","countryId":82,"countryCode":"DE","countryName":"Germany","latitude":"49.63333000","longitude":"6.55000000","wikiDataId":"Q186199"},{"id":23756,"name":"Bacharach","stateId":3019,"stateCode":"RP","stateName":"Rhineland-Palatinate","countryId":82,"countryCode":"DE","countryName":"Germany","latitude":"50.05725000","longitude":"7.76948000","wikiDataId":"Q523273"},{"id":23766,"name":"Bad Bergzabern","stateId":3019,"stateCode":"RP","stateName":"Rhineland-Palatinate","countryId":82,"countryCode":"DE","countryName":"Germany","latitude":"49.10245000","longitude":"8.00092000","wikiDataId":"Q426807"},{"id":23777,"name":"Bad Breisig","stateId":3019,"stateCode":"RP","stateName":"Rhineland-Palatinate","countryId":82,"countryCode":"DE","countryName":"Germany","latitude":"50.50523000","longitude":"7.28861000","wikiDataId":"Q541726"},{"id":23785,"name":"Bad Dürkheim","stateId":3019,"stateCode":"RP","stateName":"Rhineland-Palatinate","countryId":82,"countryCode":"DE","countryName":"Germany","latitude":"49.46180000","longitude":"8.17236000","wikiDataId":"Q22901"},{"id":23790,"name":"Bad Ems","stateId":3019,"stateCode":"RP","stateName":"Rhineland-Palatinate","countryId":82,"countryCode":"DE","countryName":"Germany","latitude":"50.33544000","longitude":"7.71369000","wikiDataId":"Q46856"},{"id":23810,"name":"Bad Hönningen","stateId":3019,"stateCode":"RP","stateName":"Rhineland-Palatinate","countryId":82,"countryCode":"DE","countryName":"Germany","latitude":"50.51689000","longitude":"7.31195000","wikiDataId":"Q537973"},{"id":23817,"name":"Bad Kreuznach","stateId":3019,"stateCode":"RP","stateName":"Rhineland-Palatinate","countryId":82,"countryCode":"DE","countryName":"Germany","latitude":"49.84140000","longitude":"7.86713000","wikiDataId":"Q7047"},{"id":23833,"name":"Bad Marienberg","stateId":3019,"stateCode":"RP","stateName":"Rhineland-Palatinate","countryId":82,"countryCode":"DE","countryName":"Germany","latitude":"50.64947000","longitude":"7.94958000","wikiDataId":"Q534491"},{"id":23838,"name":"Bad Münster am Stein-Ebernburg","stateId":3019,"stateCode":"RP","stateName":"Rhineland-Palatinate","countryId":82,"countryCode":"DE","countryName":"Germany","latitude":"49.81159000","longitude":"7.84523000","wikiDataId":"Q50894"},{"id":23842,"name":"Bad Neuenahr-Ahrweiler","stateId":3019,"stateCode":"RP","stateName":"Rhineland-Palatinate","countryId":82,"countryCode":"DE","countryName":"Germany","latitude":"50.54322000","longitude":"7.11130000","wikiDataId":"Q522620"},{"id":23894,"name":"Badem","stateId":3019,"stateCode":"RP","stateName":"Rhineland-Palatinate","countryId":82,"countryCode":"DE","countryName":"Germany","latitude":"50.00000000","longitude":"6.61667000","wikiDataId":"Q553458"},{"id":23920,"name":"Bann","stateId":3019,"stateCode":"RP","stateName":"Rhineland-Palatinate","countryId":82,"countryCode":"DE","countryName":"Germany","latitude":"49.38333000","longitude":"7.61667000","wikiDataId":"Q81117"},{"id":23952,"name":"Bassenheim","stateId":3019,"stateCode":"RP","stateName":"Rhineland-Palatinate","countryId":82,"countryCode":"DE","countryName":"Germany","latitude":"50.35820000","longitude":"7.45961000","wikiDataId":"Q566930"},{"id":23958,"name":"Baumholder","stateId":3019,"stateCode":"RP","stateName":"Rhineland-Palatinate","countryId":82,"countryCode":"DE","countryName":"Germany","latitude":"49.61738000","longitude":"7.33381000","wikiDataId":"Q541832"},{"id":23962,"name":"Bausendorf","stateId":3019,"stateCode":"RP","stateName":"Rhineland-Palatinate","countryId":82,"countryCode":"DE","countryName":"Germany","latitude":"50.01667000","longitude":"7.00000000","wikiDataId":"Q569296"},{"id":23972,"name":"Bechhofen","stateId":3019,"stateCode":"RP","stateName":"Rhineland-Palatinate","countryId":82,"countryCode":"DE","countryName":"Germany","latitude":"49.35000000","longitude":"7.40000000","wikiDataId":"Q558530"},{"id":23973,"name":"Bechtheim","stateId":3019,"stateCode":"RP","stateName":"Rhineland-Palatinate","countryId":82,"countryCode":"DE","countryName":"Germany","latitude":"49.72778000","longitude":"8.29222000","wikiDataId":"Q569599"},{"id":23974,"name":"Bechtolsheim","stateId":3019,"stateCode":"RP","stateName":"Rhineland-Palatinate","countryId":82,"countryCode":"DE","countryName":"Germany","latitude":"49.80417000","longitude":"8.19389000","wikiDataId":"Q554268"},{"id":23997,"name":"Beindersheim","stateId":3019,"stateCode":"RP","stateName":"Rhineland-Palatinate","countryId":82,"countryCode":"DE","countryName":"Germany","latitude":"49.56056000","longitude":"8.31944000","wikiDataId":"Q22987"},{"id":24000,"name":"Bell","stateId":3019,"stateCode":"RP","stateName":"Rhineland-Palatinate","countryId":82,"countryCode":"DE","countryName":"Germany","latitude":"50.06139000","longitude":"7.41515000","wikiDataId":"Q31909048"},{"id":24003,"name":"Bellheim","stateId":3019,"stateCode":"RP","stateName":"Rhineland-Palatinate","countryId":82,"countryCode":"DE","countryName":"Germany","latitude":"49.19833000","longitude":"8.27944000","wikiDataId":"Q552382"},{"id":24005,"name":"Beltheim","stateId":3019,"stateCode":"RP","stateName":"Rhineland-Palatinate","countryId":82,"countryCode":"DE","countryName":"Germany","latitude":"50.10606000","longitude":"7.46208000","wikiDataId":"Q562462"},{"id":24008,"name":"Bendorf","stateId":3019,"stateCode":"RP","stateName":"Rhineland-Palatinate","countryId":82,"countryCode":"DE","countryName":"Germany","latitude":"50.42289000","longitude":"7.57924000","wikiDataId":"Q708708"},{"id":24026,"name":"Berg","stateId":3019,"stateCode":"RP","stateName":"Rhineland-Palatinate","countryId":82,"countryCode":"DE","countryName":"Germany","latitude":"48.98403000","longitude":"8.20232000","wikiDataId":"Q31910376"},{"id":24067,"name":"Bernkastel-Kues","stateId":3019,"stateCode":"RP","stateName":"Rhineland-Palatinate","countryId":82,"countryCode":"DE","countryName":"Germany","latitude":"49.91602000","longitude":"7.07664000","wikiDataId":"Q155622"},{"id":24082,"name":"Bettingen","stateId":3019,"stateCode":"RP","stateName":"Rhineland-Palatinate","countryId":82,"countryCode":"DE","countryName":"Germany","latitude":"49.94211000","longitude":"6.40160000","wikiDataId":"Q555790"},{"id":24083,"name":"Betzdorf","stateId":3019,"stateCode":"RP","stateName":"Rhineland-Palatinate","countryId":82,"countryCode":"DE","countryName":"Germany","latitude":"50.79094000","longitude":"7.87189000","wikiDataId":"Q31911781"},{"id":24119,"name":"Billigheim-Ingenheim","stateId":3019,"stateCode":"RP","stateName":"Rhineland-Palatinate","countryId":82,"countryCode":"DE","countryName":"Germany","latitude":"49.13667000","longitude":"8.09056000","wikiDataId":"Q566068"},{"id":24124,"name":"Bingen am Rhein","stateId":3019,"stateCode":"RP","stateName":"Rhineland-Palatinate","countryId":82,"countryCode":"DE","countryName":"Germany","latitude":"49.96675000","longitude":"7.89920000","wikiDataId":"Q285879"},{"id":24126,"name":"Binsfeld","stateId":3019,"stateCode":"RP","stateName":"Rhineland-Palatinate","countryId":82,"countryCode":"DE","countryName":"Germany","latitude":"49.96667000","longitude":"6.71667000","wikiDataId":"Q569315"},{"id":24132,"name":"Birken-Honigsessen","stateId":3019,"stateCode":"RP","stateName":"Rhineland-Palatinate","countryId":82,"countryCode":"DE","countryName":"Germany","latitude":"50.81667000","longitude":"7.73333000","wikiDataId":"Q567715"},{"id":24135,"name":"Birkenfeld","stateId":3019,"stateCode":"RP","stateName":"Rhineland-Palatinate","countryId":82,"countryCode":"DE","countryName":"Germany","latitude":"49.65245000","longitude":"7.16668000","wikiDataId":"Q541850"},{"id":24137,"name":"Birkenheide","stateId":3019,"stateCode":"RP","stateName":"Rhineland-Palatinate","countryId":82,"countryCode":"DE","countryName":"Germany","latitude":"49.48139000","longitude":"8.26194000","wikiDataId":"Q553983"},{"id":24139,"name":"Birlenbach","stateId":3019,"stateCode":"RP","stateName":"Rhineland-Palatinate","countryId":82,"countryCode":"DE","countryName":"Germany","latitude":"50.35815000","longitude":"8.00273000","wikiDataId":"Q642839"},{"id":24140,"name":"Birresborn","stateId":3019,"stateCode":"RP","stateName":"Rhineland-Palatinate","countryId":82,"countryCode":"DE","countryName":"Germany","latitude":"50.18333000","longitude":"6.63333000","wikiDataId":"Q560493"},{"id":24159,"name":"Bitburg","stateId":3019,"stateCode":"RP","stateName":"Rhineland-Palatinate","countryId":82,"countryCode":"DE","countryName":"Germany","latitude":"49.96794000","longitude":"6.52734000","wikiDataId":"Q258974"},{"id":24171,"name":"Blankenrath","stateId":3019,"stateCode":"RP","stateName":"Rhineland-Palatinate","countryId":82,"countryCode":"DE","countryName":"Germany","latitude":"50.03898000","longitude":"7.30214000","wikiDataId":"Q539185"},{"id":24176,"name":"Bleialf","stateId":3019,"stateCode":"RP","stateName":"Rhineland-Palatinate","countryId":82,"countryCode":"DE","countryName":"Germany","latitude":"50.23333000","longitude":"6.28333000","wikiDataId":"Q553361"},{"id":24189,"name":"Bobenheim-Roxheim","stateId":3019,"stateCode":"RP","stateName":"Rhineland-Palatinate","countryId":82,"countryCode":"DE","countryName":"Germany","latitude":"49.58750000","longitude":"8.35778000","wikiDataId":"Q553997"},{"id":24197,"name":"Bockenau","stateId":3019,"stateCode":"RP","stateName":"Rhineland-Palatinate","countryId":82,"countryCode":"DE","countryName":"Germany","latitude":"49.83333000","longitude":"7.68333000","wikiDataId":"Q390399"},{"id":24199,"name":"Bockenheim","stateId":3019,"stateCode":"RP","stateName":"Rhineland-Palatinate","countryId":82,"countryCode":"DE","countryName":"Germany","latitude":"49.60669000","longitude":"8.18486000","wikiDataId":"Q22531"},{"id":24205,"name":"Bodenheim","stateId":3019,"stateCode":"RP","stateName":"Rhineland-Palatinate","countryId":82,"countryCode":"DE","countryName":"Germany","latitude":"49.93528000","longitude":"8.32000000","wikiDataId":"Q178532"},{"id":24465,"name":"Böhl-Iggelheim","stateId":3019,"stateCode":"RP","stateName":"Rhineland-Palatinate","countryId":82,"countryCode":"DE","countryName":"Germany","latitude":"49.38056000","longitude":"8.30389000","wikiDataId":"Q22972"},{"id":24221,"name":"Bolanden","stateId":3019,"stateCode":"RP","stateName":"Rhineland-Palatinate","countryId":82,"countryCode":"DE","countryName":"Germany","latitude":"49.63917000","longitude":"8.01194000","wikiDataId":"Q565866"},{"id":24224,"name":"Bollendorf","stateId":3019,"stateCode":"RP","stateName":"Rhineland-Palatinate","countryId":82,"countryCode":"DE","countryName":"Germany","latitude":"49.85268000","longitude":"6.35795000","wikiDataId":"Q544146"},{"id":24230,"name":"Bonefeld","stateId":3019,"stateCode":"RP","stateName":"Rhineland-Palatinate","countryId":82,"countryCode":"DE","countryName":"Germany","latitude":"50.52388000","longitude":"7.48932000","wikiDataId":"Q565769"},{"id":24237,"name":"Boppard","stateId":3019,"stateCode":"RP","stateName":"Rhineland-Palatinate","countryId":82,"countryCode":"DE","countryName":"Germany","latitude":"50.23085000","longitude":"7.58992000","wikiDataId":"Q521148"},{"id":24252,"name":"Bornheim","stateId":3019,"stateCode":"RP","stateName":"Rhineland-Palatinate","countryId":82,"countryCode":"DE","countryName":"Germany","latitude":"49.22250000","longitude":"8.16333000","wikiDataId":"Q508870"},{"id":24255,"name":"Bornich","stateId":3019,"stateCode":"RP","stateName":"Rhineland-Palatinate","countryId":82,"countryCode":"DE","countryName":"Germany","latitude":"50.12687000","longitude":"7.76580000","wikiDataId":"Q627780"},{"id":24269,"name":"Brachbach","stateId":3019,"stateCode":"RP","stateName":"Rhineland-Palatinate","countryId":82,"countryCode":"DE","countryName":"Germany","latitude":"50.81667000","longitude":"7.93333000","wikiDataId":"Q553698"},{"id":24285,"name":"Braubach","stateId":3019,"stateCode":"RP","stateName":"Rhineland-Palatinate","countryId":82,"countryCode":"DE","countryName":"Germany","latitude":"50.27360000","longitude":"7.64508000","wikiDataId":"Q509038"},{"id":24286,"name":"Brauneberg","stateId":3019,"stateCode":"RP","stateName":"Rhineland-Palatinate","countryId":82,"countryCode":"DE","countryName":"Germany","latitude":"49.90583000","longitude":"6.98127000","wikiDataId":"Q567156"},{"id":24316,"name":"Breitscheidt","stateId":3019,"stateCode":"RP","stateName":"Rhineland-Palatinate","countryId":82,"countryCode":"DE","countryName":"Germany","latitude":"50.75000000","longitude":"7.65000000","wikiDataId":"Q563914"},{"id":24326,"name":"Bretzenheim","stateId":3019,"stateCode":"RP","stateName":"Rhineland-Palatinate","countryId":82,"countryCode":"DE","countryName":"Germany","latitude":"49.87796000","longitude":"7.89653000","wikiDataId":"Q567288"},{"id":24329,"name":"Brey","stateId":3019,"stateCode":"RP","stateName":"Rhineland-Palatinate","countryId":82,"countryCode":"DE","countryName":"Germany","latitude":"50.27253000","longitude":"7.62645000","wikiDataId":"Q678831"},{"id":24330,"name":"Briedel","stateId":3019,"stateCode":"RP","stateName":"Rhineland-Palatinate","countryId":82,"countryCode":"DE","countryName":"Germany","latitude":"50.01667000","longitude":"7.15000000","wikiDataId":"Q565192"},{"id":24342,"name":"Brohl-Lützing","stateId":3019,"stateCode":"RP","stateName":"Rhineland-Palatinate","countryId":82,"countryCode":"DE","countryName":"Germany","latitude":"50.48296000","longitude":"7.32908000","wikiDataId":"Q384719"},{"id":24350,"name":"Bruchmühlbach-Miesau","stateId":3019,"stateCode":"RP","stateName":"Rhineland-Palatinate","countryId":82,"countryCode":"DE","countryName":"Germany","latitude":"49.38333000","longitude":"7.43333000","wikiDataId":"Q567192"},{"id":24352,"name":"Bruchweiler-Bärenbach","stateId":3019,"stateCode":"RP","stateName":"Rhineland-Palatinate","countryId":82,"countryCode":"DE","countryName":"Germany","latitude":"49.11667000","longitude":"7.80000000","wikiDataId":"Q565248"},{"id":24366,"name":"Brücken","stateId":3019,"stateCode":"RP","stateName":"Rhineland-Palatinate","countryId":82,"countryCode":"DE","countryName":"Germany","latitude":"49.43174000","longitude":"7.35998000","wikiDataId":"Q677054"},{"id":24363,"name":"Bruttig-Fankel","stateId":3019,"stateCode":"RP","stateName":"Rhineland-Palatinate","countryId":82,"countryCode":"DE","countryName":"Germany","latitude":"50.13333000","longitude":"7.23333000","wikiDataId":"Q574161"},{"id":24485,"name":"Büchel","stateId":3019,"stateCode":"RP","stateName":"Rhineland-Palatinate","countryId":82,"countryCode":"DE","countryName":"Germany","latitude":"50.17289000","longitude":"7.08318000","wikiDataId":"Q551404"},{"id":24488,"name":"Büchenbeuren","stateId":3019,"stateCode":"RP","stateName":"Rhineland-Palatinate","countryId":82,"countryCode":"DE","countryName":"Germany","latitude":"49.92097000","longitude":"7.27999000","wikiDataId":"Q528424"},{"id":24398,"name":"Budenheim","stateId":3019,"stateCode":"RP","stateName":"Rhineland-Palatinate","countryId":82,"countryCode":"DE","countryName":"Germany","latitude":"50.01667000","longitude":"8.16667000","wikiDataId":"Q818615"},{"id":24401,"name":"Bullay","stateId":3019,"stateCode":"RP","stateName":"Rhineland-Palatinate","countryId":82,"countryCode":"DE","countryName":"Germany","latitude":"50.05448000","longitude":"7.13730000","wikiDataId":"Q546257"},{"id":24403,"name":"Bundenbach","stateId":3019,"stateCode":"RP","stateName":"Rhineland-Palatinate","countryId":82,"countryCode":"DE","countryName":"Germany","latitude":"49.84280000","longitude":"7.37826000","wikiDataId":"Q564274"},{"id":24404,"name":"Bundenthal","stateId":3019,"stateCode":"RP","stateName":"Rhineland-Palatinate","countryId":82,"countryCode":"DE","countryName":"Germany","latitude":"49.09549000","longitude":"7.80839000","wikiDataId":"Q565856"},{"id":24414,"name":"Burgbrohl","stateId":3019,"stateCode":"RP","stateName":"Rhineland-Palatinate","countryId":82,"countryCode":"DE","countryName":"Germany","latitude":"50.45463000","longitude":"7.27720000","wikiDataId":"Q563764"},{"id":24431,"name":"Burgschwalbach","stateId":3019,"stateCode":"RP","stateName":"Rhineland-Palatinate","countryId":82,"countryCode":"DE","countryName":"Germany","latitude":"50.28333000","longitude":"8.08333000","wikiDataId":"Q562413"},{"id":24448,"name":"Busenberg","stateId":3019,"stateCode":"RP","stateName":"Rhineland-Palatinate","countryId":82,"countryCode":"DE","countryName":"Germany","latitude":"49.13024000","longitude":"7.82930000","wikiDataId":"Q560257"},{"id":24523,"name":"Carlsberg","stateId":3019,"stateCode":"RP","stateName":"Rhineland-Palatinate","countryId":82,"countryCode":"DE","countryName":"Germany","latitude":"49.50389000","longitude":"8.04167000","wikiDataId":"Q521626"},{"id":24537,"name":"Clausen","stateId":3019,"stateCode":"RP","stateName":"Rhineland-Palatinate","countryId":82,"countryCode":"DE","countryName":"Germany","latitude":"49.26075000","longitude":"7.67730000","wikiDataId":"Q586072"},{"id":24545,"name":"Cochem","stateId":3019,"stateCode":"RP","stateName":"Rhineland-Palatinate","countryId":82,"countryCode":"DE","countryName":"Germany","latitude":"50.14511000","longitude":"7.16379000","wikiDataId":"Q502749"},{"id":24551,"name":"Contwig","stateId":3019,"stateCode":"RP","stateName":"Rhineland-Palatinate","countryId":82,"countryCode":"DE","countryName":"Germany","latitude":"49.25000000","longitude":"7.43333000","wikiDataId":"Q567847"},{"id":24572,"name":"Daaden","stateId":3019,"stateCode":"RP","stateName":"Rhineland-Palatinate","countryId":82,"countryCode":"DE","countryName":"Germany","latitude":"50.73333000","longitude":"7.96667000","wikiDataId":"Q569821"},{"id":24575,"name":"Dachsenhausen","stateId":3019,"stateCode":"RP","stateName":"Rhineland-Palatinate","countryId":82,"countryCode":"DE","countryName":"Germany","latitude":"50.25415000","longitude":"7.72725000","wikiDataId":"Q566970"},{"id":24584,"name":"Dahn","stateId":3019,"stateCode":"RP","stateName":"Rhineland-Palatinate","countryId":82,"countryCode":"DE","countryName":"Germany","latitude":"49.15098000","longitude":"7.77843000","wikiDataId":"Q570408"},{"id":24586,"name":"Dalheim","stateId":3019,"stateCode":"RP","stateName":"Rhineland-Palatinate","countryId":82,"countryCode":"DE","countryName":"Germany","latitude":"49.82667000","longitude":"8.29528000","wikiDataId":"Q666198"},{"id":24594,"name":"Dannstadt-Schauernheim","stateId":3019,"stateCode":"RP","stateName":"Rhineland-Palatinate","countryId":82,"countryCode":"DE","countryName":"Germany","latitude":"49.44028000","longitude":"8.30861000","wikiDataId":"Q567207"},{"id":24603,"name":"Dattenberg","stateId":3019,"stateCode":"RP","stateName":"Rhineland-Palatinate","countryId":82,"countryCode":"DE","countryName":"Germany","latitude":"50.55362000","longitude":"7.29393000","wikiDataId":"Q566724"},{"id":24605,"name":"Daun","stateId":3019,"stateCode":"RP","stateName":"Rhineland-Palatinate","countryId":82,"countryCode":"DE","countryName":"Germany","latitude":"50.19716000","longitude":"6.82942000","wikiDataId":"Q81442"},{"id":24606,"name":"Dausenau","stateId":3019,"stateCode":"RP","stateName":"Rhineland-Palatinate","countryId":82,"countryCode":"DE","countryName":"Germany","latitude":"50.33333000","longitude":"7.76667000","wikiDataId":"Q569120"},{"id":24613,"name":"Deidesheim","stateId":3019,"stateCode":"RP","stateName":"Rhineland-Palatinate","countryId":82,"countryCode":"DE","countryName":"Germany","latitude":"49.40782000","longitude":"8.18445000","wikiDataId":"Q22951"},{"id":24624,"name":"Dellfeld","stateId":3019,"stateCode":"RP","stateName":"Rhineland-Palatinate","countryId":82,"countryCode":"DE","countryName":"Germany","latitude":"49.23397000","longitude":"7.47399000","wikiDataId":"Q567723"},{"id":24638,"name":"Dernau","stateId":3019,"stateCode":"RP","stateName":"Rhineland-Palatinate","countryId":82,"countryCode":"DE","countryName":"Germany","latitude":"50.53333000","longitude":"7.05000000","wikiDataId":"Q566415"},{"id":24639,"name":"Dernbach","stateId":3019,"stateCode":"RP","stateName":"Rhineland-Palatinate","countryId":82,"countryCode":"DE","countryName":"Germany","latitude":"50.45551000","longitude":"7.79003000","wikiDataId":"Q31951124"},{"id":24640,"name":"Derschen","stateId":3019,"stateCode":"RP","stateName":"Rhineland-Palatinate","countryId":82,"countryCode":"DE","countryName":"Germany","latitude":"50.71667000","longitude":"7.98333000","wikiDataId":"Q543732"},{"id":24661,"name":"Dexheim","stateId":3019,"stateCode":"RP","stateName":"Rhineland-Palatinate","countryId":82,"countryCode":"DE","countryName":"Germany","latitude":"49.84722000","longitude":"8.31667000","wikiDataId":"Q630928"},{"id":24664,"name":"Dieblich","stateId":3019,"stateCode":"RP","stateName":"Rhineland-Palatinate","countryId":82,"countryCode":"DE","countryName":"Germany","latitude":"50.31396000","longitude":"7.47185000","wikiDataId":"Q565313"},{"id":24669,"name":"Dienheim","stateId":3019,"stateCode":"RP","stateName":"Rhineland-Palatinate","countryId":82,"countryCode":"DE","countryName":"Germany","latitude":"49.83722000","longitude":"8.34972000","wikiDataId":"Q650305"},{"id":24671,"name":"Dierdorf","stateId":3019,"stateCode":"RP","stateName":"Rhineland-Palatinate","countryId":82,"countryCode":"DE","countryName":"Germany","latitude":"50.54647000","longitude":"7.65271000","wikiDataId":"Q537915"},{"id":24687,"name":"Diez","stateId":3019,"stateCode":"RP","stateName":"Rhineland-Palatinate","countryId":82,"countryCode":"DE","countryName":"Germany","latitude":"50.37419000","longitude":"8.00735000","wikiDataId":"Q31953930"},{"id":24703,"name":"Dirmstein","stateId":3019,"stateCode":"RP","stateName":"Rhineland-Palatinate","countryId":82,"countryCode":"DE","countryName":"Germany","latitude":"49.56333000","longitude":"8.24472000","wikiDataId":"Q22538"},{"id":24708,"name":"Dittelsheim-Heßloch","stateId":3019,"stateCode":"RP","stateName":"Rhineland-Palatinate","countryId":82,"countryCode":"DE","countryName":"Germany","latitude":"49.74389000","longitude":"8.23694000","wikiDataId":"Q567691"},{"id":24726,"name":"Dommershausen","stateId":3019,"stateCode":"RP","stateName":"Rhineland-Palatinate","countryId":82,"countryCode":"DE","countryName":"Germany","latitude":"50.15000000","longitude":"7.40000000","wikiDataId":"Q562469"},{"id":24801,"name":"Dörrenbach","stateId":3019,"stateCode":"RP","stateName":"Rhineland-Palatinate","countryId":82,"countryCode":"DE","countryName":"Germany","latitude":"49.08972000","longitude":"7.96140000","wikiDataId":"Q22467"},{"id":24762,"name":"Dreikirchen","stateId":3019,"stateCode":"RP","stateName":"Rhineland-Palatinate","countryId":82,"countryCode":"DE","countryName":"Germany","latitude":"50.43333000","longitude":"7.95000000","wikiDataId":"Q628840"},{"id":24763,"name":"Dreis","stateId":3019,"stateCode":"RP","stateName":"Rhineland-Palatinate","countryId":82,"countryCode":"DE","countryName":"Germany","latitude":"49.94090000","longitude":"6.81845000","wikiDataId":"Q563974"},{"id":24764,"name":"Dreisen","stateId":3019,"stateCode":"RP","stateName":"Rhineland-Palatinate","countryId":82,"countryCode":"DE","countryName":"Germany","latitude":"49.60333000","longitude":"8.01056000","wikiDataId":"Q561681"},{"id":24775,"name":"Dudeldorf","stateId":3019,"stateCode":"RP","stateName":"Rhineland-Palatinate","countryId":82,"countryCode":"DE","countryName":"Germany","latitude":"49.97494000","longitude":"6.63724000","wikiDataId":"Q544185"},{"id":24776,"name":"Dudenhofen","stateId":3019,"stateCode":"RP","stateName":"Rhineland-Palatinate","countryId":82,"countryCode":"DE","countryName":"Germany","latitude":"49.31861000","longitude":"8.38861000","wikiDataId":"Q567746"},{"id":24807,"name":"Düngenheim","stateId":3019,"stateCode":"RP","stateName":"Rhineland-Palatinate","countryId":82,"countryCode":"DE","countryName":"Germany","latitude":"50.26062000","longitude":"7.16523000","wikiDataId":"Q567785"},{"id":24831,"name":"Ebernhahn","stateId":3019,"stateCode":"RP","stateName":"Rhineland-Palatinate","countryId":82,"countryCode":"DE","countryName":"Germany","latitude":"50.47278000","longitude":"7.77000000","wikiDataId":"Q564021"},{"id":24840,"name":"Ebertsheim","stateId":3019,"stateCode":"RP","stateName":"Rhineland-Palatinate","countryId":82,"countryCode":"DE","countryName":"Germany","latitude":"49.56833000","longitude":"8.10861000","wikiDataId":"Q22532"},{"id":24855,"name":"Edenkoben","stateId":3019,"stateCode":"RP","stateName":"Rhineland-Palatinate","countryId":82,"countryCode":"DE","countryName":"Germany","latitude":"49.28393000","longitude":"8.12714000","wikiDataId":"Q537985"},{"id":24858,"name":"Edesheim","stateId":3019,"stateCode":"RP","stateName":"Rhineland-Palatinate","countryId":82,"countryCode":"DE","countryName":"Germany","latitude":"49.26333000","longitude":"8.13500000","wikiDataId":"Q23022"},{"id":24860,"name":"Ediger-Eller","stateId":3019,"stateCode":"RP","stateName":"Rhineland-Palatinate","countryId":82,"countryCode":"DE","countryName":"Germany","latitude":"50.11667000","longitude":"7.15000000","wikiDataId":"Q547805"},{"id":24890,"name":"Ehlscheid","stateId":3019,"stateCode":"RP","stateName":"Rhineland-Palatinate","countryId":82,"countryCode":"DE","countryName":"Germany","latitude":"50.51448000","longitude":"7.46655000","wikiDataId":"Q586033"},{"id":24927,"name":"Eisenberg","stateId":3019,"stateCode":"RP","stateName":"Rhineland-Palatinate","countryId":82,"countryCode":"DE","countryName":"Germany","latitude":"49.55859000","longitude":"8.07199000","wikiDataId":"Q31987709"},{"id":24935,"name":"Eitelborn","stateId":3019,"stateCode":"RP","stateName":"Rhineland-Palatinate","countryId":82,"countryCode":"DE","countryName":"Germany","latitude":"50.37806000","longitude":"7.72333000","wikiDataId":"Q570311"},{"id":24945,"name":"Elkenroth","stateId":3019,"stateCode":"RP","stateName":"Rhineland-Palatinate","countryId":82,"countryCode":"DE","countryName":"Germany","latitude":"50.73333000","longitude":"7.88333000","wikiDataId":"Q559960"},{"id":24951,"name":"Ellerstadt","stateId":3019,"stateCode":"RP","stateName":"Rhineland-Palatinate","countryId":82,"countryCode":"DE","countryName":"Germany","latitude":"49.46167000","longitude":"8.25944000","wikiDataId":"Q23017"},{"id":24961,"name":"Elmstein","stateId":3019,"stateCode":"RP","stateName":"Rhineland-Palatinate","countryId":82,"countryCode":"DE","countryName":"Germany","latitude":"49.36667000","longitude":"7.93333000","wikiDataId":"Q566064"},{"id":24987,"name":"Emmelshausen","stateId":3019,"stateCode":"RP","stateName":"Rhineland-Palatinate","countryId":82,"countryCode":"DE","countryName":"Germany","latitude":"50.15484000","longitude":"7.55185000","wikiDataId":"Q539565"},{"id":25008,"name":"Enkenbach-Alsenborn","stateId":3019,"stateCode":"RP","stateName":"Rhineland-Palatinate","countryId":82,"countryCode":"DE","countryName":"Germany","latitude":"49.48333000","longitude":"7.90000000","wikiDataId":"Q81423"},{"id":25009,"name":"Enkirch","stateId":3019,"stateCode":"RP","stateName":"Rhineland-Palatinate","countryId":82,"countryCode":"DE","countryName":"Germany","latitude":"49.98434000","longitude":"7.12997000","wikiDataId":"Q553838"},{"id":25020,"name":"Eppelsheim","stateId":3019,"stateCode":"RP","stateName":"Rhineland-Palatinate","countryId":82,"countryCode":"DE","countryName":"Germany","latitude":"49.70556000","longitude":"8.16528000","wikiDataId":"Q569785"},{"id":25021,"name":"Eppenbrunn","stateId":3019,"stateCode":"RP","stateName":"Rhineland-Palatinate","countryId":82,"countryCode":"DE","countryName":"Germany","latitude":"49.11667000","longitude":"7.56667000","wikiDataId":"Q565853"},{"id":25030,"name":"Erbes-Büdesheim","stateId":3019,"stateCode":"RP","stateName":"Rhineland-Palatinate","countryId":82,"countryCode":"DE","countryName":"Germany","latitude":"49.75444000","longitude":"8.03139000","wikiDataId":"Q563950"},{"id":25039,"name":"Erfweiler","stateId":3019,"stateCode":"RP","stateName":"Rhineland-Palatinate","countryId":82,"countryCode":"DE","countryName":"Germany","latitude":"49.15712000","longitude":"7.81231000","wikiDataId":"Q1729"},{"id":25067,"name":"Erpel","stateId":3019,"stateCode":"RP","stateName":"Rhineland-Palatinate","countryId":82,"countryCode":"DE","countryName":"Germany","latitude":"50.58333000","longitude":"7.23333000","wikiDataId":"Q566435"},{"id":25068,"name":"Erpolzheim","stateId":3019,"stateCode":"RP","stateName":"Rhineland-Palatinate","countryId":82,"countryCode":"DE","countryName":"Germany","latitude":"49.48917000","longitude":"8.22472000","wikiDataId":"Q22526"},{"id":25097,"name":"Essenheim","stateId":3019,"stateCode":"RP","stateName":"Rhineland-Palatinate","countryId":82,"countryCode":"DE","countryName":"Germany","latitude":"49.93056000","longitude":"8.15556000","wikiDataId":"Q572400"},{"id":25100,"name":"Essingen","stateId":3019,"stateCode":"RP","stateName":"Rhineland-Palatinate","countryId":82,"countryCode":"DE","countryName":"Germany","latitude":"49.23583000","longitude":"8.17472000","wikiDataId":"Q174307"},{"id":25104,"name":"Esthal","stateId":3019,"stateCode":"RP","stateName":"Rhineland-Palatinate","countryId":82,"countryCode":"DE","countryName":"Germany","latitude":"49.38333000","longitude":"7.98333000","wikiDataId":"Q566061"},{"id":25108,"name":"Ettringen","stateId":3019,"stateCode":"RP","stateName":"Rhineland-Palatinate","countryId":82,"countryCode":"DE","countryName":"Germany","latitude":"50.35000000","longitude":"7.21667000","wikiDataId":"Q14893"},{"id":25110,"name":"Etzbach","stateId":3019,"stateCode":"RP","stateName":"Rhineland-Palatinate","countryId":82,"countryCode":"DE","countryName":"Germany","latitude":"50.77831000","longitude":"7.68800000","wikiDataId":"Q563128"},{"id":25125,"name":"Fachbach","stateId":3019,"stateCode":"RP","stateName":"Rhineland-Palatinate","countryId":82,"countryCode":"DE","countryName":"Germany","latitude":"50.33333000","longitude":"7.68333000","wikiDataId":"Q573466"},{"id":25130,"name":"Faid","stateId":3019,"stateCode":"RP","stateName":"Rhineland-Palatinate","countryId":82,"countryCode":"DE","countryName":"Germany","latitude":"50.14454000","longitude":"7.11951000","wikiDataId":"Q567212"},{"id":25150,"name":"Feilbingert","stateId":3019,"stateCode":"RP","stateName":"Rhineland-Palatinate","countryId":82,"countryCode":"DE","countryName":"Germany","latitude":"49.76667000","longitude":"7.80000000","wikiDataId":"Q567663"},{"id":25158,"name":"Fell","stateId":3019,"stateCode":"RP","stateName":"Rhineland-Palatinate","countryId":82,"countryCode":"DE","countryName":"Germany","latitude":"49.76667000","longitude":"6.78333000","wikiDataId":"Q1402836"},{"id":25179,"name":"Fischbach","stateId":3019,"stateCode":"RP","stateName":"Rhineland-Palatinate","countryId":82,"countryCode":"DE","countryName":"Germany","latitude":"49.08771000","longitude":"7.71160000","wikiDataId":"Q32006991"},{"id":25183,"name":"Flacht","stateId":3019,"stateCode":"RP","stateName":"Rhineland-Palatinate","countryId":82,"countryCode":"DE","countryName":"Germany","latitude":"50.34528000","longitude":"8.05028000","wikiDataId":"Q554022"},{"id":25185,"name":"Flammersfeld","stateId":3019,"stateCode":"RP","stateName":"Rhineland-Palatinate","countryId":82,"countryCode":"DE","countryName":"Germany","latitude":"50.64711000","longitude":"7.52713000","wikiDataId":"Q568197"},{"id":25194,"name":"Flomborn","stateId":3019,"stateCode":"RP","stateName":"Rhineland-Palatinate","countryId":82,"countryCode":"DE","countryName":"Germany","latitude":"49.69056000","longitude":"8.14917000","wikiDataId":"Q566022"},{"id":25195,"name":"Flonheim","stateId":3019,"stateCode":"RP","stateName":"Rhineland-Palatinate","countryId":82,"countryCode":"DE","countryName":"Germany","latitude":"49.78500000","longitude":"8.04000000","wikiDataId":"Q553680"},{"id":25321,"name":"Föhren","stateId":3019,"stateCode":"RP","stateName":"Rhineland-Palatinate","countryId":82,"countryCode":"DE","countryName":"Germany","latitude":"49.85929000","longitude":"6.76480000","wikiDataId":"Q543244"},{"id":25210,"name":"Framersheim","stateId":3019,"stateCode":"RP","stateName":"Rhineland-Palatinate","countryId":82,"countryCode":"DE","countryName":"Germany","latitude":"49.75806000","longitude":"8.17417000","wikiDataId":"Q553509"},{"id":25217,"name":"Frankenstein","stateId":3019,"stateCode":"RP","stateName":"Rhineland-Palatinate","countryId":82,"countryCode":"DE","countryName":"Germany","latitude":"49.44015000","longitude":"7.97744000","wikiDataId":"Q32016272"},{"id":25218,"name":"Frankenthal","stateId":3019,"stateCode":"RP","stateName":"Rhineland-Palatinate","countryId":82,"countryCode":"DE","countryName":"Germany","latitude":"49.53414000","longitude":"8.35357000","wikiDataId":"Q6905"},{"id":25235,"name":"Freckenfeld","stateId":3019,"stateCode":"RP","stateName":"Rhineland-Palatinate","countryId":82,"countryCode":"DE","countryName":"Germany","latitude":"49.06500000","longitude":"8.11389000","wikiDataId":"Q567261"},{"id":25237,"name":"Frei-Laubersheim","stateId":3019,"stateCode":"RP","stateName":"Rhineland-Palatinate","countryId":82,"countryCode":"DE","countryName":"Germany","latitude":"49.80000000","longitude":"7.90000000","wikiDataId":"Q565120"},{"id":25248,"name":"Freinsheim","stateId":3019,"stateCode":"RP","stateName":"Rhineland-Palatinate","countryId":82,"countryCode":"DE","countryName":"Germany","latitude":"49.50649000","longitude":"8.21186000","wikiDataId":"Q539630"},{"id":25249,"name":"Freisbach","stateId":3019,"stateCode":"RP","stateName":"Rhineland-Palatinate","countryId":82,"countryCode":"DE","countryName":"Germany","latitude":"49.27167000","longitude":"8.27194000","wikiDataId":"Q567245"},{"id":25259,"name":"Freudenburg","stateId":3019,"stateCode":"RP","stateName":"Rhineland-Palatinate","countryId":82,"countryCode":"DE","countryName":"Germany","latitude":"49.54348000","longitude":"6.53292000","wikiDataId":"Q569706"},{"id":25273,"name":"Friedelsheim","stateId":3019,"stateCode":"RP","stateName":"Rhineland-Palatinate","countryId":82,"countryCode":"DE","countryName":"Germany","latitude":"49.44694000","longitude":"8.22306000","wikiDataId":"Q22984"},{"id":25280,"name":"Friedewald","stateId":3019,"stateCode":"RP","stateName":"Rhineland-Palatinate","countryId":82,"countryCode":"DE","countryName":"Germany","latitude":"50.71106000","longitude":"7.96040000","wikiDataId":"Q624067"},{"id":25298,"name":"Friesenhagen","stateId":3019,"stateCode":"RP","stateName":"Rhineland-Palatinate","countryId":82,"countryCode":"DE","countryName":"Germany","latitude":"50.90377000","longitude":"7.80961000","wikiDataId":"Q627732"},{"id":25325,"name":"Fürfeld","stateId":3019,"stateCode":"RP","stateName":"Rhineland-Palatinate","countryId":82,"countryCode":"DE","countryName":"Germany","latitude":"49.77737000","longitude":"7.89264000","wikiDataId":"Q564247"},{"id":25338,"name":"Fürthen","stateId":3019,"stateCode":"RP","stateName":"Rhineland-Palatinate","countryId":82,"countryCode":"DE","countryName":"Germany","latitude":"50.78333000","longitude":"7.66667000","wikiDataId":"Q564240"},{"id":25320,"name":"Fußgönheim","stateId":3019,"stateCode":"RP","stateName":"Rhineland-Palatinate","countryId":82,"countryCode":"DE","countryName":"Germany","latitude":"49.46111000","longitude":"8.29222000","wikiDataId":"Q22460"},{"id":25371,"name":"Gartenstadt","stateId":3019,"stateCode":"RP","stateName":"Rhineland-Palatinate","countryId":82,"countryCode":"DE","countryName":"Germany","latitude":"49.45937000","longitude":"8.40377000","wikiDataId":"Q639664"},{"id":25378,"name":"Gau-Algesheim","stateId":3019,"stateCode":"RP","stateName":"Rhineland-Palatinate","countryId":82,"countryCode":"DE","countryName":"Germany","latitude":"49.95669000","longitude":"8.01569000","wikiDataId":"Q570316"},{"id":25379,"name":"Gau-Bickelheim","stateId":3019,"stateCode":"RP","stateName":"Rhineland-Palatinate","countryId":82,"countryCode":"DE","countryName":"Germany","latitude":"49.83528000","longitude":"8.02056000","wikiDataId":"Q610873"},{"id":25380,"name":"Gau-Bischofsheim","stateId":3019,"stateCode":"RP","stateName":"Rhineland-Palatinate","countryId":82,"countryCode":"DE","countryName":"Germany","latitude":"49.91583000","longitude":"8.27278000","wikiDataId":"Q678819"},{"id":25381,"name":"Gau-Odernheim","stateId":3019,"stateCode":"RP","stateName":"Rhineland-Palatinate","countryId":82,"countryCode":"DE","countryName":"Germany","latitude":"49.78472000","longitude":"8.19417000","wikiDataId":"Q653864"},{"id":25385,"name":"Gebhardshain","stateId":3019,"stateCode":"RP","stateName":"Rhineland-Palatinate","countryId":82,"countryCode":"DE","countryName":"Germany","latitude":"50.75000000","longitude":"7.81667000","wikiDataId":"Q638852"},{"id":25422,"name":"Gemünden","stateId":3019,"stateCode":"RP","stateName":"Rhineland-Palatinate","countryId":82,"countryCode":"DE","countryName":"Germany","latitude":"49.89444000","longitude":"7.47750000","wikiDataId":"Q650841"},{"id":25427,"name":"Gensingen","stateId":3019,"stateCode":"RP","stateName":"Rhineland-Palatinate","countryId":82,"countryCode":"DE","countryName":"Germany","latitude":"49.90000000","longitude":"7.93333000","wikiDataId":"Q678407"},{"id":25446,"name":"Germersheim","stateId":3019,"stateCode":"RP","stateName":"Rhineland-Palatinate","countryId":82,"countryCode":"DE","countryName":"Germany","latitude":"49.22306000","longitude":"8.36389000","wikiDataId":"Q22629"},{"id":25455,"name":"Gerolsheim","stateId":3019,"stateCode":"RP","stateName":"Rhineland-Palatinate","countryId":82,"countryCode":"DE","countryName":"Germany","latitude":"49.54778000","longitude":"8.26389000","wikiDataId":"Q22524"},{"id":25456,"name":"Gerolstein","stateId":3019,"stateCode":"RP","stateName":"Rhineland-Palatinate","countryId":82,"countryCode":"DE","countryName":"Germany","latitude":"50.22224000","longitude":"6.65984000","wikiDataId":"Q389985"},{"id":25490,"name":"Gillenfeld","stateId":3019,"stateCode":"RP","stateName":"Rhineland-Palatinate","countryId":82,"countryCode":"DE","countryName":"Germany","latitude":"50.12790000","longitude":"6.90383000","wikiDataId":"Q659751"},{"id":25493,"name":"Gimbsheim","stateId":3019,"stateCode":"RP","stateName":"Rhineland-Palatinate","countryId":82,"countryCode":"DE","countryName":"Germany","latitude":"49.77778000","longitude":"8.37500000","wikiDataId":"Q565408"},{"id":25497,"name":"Girod","stateId":3019,"stateCode":"RP","stateName":"Rhineland-Palatinate","countryId":82,"countryCode":"DE","countryName":"Germany","latitude":"50.45000000","longitude":"7.91667000","wikiDataId":"Q674063"},{"id":25501,"name":"Glan-Münchweiler","stateId":3019,"stateCode":"RP","stateName":"Rhineland-Palatinate","countryId":82,"countryCode":"DE","countryName":"Germany","latitude":"49.47222000","longitude":"7.44204000","wikiDataId":"Q646584"},{"id":25777,"name":"Göllheim","stateId":3019,"stateCode":"RP","stateName":"Rhineland-Palatinate","countryId":82,"countryCode":"DE","countryName":"Germany","latitude":"49.59500000","longitude":"8.05083000","wikiDataId":"Q566711"},{"id":25540,"name":"Gommersheim","stateId":3019,"stateCode":"RP","stateName":"Rhineland-Palatinate","countryId":82,"countryCode":"DE","countryName":"Germany","latitude":"49.29111000","longitude":"8.26583000","wikiDataId":"Q50880"},{"id":25542,"name":"Gondershausen","stateId":3019,"stateCode":"RP","stateName":"Rhineland-Palatinate","countryId":82,"countryCode":"DE","countryName":"Germany","latitude":"50.15000000","longitude":"7.50000000","wikiDataId":"Q509532"},{"id":25778,"name":"Gönnheim","stateId":3019,"stateCode":"RP","stateName":"Rhineland-Palatinate","countryId":82,"countryCode":"DE","countryName":"Germany","latitude":"49.44806000","longitude":"8.23861000","wikiDataId":"Q553267"},{"id":25548,"name":"Gossersweiler-Stein","stateId":3019,"stateCode":"RP","stateName":"Rhineland-Palatinate","countryId":82,"countryCode":"DE","countryName":"Germany","latitude":"49.15000000","longitude":"7.93333000","wikiDataId":"Q648853"},{"id":25594,"name":"Greimerath","stateId":3019,"stateCode":"RP","stateName":"Rhineland-Palatinate","countryId":82,"countryCode":"DE","countryName":"Germany","latitude":"49.56155000","longitude":"6.68374000","wikiDataId":"Q545202"},{"id":25607,"name":"Gries","stateId":3019,"stateCode":"RP","stateName":"Rhineland-Palatinate","countryId":82,"countryCode":"DE","countryName":"Germany","latitude":"49.41667000","longitude":"7.40000000","wikiDataId":"Q679243"},{"id":25613,"name":"Grolsheim","stateId":3019,"stateCode":"RP","stateName":"Rhineland-Palatinate","countryId":82,"countryCode":"DE","countryName":"Germany","latitude":"49.90834000","longitude":"7.91599000","wikiDataId":"Q688801"},{"id":25680,"name":"Großholbach","stateId":3019,"stateCode":"RP","stateName":"Rhineland-Palatinate","countryId":82,"countryCode":"DE","countryName":"Germany","latitude":"50.45000000","longitude":"7.88333000","wikiDataId":"Q502986"},{"id":25681,"name":"Großkarlbach","stateId":3019,"stateCode":"RP","stateName":"Rhineland-Palatinate","countryId":82,"countryCode":"DE","countryName":"Germany","latitude":"49.53833000","longitude":"8.22472000","wikiDataId":"Q22525"},{"id":25690,"name":"Großlittgen","stateId":3019,"stateCode":"RP","stateName":"Rhineland-Palatinate","countryId":82,"countryCode":"DE","countryName":"Germany","latitude":"50.02787000","longitude":"6.79865000","wikiDataId":"Q656098"},{"id":25691,"name":"Großmaischeid","stateId":3019,"stateCode":"RP","stateName":"Rhineland-Palatinate","countryId":82,"countryCode":"DE","countryName":"Germany","latitude":"50.50000000","longitude":"7.63333000","wikiDataId":"Q651274"},{"id":25694,"name":"Großniedesheim","stateId":3019,"stateCode":"RP","stateName":"Rhineland-Palatinate","countryId":82,"countryCode":"DE","countryName":"Germany","latitude":"49.57528000","longitude":"8.31222000","wikiDataId":"Q653842"},{"id":25744,"name":"Grünstadt","stateId":3019,"stateCode":"RP","stateName":"Rhineland-Palatinate","countryId":82,"countryCode":"DE","countryName":"Germany","latitude":"49.56302000","longitude":"8.16279000","wikiDataId":"Q22956"},{"id":25791,"name":"Gückingen","stateId":3019,"stateCode":"RP","stateName":"Rhineland-Palatinate","countryId":82,"countryCode":"DE","countryName":"Germany","latitude":"50.39091000","longitude":"8.00726000","wikiDataId":"Q560389"},{"id":25758,"name":"Gundersheim","stateId":3019,"stateCode":"RP","stateName":"Rhineland-Palatinate","countryId":82,"countryCode":"DE","countryName":"Germany","latitude":"49.69611000","longitude":"8.20250000","wikiDataId":"Q566919"},{"id":25760,"name":"Guntersblum","stateId":3019,"stateCode":"RP","stateName":"Rhineland-Palatinate","countryId":82,"countryCode":"DE","countryName":"Germany","latitude":"49.79750000","longitude":"8.34556000","wikiDataId":"Q656289"},{"id":25762,"name":"Gusenburg","stateId":3019,"stateCode":"RP","stateName":"Rhineland-Palatinate","countryId":82,"countryCode":"DE","countryName":"Germany","latitude":"49.63333000","longitude":"6.90000000","wikiDataId":"Q429087"},{"id":25763,"name":"Gusterath","stateId":3019,"stateCode":"RP","stateName":"Rhineland-Palatinate","countryId":82,"countryCode":"DE","countryName":"Germany","latitude":"49.70000000","longitude":"6.71667000","wikiDataId":"Q429087"},{"id":25766,"name":"Gutenberg","stateId":3019,"stateCode":"RP","stateName":"Rhineland-Palatinate","countryId":82,"countryCode":"DE","countryName":"Germany","latitude":"49.88333000","longitude":"7.80000000","wikiDataId":"Q538615"},{"id":25810,"name":"Hachenburg","stateId":3019,"stateCode":"RP","stateName":"Rhineland-Palatinate","countryId":82,"countryCode":"DE","countryName":"Germany","latitude":"50.65998000","longitude":"7.82276000","wikiDataId":"Q534476"},{"id":25811,"name":"Hackenheim","stateId":3019,"stateCode":"RP","stateName":"Rhineland-Palatinate","countryId":82,"countryCode":"DE","countryName":"Germany","latitude":"49.82524000","longitude":"7.89907000","wikiDataId":"Q561674"},{"id":25820,"name":"Hagenbach","stateId":3019,"stateCode":"RP","stateName":"Rhineland-Palatinate","countryId":82,"countryCode":"DE","countryName":"Germany","latitude":"49.01734000","longitude":"8.25024000","wikiDataId":"Q541669"},{"id":25826,"name":"Hahnheim","stateId":3019,"stateCode":"RP","stateName":"Rhineland-Palatinate","countryId":82,"countryCode":"DE","countryName":"Germany","latitude":"49.86083000","longitude":"8.23694000","wikiDataId":"Q617192"},{"id":25827,"name":"Hahnstätten","stateId":3019,"stateCode":"RP","stateName":"Rhineland-Palatinate","countryId":82,"countryCode":"DE","countryName":"Germany","latitude":"50.30000000","longitude":"8.06667000","wikiDataId":"Q553988"},{"id":25859,"name":"Halsenbach","stateId":3019,"stateCode":"RP","stateName":"Rhineland-Palatinate","countryId":82,"countryCode":"DE","countryName":"Germany","latitude":"50.17174000","longitude":"7.55673000","wikiDataId":"Q561631"},{"id":25874,"name":"Hamm","stateId":3019,"stateCode":"RP","stateName":"Rhineland-Palatinate","countryId":82,"countryCode":"DE","countryName":"Germany","latitude":"50.76531000","longitude":"7.67761000","wikiDataId":"Q2880"},{"id":25888,"name":"Hanhofen","stateId":3019,"stateCode":"RP","stateName":"Rhineland-Palatinate","countryId":82,"countryCode":"DE","countryName":"Germany","latitude":"49.31667000","longitude":"8.34083000","wikiDataId":"Q567293"},{"id":25903,"name":"Hargesheim","stateId":3019,"stateCode":"RP","stateName":"Rhineland-Palatinate","countryId":82,"countryCode":"DE","countryName":"Germany","latitude":"49.86230000","longitude":"7.82881000","wikiDataId":"Q567710"},{"id":25915,"name":"Harthausen","stateId":3019,"stateCode":"RP","stateName":"Rhineland-Palatinate","countryId":82,"countryCode":"DE","countryName":"Germany","latitude":"49.29417000","longitude":"8.34500000","wikiDataId":"Q566942"},{"id":25918,"name":"Harxheim","stateId":3019,"stateCode":"RP","stateName":"Rhineland-Palatinate","countryId":82,"countryCode":"DE","countryName":"Germany","latitude":"49.90528000","longitude":"8.26417000","wikiDataId":"Q630902"},{"id":25964,"name":"Haßloch","stateId":3019,"stateCode":"RP","stateName":"Rhineland-Palatinate","countryId":82,"countryCode":"DE","countryName":"Germany","latitude":"49.36278000","longitude":"8.25806000","wikiDataId":"Q664857"},{"id":25939,"name":"Hattert","stateId":3019,"stateCode":"RP","stateName":"Rhineland-Palatinate","countryId":82,"countryCode":"DE","countryName":"Germany","latitude":"50.66667000","longitude":"7.76667000","wikiDataId":"Q640369"},{"id":25943,"name":"Hatzenbühl","stateId":3019,"stateCode":"RP","stateName":"Rhineland-Palatinate","countryId":82,"countryCode":"DE","countryName":"Germany","latitude":"49.11111000","longitude":"8.24528000","wikiDataId":"Q567280"},{"id":25945,"name":"Hauenstein","stateId":3019,"stateCode":"RP","stateName":"Rhineland-Palatinate","countryId":82,"countryCode":"DE","countryName":"Germany","latitude":"49.19211000","longitude":"7.85492000","wikiDataId":"Q565504"},{"id":25948,"name":"Hauptstuhl","stateId":3019,"stateCode":"RP","stateName":"Rhineland-Palatinate","countryId":82,"countryCode":"DE","countryName":"Germany","latitude":"49.40000000","longitude":"7.48333000","wikiDataId":"Q567693"},{"id":25951,"name":"Hausen","stateId":3019,"stateCode":"RP","stateName":"Rhineland-Palatinate","countryId":82,"countryCode":"DE","countryName":"Germany","latitude":"50.54242000","longitude":"7.40703000","wikiDataId":"Q32054294"},{"id":25988,"name":"Heidesheim","stateId":3019,"stateCode":"RP","stateName":"Rhineland-Palatinate","countryId":82,"countryCode":"DE","countryName":"Germany","latitude":"49.58247000","longitude":"8.19537000","wikiDataId":"Q32055492"},{"id":25999,"name":"Heiligenroth","stateId":3019,"stateCode":"RP","stateName":"Rhineland-Palatinate","countryId":82,"countryCode":"DE","countryName":"Germany","latitude":"50.45000000","longitude":"7.86667000","wikiDataId":"Q564596"},{"id":26006,"name":"Heimbach","stateId":3019,"stateCode":"RP","stateName":"Rhineland-Palatinate","countryId":82,"countryCode":"DE","countryName":"Germany","latitude":"50.45000000","longitude":"7.53333000","wikiDataId":"Q32055810"},{"id":26018,"name":"Heistenbach","stateId":3019,"stateCode":"RP","stateName":"Rhineland-Palatinate","countryId":82,"countryCode":"DE","countryName":"Germany","latitude":"50.37933000","longitude":"7.98629000","wikiDataId":"Q553295"},{"id":26022,"name":"Helferskirchen","stateId":3019,"stateCode":"RP","stateName":"Rhineland-Palatinate","countryId":82,"countryCode":"DE","countryName":"Germany","latitude":"50.51028000","longitude":"7.81184000","wikiDataId":"Q564488"},{"id":26024,"name":"Hellenhahn-Schellenberg","stateId":3019,"stateCode":"RP","stateName":"Rhineland-Palatinate","countryId":82,"countryCode":"DE","countryName":"Germany","latitude":"50.61278000","longitude":"8.02639000","wikiDataId":"Q564581"},{"id":26035,"name":"Heltersberg","stateId":3019,"stateCode":"RP","stateName":"Rhineland-Palatinate","countryId":82,"countryCode":"DE","countryName":"Germany","latitude":"49.31667000","longitude":"7.71667000","wikiDataId":"Q553322"},{"id":26053,"name":"Hennweiler","stateId":3019,"stateCode":"RP","stateName":"Rhineland-Palatinate","countryId":82,"countryCode":"DE","countryName":"Germany","latitude":"49.81667000","longitude":"7.43333000","wikiDataId":"Q555047"},{"id":26064,"name":"Herdorf","stateId":3019,"stateCode":"RP","stateName":"Rhineland-Palatinate","countryId":82,"countryCode":"DE","countryName":"Germany","latitude":"50.77704000","longitude":"7.95366000","wikiDataId":"Q520240"},{"id":26068,"name":"Herforst","stateId":3019,"stateCode":"RP","stateName":"Rhineland-Palatinate","countryId":82,"countryCode":"DE","countryName":"Germany","latitude":"49.95000000","longitude":"6.70000000","wikiDataId":"Q182947"},{"id":26077,"name":"Hermersberg","stateId":3019,"stateCode":"RP","stateName":"Rhineland-Palatinate","countryId":82,"countryCode":"DE","countryName":"Germany","latitude":"49.31667000","longitude":"7.63333000","wikiDataId":"Q22463"},{"id":26078,"name":"Hermeskeil","stateId":3019,"stateCode":"RP","stateName":"Rhineland-Palatinate","countryId":82,"countryCode":"DE","countryName":"Germany","latitude":"49.65528000","longitude":"6.94407000","wikiDataId":"Q519344"},{"id":26095,"name":"Herschweiler-Pettersheim","stateId":3019,"stateCode":"RP","stateName":"Rhineland-Palatinate","countryId":82,"countryCode":"DE","countryName":"Germany","latitude":"49.48333000","longitude":"7.35000000","wikiDataId":"Q563841"},{"id":26097,"name":"Herxheim am Berg","stateId":3019,"stateCode":"RP","stateName":"Rhineland-Palatinate","countryId":82,"countryCode":"DE","countryName":"Germany","latitude":"49.50917000","longitude":"8.17917000","wikiDataId":"Q3985"},{"id":26129,"name":"Heßheim","stateId":3019,"stateCode":"RP","stateName":"Rhineland-Palatinate","countryId":82,"countryCode":"DE","countryName":"Germany","latitude":"49.54583000","longitude":"8.30778000","wikiDataId":"Q559641"},{"id":26110,"name":"Hettenleidelheim","stateId":3019,"stateCode":"RP","stateName":"Rhineland-Palatinate","countryId":82,"countryCode":"DE","countryName":"Germany","latitude":"49.53556000","longitude":"8.07361000","wikiDataId":"Q629699"},{"id":26115,"name":"Hetzerath","stateId":3019,"stateCode":"RP","stateName":"Rhineland-Palatinate","countryId":82,"countryCode":"DE","countryName":"Germany","latitude":"49.88333000","longitude":"6.81667000","wikiDataId":"Q50883"},{"id":26119,"name":"Heuchelheim bei Frankenthal","stateId":3019,"stateCode":"RP","stateName":"Rhineland-Palatinate","countryId":82,"countryCode":"DE","countryName":"Germany","latitude":"49.56306000","longitude":"8.29083000","wikiDataId":"Q566956"},{"id":26140,"name":"Hilgert","stateId":3019,"stateCode":"RP","stateName":"Rhineland-Palatinate","countryId":82,"countryCode":"DE","countryName":"Germany","latitude":"50.45634000","longitude":"7.68735000","wikiDataId":"Q654759"},{"id":26144,"name":"Hillesheim","stateId":3019,"stateCode":"RP","stateName":"Rhineland-Palatinate","countryId":82,"countryCode":"DE","countryName":"Germany","latitude":"50.29177000","longitude":"6.66963000","wikiDataId":"Q570035"},{"id":26145,"name":"Hillscheid","stateId":3019,"stateCode":"RP","stateName":"Rhineland-Palatinate","countryId":82,"countryCode":"DE","countryName":"Germany","latitude":"50.40639000","longitude":"7.69861000","wikiDataId":"Q570035"},{"id":26157,"name":"Hinterweidenthal","stateId":3019,"stateCode":"RP","stateName":"Rhineland-Palatinate","countryId":82,"countryCode":"DE","countryName":"Germany","latitude":"49.20000000","longitude":"7.75000000","wikiDataId":"Q566039"},{"id":26174,"name":"Hochdorf-Assenheim","stateId":3019,"stateCode":"RP","stateName":"Rhineland-Palatinate","countryId":82,"countryCode":"DE","countryName":"Germany","latitude":"49.41944000","longitude":"8.28167000","wikiDataId":"Q567274"},{"id":26178,"name":"Hochspeyer","stateId":3019,"stateCode":"RP","stateName":"Rhineland-Palatinate","countryId":82,"countryCode":"DE","countryName":"Germany","latitude":"49.44207000","longitude":"7.89504000","wikiDataId":"Q567730"},{"id":26179,"name":"Hochstadt","stateId":3019,"stateCode":"RP","stateName":"Rhineland-Palatinate","countryId":82,"countryCode":"DE","countryName":"Germany","latitude":"49.24750000","longitude":"8.20889000","wikiDataId":"Q32059330"},{"id":26181,"name":"Hochstetten-Dhaun","stateId":3019,"stateCode":"RP","stateName":"Rhineland-Palatinate","countryId":82,"countryCode":"DE","countryName":"Germany","latitude":"49.80000000","longitude":"7.50000000","wikiDataId":"Q563032"},{"id":26184,"name":"Hof","stateId":3019,"stateCode":"RP","stateName":"Rhineland-Palatinate","countryId":82,"countryCode":"DE","countryName":"Germany","latitude":"50.66667000","longitude":"8.01667000","wikiDataId":"Q818672"},{"id":26307,"name":"Höheinöd","stateId":3019,"stateCode":"RP","stateName":"Rhineland-Palatinate","countryId":82,"countryCode":"DE","countryName":"Germany","latitude":"49.28966000","longitude":"7.60673000","wikiDataId":"Q6775"},{"id":26308,"name":"Höheischweiler","stateId":3019,"stateCode":"RP","stateName":"Rhineland-Palatinate","countryId":82,"countryCode":"DE","countryName":"Germany","latitude":"49.23333000","longitude":"7.55000000","wikiDataId":"Q6775"},{"id":26311,"name":"Höhn","stateId":3019,"stateCode":"RP","stateName":"Rhineland-Palatinate","countryId":82,"countryCode":"DE","countryName":"Germany","latitude":"50.61667000","longitude":"7.98333000","wikiDataId":"Q818645"},{"id":26313,"name":"Höhr-Grenzhausen","stateId":3019,"stateCode":"RP","stateName":"Rhineland-Palatinate","countryId":82,"countryCode":"DE","countryName":"Germany","latitude":"50.43474000","longitude":"7.66903000","wikiDataId":"Q50899"},{"id":26233,"name":"Holler","stateId":3019,"stateCode":"RP","stateName":"Rhineland-Palatinate","countryId":82,"countryCode":"DE","countryName":"Germany","latitude":"50.41667000","longitude":"7.83333000","wikiDataId":"Q570120"},{"id":26240,"name":"Holzappel","stateId":3019,"stateCode":"RP","stateName":"Rhineland-Palatinate","countryId":82,"countryCode":"DE","countryName":"Germany","latitude":"50.35000000","longitude":"7.90000000","wikiDataId":"Q565333"},{"id":26244,"name":"Holzhausen an der Haide","stateId":3019,"stateCode":"RP","stateName":"Rhineland-Palatinate","countryId":82,"countryCode":"DE","countryName":"Germany","latitude":"50.21855000","longitude":"7.90973000","wikiDataId":"Q550842"},{"id":26255,"name":"Hoppstädten-Weiersbach","stateId":3019,"stateCode":"RP","stateName":"Rhineland-Palatinate","countryId":82,"countryCode":"DE","countryName":"Germany","latitude":"49.61667000","longitude":"7.20000000","wikiDataId":"Q473558"},{"id":26317,"name":"Hördt","stateId":3019,"stateCode":"RP","stateName":"Rhineland-Palatinate","countryId":82,"countryCode":"DE","countryName":"Germany","latitude":"49.16583000","longitude":"8.32639000","wikiDataId":"Q654264"},{"id":26261,"name":"Horhausen","stateId":3019,"stateCode":"RP","stateName":"Rhineland-Palatinate","countryId":82,"countryCode":"DE","countryName":"Germany","latitude":"50.58745000","longitude":"7.53028000","wikiDataId":"Q32060343"},{"id":26265,"name":"Hornbach","stateId":3019,"stateCode":"RP","stateName":"Rhineland-Palatinate","countryId":82,"countryCode":"DE","countryName":"Germany","latitude":"49.18778000","longitude":"7.36883000","wikiDataId":"Q628147"},{"id":26330,"name":"Hüffelsheim","stateId":3019,"stateCode":"RP","stateName":"Rhineland-Palatinate","countryId":82,"countryCode":"DE","countryName":"Germany","latitude":"49.81667000","longitude":"7.80000000","wikiDataId":"Q561282"},{"id":26288,"name":"Hundsangen","stateId":3019,"stateCode":"RP","stateName":"Rhineland-Palatinate","countryId":82,"countryCode":"DE","countryName":"Germany","latitude":"50.45000000","longitude":"7.98333000","wikiDataId":"Q23011"},{"id":26342,"name":"Hütschenhausen","stateId":3019,"stateCode":"RP","stateName":"Rhineland-Palatinate","countryId":82,"countryCode":"DE","countryName":"Germany","latitude":"49.41667000","longitude":"7.48333000","wikiDataId":"Q560181"},{"id":26350,"name":"Idar-Oberstein","stateId":3019,"stateCode":"RP","stateName":"Rhineland-Palatinate","countryId":82,"countryCode":"DE","countryName":"Germany","latitude":"49.71443000","longitude":"7.30776000","wikiDataId":"Q16119"},{"id":26355,"name":"Igel","stateId":3019,"stateCode":"RP","stateName":"Rhineland-Palatinate","countryId":82,"countryCode":"DE","countryName":"Germany","latitude":"49.71033000","longitude":"6.55498000","wikiDataId":"Q543497"},{"id":26364,"name":"Ilbesheim","stateId":3019,"stateCode":"RP","stateName":"Rhineland-Palatinate","countryId":82,"countryCode":"DE","countryName":"Germany","latitude":"49.18277000","longitude":"8.05363000","wikiDataId":"Q32061542"},{"id":26385,"name":"Imsbach","stateId":3019,"stateCode":"RP","stateName":"Rhineland-Palatinate","countryId":82,"countryCode":"DE","countryName":"Germany","latitude":"49.58333000","longitude":"7.88333000","wikiDataId":"Q569166"},{"id":26389,"name":"Ingelheim am Rhein","stateId":3019,"stateCode":"RP","stateName":"Rhineland-Palatinate","countryId":82,"countryCode":"DE","countryName":"Germany","latitude":"49.97078000","longitude":"8.05883000","wikiDataId":"Q159548"},{"id":26396,"name":"Insheim","stateId":3019,"stateCode":"RP","stateName":"Rhineland-Palatinate","countryId":82,"countryCode":"DE","countryName":"Germany","latitude":"49.15806000","longitude":"8.14722000","wikiDataId":"Q569100"},{"id":26406,"name":"Irrel","stateId":3019,"stateCode":"RP","stateName":"Rhineland-Palatinate","countryId":82,"countryCode":"DE","countryName":"Germany","latitude":"49.84539000","longitude":"6.45705000","wikiDataId":"Q553341"},{"id":26407,"name":"Irsch","stateId":3019,"stateCode":"RP","stateName":"Rhineland-Palatinate","countryId":82,"countryCode":"DE","countryName":"Germany","latitude":"49.72620000","longitude":"6.69806000","wikiDataId":"Q553341"},{"id":26453,"name":"Jockgrim","stateId":3019,"stateCode":"RP","stateName":"Rhineland-Palatinate","countryId":82,"countryCode":"DE","countryName":"Germany","latitude":"49.09288000","longitude":"8.27468000","wikiDataId":"Q22974"},{"id":26460,"name":"Jugenheim","stateId":3019,"stateCode":"RP","stateName":"Rhineland-Palatinate","countryId":82,"countryCode":"DE","countryName":"Germany","latitude":"49.89362000","longitude":"8.08468000","wikiDataId":"Q32063375"},{"id":26474,"name":"Jünkerath","stateId":3019,"stateCode":"RP","stateName":"Rhineland-Palatinate","countryId":82,"countryCode":"DE","countryName":"Germany","latitude":"50.34412000","longitude":"6.58138000","wikiDataId":"Q553521"},{"id":26478,"name":"Kadenbach","stateId":3019,"stateCode":"RP","stateName":"Rhineland-Palatinate","countryId":82,"countryCode":"DE","countryName":"Germany","latitude":"50.38333000","longitude":"7.73333000","wikiDataId":"Q640427"},{"id":26482,"name":"Kaisersesch","stateId":3019,"stateCode":"RP","stateName":"Rhineland-Palatinate","countryId":82,"countryCode":"DE","countryName":"Germany","latitude":"50.23148000","longitude":"7.13864000","wikiDataId":"Q552516"},{"id":26483,"name":"Kaiserslautern","stateId":3019,"stateCode":"RP","stateName":"Rhineland-Palatinate","countryId":82,"countryCode":"DE","countryName":"Germany","latitude":"49.44300000","longitude":"7.77161000","wikiDataId":"Q552516"},{"id":26494,"name":"Kallstadt","stateId":3019,"stateCode":"RP","stateName":"Rhineland-Palatinate","countryId":82,"countryCode":"DE","countryName":"Germany","latitude":"49.49083000","longitude":"8.17611000","wikiDataId":"Q22537"},{"id":26495,"name":"Kaltenengers","stateId":3019,"stateCode":"RP","stateName":"Rhineland-Palatinate","countryId":82,"countryCode":"DE","countryName":"Germany","latitude":"50.41667000","longitude":"7.55000000","wikiDataId":"Q566947"},{"id":26502,"name":"Kamp-Bornhofen","stateId":3019,"stateCode":"RP","stateName":"Rhineland-Palatinate","countryId":82,"countryCode":"DE","countryName":"Germany","latitude":"50.22282000","longitude":"7.62364000","wikiDataId":"Q567183"},{"id":26505,"name":"Kandel","stateId":3019,"stateCode":"RP","stateName":"Rhineland-Palatinate","countryId":82,"countryCode":"DE","countryName":"Germany","latitude":"49.08277000","longitude":"8.19720000","wikiDataId":"Q32063873"},{"id":26511,"name":"Kapsweyer","stateId":3019,"stateCode":"RP","stateName":"Rhineland-Palatinate","countryId":82,"countryCode":"DE","countryName":"Germany","latitude":"49.04389000","longitude":"8.02167000","wikiDataId":"Q564476"},{"id":26527,"name":"Kasbach-Ohlenberg","stateId":3019,"stateCode":"RP","stateName":"Rhineland-Palatinate","countryId":82,"countryCode":"DE","countryName":"Germany","latitude":"50.58333000","longitude":"7.26667000","wikiDataId":"Q283876"},{"id":26528,"name":"Kasel","stateId":3019,"stateCode":"RP","stateName":"Rhineland-Palatinate","countryId":82,"countryCode":"DE","countryName":"Germany","latitude":"49.76170000","longitude":"6.73222000","wikiDataId":"Q283876"},{"id":26532,"name":"Kastellaun","stateId":3019,"stateCode":"RP","stateName":"Rhineland-Palatinate","countryId":82,"countryCode":"DE","countryName":"Germany","latitude":"50.06922000","longitude":"7.44154000","wikiDataId":"Q539726"},{"id":26537,"name":"Katzenelnbogen","stateId":3019,"stateCode":"RP","stateName":"Rhineland-Palatinate","countryId":82,"countryCode":"DE","countryName":"Germany","latitude":"50.26745000","longitude":"7.97322000","wikiDataId":"Q636133"},{"id":26539,"name":"Katzweiler","stateId":3019,"stateCode":"RP","stateName":"Rhineland-Palatinate","countryId":82,"countryCode":"DE","countryName":"Germany","latitude":"49.50000000","longitude":"7.70000000","wikiDataId":"Q567122"},{"id":26540,"name":"Katzwinkel","stateId":3019,"stateCode":"RP","stateName":"Rhineland-Palatinate","countryId":82,"countryCode":"DE","countryName":"Germany","latitude":"50.81470000","longitude":"7.82236000","wikiDataId":"Q656023"},{"id":26541,"name":"Kaub","stateId":3019,"stateCode":"RP","stateName":"Rhineland-Palatinate","countryId":82,"countryCode":"DE","countryName":"Germany","latitude":"50.08831000","longitude":"7.76069000","wikiDataId":"Q540860"},{"id":26552,"name":"Kehrig","stateId":3019,"stateCode":"RP","stateName":"Rhineland-Palatinate","countryId":82,"countryCode":"DE","countryName":"Germany","latitude":"50.28333000","longitude":"7.21667000","wikiDataId":"Q565808"},{"id":26554,"name":"Kelberg","stateId":3019,"stateCode":"RP","stateName":"Rhineland-Palatinate","countryId":82,"countryCode":"DE","countryName":"Germany","latitude":"50.29164000","longitude":"6.91950000","wikiDataId":"Q552009"},{"id":26558,"name":"Kell","stateId":3019,"stateCode":"RP","stateName":"Rhineland-Palatinate","countryId":82,"countryCode":"DE","countryName":"Germany","latitude":"49.63425000","longitude":"6.82390000","wikiDataId":"Q32064544"},{"id":26568,"name":"Kempenich","stateId":3019,"stateCode":"RP","stateName":"Rhineland-Palatinate","countryId":82,"countryCode":"DE","countryName":"Germany","latitude":"50.42024000","longitude":"7.11698000","wikiDataId":"Q563845"},{"id":26570,"name":"Kenn","stateId":3019,"stateCode":"RP","stateName":"Rhineland-Palatinate","countryId":82,"countryCode":"DE","countryName":"Germany","latitude":"49.80000000","longitude":"6.71667000","wikiDataId":"Q563845"},{"id":26573,"name":"Kerzenheim","stateId":3019,"stateCode":"RP","stateName":"Rhineland-Palatinate","countryId":82,"countryCode":"DE","countryName":"Germany","latitude":"49.57639000","longitude":"8.05972000","wikiDataId":"Q566736"},{"id":26578,"name":"Kettig","stateId":3019,"stateCode":"RP","stateName":"Rhineland-Palatinate","countryId":82,"countryCode":"DE","countryName":"Germany","latitude":"50.40000000","longitude":"7.46667000","wikiDataId":"Q628957"},{"id":26589,"name":"Kindenheim","stateId":3019,"stateCode":"RP","stateName":"Rhineland-Palatinate","countryId":82,"countryCode":"DE","countryName":"Germany","latitude":"49.61111000","longitude":"8.16417000","wikiDataId":"Q22535"},{"id":26590,"name":"Kinderbeuern","stateId":3019,"stateCode":"RP","stateName":"Rhineland-Palatinate","countryId":82,"countryCode":"DE","countryName":"Germany","latitude":"50.00935000","longitude":"7.02355000","wikiDataId":"Q569288"},{"id":26591,"name":"Kindsbach","stateId":3019,"stateCode":"RP","stateName":"Rhineland-Palatinate","countryId":82,"countryCode":"DE","countryName":"Germany","latitude":"49.41667000","longitude":"7.61667000","wikiDataId":"Q567142"},{"id":26596,"name":"Kirchberg","stateId":3019,"stateCode":"RP","stateName":"Rhineland-Palatinate","countryId":82,"countryCode":"DE","countryName":"Germany","latitude":"49.94395000","longitude":"7.40700000","wikiDataId":"Q632275"},{"id":26608,"name":"Kirchen","stateId":3019,"stateCode":"RP","stateName":"Rhineland-Palatinate","countryId":82,"countryCode":"DE","countryName":"Germany","latitude":"50.80849000","longitude":"7.88634000","wikiDataId":"Q532613"},{"id":26623,"name":"Kirchheim an der Weinstraße","stateId":3019,"stateCode":"RP","stateName":"Rhineland-Palatinate","countryId":82,"countryCode":"DE","countryName":"Germany","latitude":"49.53722000","longitude":"8.18083000","wikiDataId":"Q22975"},{"id":26626,"name":"Kirchheimbolanden","stateId":3019,"stateCode":"RP","stateName":"Rhineland-Palatinate","countryId":82,"countryCode":"DE","countryName":"Germany","latitude":"49.66249000","longitude":"8.01513000","wikiDataId":"Q200763"},{"id":26635,"name":"Kirchwald","stateId":3019,"stateCode":"RP","stateName":"Rhineland-Palatinate","countryId":82,"countryCode":"DE","countryName":"Germany","latitude":"50.36667000","longitude":"7.15000000","wikiDataId":"Q629359"},{"id":26642,"name":"Kirn","stateId":3019,"stateCode":"RP","stateName":"Rhineland-Palatinate","countryId":82,"countryCode":"DE","countryName":"Germany","latitude":"49.78912000","longitude":"7.45765000","wikiDataId":"Q22470"},{"id":26643,"name":"Kirrweiler","stateId":3019,"stateCode":"RP","stateName":"Rhineland-Palatinate","countryId":82,"countryCode":"DE","countryName":"Germany","latitude":"49.30124000","longitude":"8.16288000","wikiDataId":"Q654122"},{"id":26645,"name":"Kirschweiler","stateId":3019,"stateCode":"RP","stateName":"Rhineland-Palatinate","countryId":82,"countryCode":"DE","countryName":"Germany","latitude":"49.75000000","longitude":"7.25000000","wikiDataId":"Q377642"},{"id":26657,"name":"Klausen","stateId":3019,"stateCode":"RP","stateName":"Rhineland-Palatinate","countryId":82,"countryCode":"DE","countryName":"Germany","latitude":"49.90000000","longitude":"6.88333000","wikiDataId":"Q690151"},{"id":26667,"name":"Klein-Winternheim","stateId":3019,"stateCode":"RP","stateName":"Rhineland-Palatinate","countryId":82,"countryCode":"DE","countryName":"Germany","latitude":"49.93833000","longitude":"8.21194000","wikiDataId":"Q630978"},{"id":26676,"name":"Kleinmaischeid","stateId":3019,"stateCode":"RP","stateName":"Rhineland-Palatinate","countryId":82,"countryCode":"DE","countryName":"Germany","latitude":"50.51345000","longitude":"7.60830000","wikiDataId":"Q570860"},{"id":26687,"name":"Klingenmünster","stateId":3019,"stateCode":"RP","stateName":"Rhineland-Palatinate","countryId":82,"countryCode":"DE","countryName":"Germany","latitude":"49.14056000","longitude":"8.01861000","wikiDataId":"Q564539"},{"id":26696,"name":"Klotten","stateId":3019,"stateCode":"RP","stateName":"Rhineland-Palatinate","countryId":82,"countryCode":"DE","countryName":"Germany","latitude":"50.16667000","longitude":"7.20000000","wikiDataId":"Q269397"},{"id":26699,"name":"Klüsserath","stateId":3019,"stateCode":"RP","stateName":"Rhineland-Palatinate","countryId":82,"countryCode":"DE","countryName":"Germany","latitude":"49.84500000","longitude":"6.85086000","wikiDataId":"Q569589"},{"id":26702,"name":"Knittelsheim","stateId":3019,"stateCode":"RP","stateName":"Rhineland-Palatinate","countryId":82,"countryCode":"DE","countryName":"Germany","latitude":"49.19167000","longitude":"8.25139000","wikiDataId":"Q431500"},{"id":26704,"name":"Kobern-Gondorf","stateId":3019,"stateCode":"RP","stateName":"Rhineland-Palatinate","countryId":82,"countryCode":"DE","countryName":"Germany","latitude":"50.30230000","longitude":"7.45612000","wikiDataId":"Q553347"},{"id":26705,"name":"Koblenz","stateId":3019,"stateCode":"RP","stateName":"Rhineland-Palatinate","countryId":82,"countryCode":"DE","countryName":"Germany","latitude":"50.35357000","longitude":"7.57883000","wikiDataId":"Q3104"},{"id":26815,"name":"Kölbingen","stateId":3019,"stateCode":"RP","stateName":"Rhineland-Palatinate","countryId":82,"countryCode":"DE","countryName":"Germany","latitude":"50.55000000","longitude":"7.93333000","wikiDataId":"Q491602"},{"id":26820,"name":"Köngernheim","stateId":3019,"stateCode":"RP","stateName":"Rhineland-Palatinate","countryId":82,"countryCode":"DE","countryName":"Germany","latitude":"49.84583000","longitude":"8.24667000","wikiDataId":"Q678804"},{"id":26719,"name":"Konz","stateId":3019,"stateCode":"RP","stateName":"Rhineland-Palatinate","countryId":82,"countryCode":"DE","countryName":"Germany","latitude":"49.70045000","longitude":"6.57652000","wikiDataId":"Q503185"},{"id":26723,"name":"Kordel","stateId":3019,"stateCode":"RP","stateName":"Rhineland-Palatinate","countryId":82,"countryCode":"DE","countryName":"Germany","latitude":"49.83333000","longitude":"6.63333000","wikiDataId":"Q500147"},{"id":26845,"name":"Körperich","stateId":3019,"stateCode":"RP","stateName":"Rhineland-Palatinate","countryId":82,"countryCode":"DE","countryName":"Germany","latitude":"49.92449000","longitude":"6.25973000","wikiDataId":"Q521521"},{"id":26730,"name":"Kottenheim","stateId":3019,"stateCode":"RP","stateName":"Rhineland-Palatinate","countryId":82,"countryCode":"DE","countryName":"Germany","latitude":"50.35000000","longitude":"7.25000000","wikiDataId":"Q569802"},{"id":26732,"name":"Kottweiler-Schwanden","stateId":3019,"stateCode":"RP","stateName":"Rhineland-Palatinate","countryId":82,"countryCode":"DE","countryName":"Germany","latitude":"49.48333000","longitude":"7.53333000","wikiDataId":"Q32066767"},{"id":26759,"name":"Krickenbach","stateId":3019,"stateCode":"RP","stateName":"Rhineland-Palatinate","countryId":82,"countryCode":"DE","countryName":"Germany","latitude":"49.36667000","longitude":"7.66667000","wikiDataId":"Q566969"},{"id":26762,"name":"Kriegsfeld","stateId":3019,"stateCode":"RP","stateName":"Rhineland-Palatinate","countryId":82,"countryCode":"DE","countryName":"Germany","latitude":"49.70992000","longitude":"7.91687000","wikiDataId":"Q643312"},{"id":26786,"name":"Kröv","stateId":3019,"stateCode":"RP","stateName":"Rhineland-Palatinate","countryId":82,"countryCode":"DE","countryName":"Germany","latitude":"49.98333000","longitude":"7.08333000","wikiDataId":"Q553171"},{"id":26777,"name":"Kruft","stateId":3019,"stateCode":"RP","stateName":"Rhineland-Palatinate","countryId":82,"countryCode":"DE","countryName":"Germany","latitude":"50.38333000","longitude":"7.33333000","wikiDataId":"Q653058"},{"id":26792,"name":"Kuhardt","stateId":3019,"stateCode":"RP","stateName":"Rhineland-Palatinate","countryId":82,"countryCode":"DE","countryName":"Germany","latitude":"49.14583000","longitude":"8.31444000","wikiDataId":"Q601057"},{"id":26805,"name":"Kusel","stateId":3019,"stateCode":"RP","stateName":"Rhineland-Palatinate","countryId":82,"countryCode":"DE","countryName":"Germany","latitude":"49.53772000","longitude":"7.40472000","wikiDataId":"Q22937"},{"id":26810,"name":"Kyllburg","stateId":3019,"stateCode":"RP","stateName":"Rhineland-Palatinate","countryId":82,"countryCode":"DE","countryName":"Germany","latitude":"50.03864000","longitude":"6.59478000","wikiDataId":"Q125124"},{"id":26868,"name":"Lachen-Speyerdorf","stateId":3019,"stateCode":"RP","stateName":"Rhineland-Palatinate","countryId":82,"countryCode":"DE","countryName":"Germany","latitude":"49.33049000","longitude":"8.19983000","wikiDataId":"Q1799686"},{"id":26875,"name":"Lahnstein","stateId":3019,"stateCode":"RP","stateName":"Rhineland-Palatinate","countryId":82,"countryCode":"DE","countryName":"Germany","latitude":"50.30000000","longitude":"7.61667000","wikiDataId":"Q569639"},{"id":26881,"name":"Lambrecht","stateId":3019,"stateCode":"RP","stateName":"Rhineland-Palatinate","countryId":82,"countryCode":"DE","countryName":"Germany","latitude":"49.37055000","longitude":"8.07264000","wikiDataId":"Q628198"},{"id":26883,"name":"Lambsheim","stateId":3019,"stateCode":"RP","stateName":"Rhineland-Palatinate","countryId":82,"countryCode":"DE","countryName":"Germany","latitude":"49.51361000","longitude":"8.28778000","wikiDataId":"Q22961"},{"id":26890,"name":"Landau in der Pfalz","stateId":3019,"stateCode":"RP","stateName":"Rhineland-Palatinate","countryId":82,"countryCode":"DE","countryName":"Germany","latitude":"49.19844000","longitude":"8.11692000","wikiDataId":"Q32084506"},{"id":26896,"name":"Landscheid","stateId":3019,"stateCode":"RP","stateName":"Rhineland-Palatinate","countryId":82,"countryCode":"DE","countryName":"Germany","latitude":"49.98333000","longitude":"6.76667000","wikiDataId":"Q337826"},{"id":26898,"name":"Landstuhl","stateId":3019,"stateCode":"RP","stateName":"Rhineland-Palatinate","countryId":82,"countryCode":"DE","countryName":"Germany","latitude":"49.41306000","longitude":"7.57021000","wikiDataId":"Q22950"},{"id":26908,"name":"Langenbach bei Marienberg","stateId":3019,"stateCode":"RP","stateName":"Rhineland-Palatinate","countryId":82,"countryCode":"DE","countryName":"Germany","latitude":"50.63806000","longitude":"7.94787000","wikiDataId":"Q32086298"},{"id":26920,"name":"Langenhahn","stateId":3019,"stateCode":"RP","stateName":"Rhineland-Palatinate","countryId":82,"countryCode":"DE","countryName":"Germany","latitude":"50.58333000","longitude":"7.91667000","wikiDataId":"Q676219"},{"id":26923,"name":"Langenlonsheim","stateId":3019,"stateCode":"RP","stateName":"Rhineland-Palatinate","countryId":82,"countryCode":"DE","countryName":"Germany","latitude":"49.90000000","longitude":"7.90000000","wikiDataId":"Q631783"},{"id":26942,"name":"Langsur","stateId":3019,"stateCode":"RP","stateName":"Rhineland-Palatinate","countryId":82,"countryCode":"DE","countryName":"Germany","latitude":"49.72442000","longitude":"6.49906000","wikiDataId":"Q610893"},{"id":26956,"name":"Laubach","stateId":3019,"stateCode":"RP","stateName":"Rhineland-Palatinate","countryId":82,"countryCode":"DE","countryName":"Germany","latitude":"50.23277000","longitude":"7.07333000","wikiDataId":"Q693007"},{"id":26986,"name":"Lauterecken","stateId":3019,"stateCode":"RP","stateName":"Rhineland-Palatinate","countryId":82,"countryCode":"DE","countryName":"Germany","latitude":"49.64993000","longitude":"7.59265000","wikiDataId":"Q240283"},{"id":27008,"name":"Lehmen","stateId":3019,"stateCode":"RP","stateName":"Rhineland-Palatinate","countryId":82,"countryCode":"DE","countryName":"Germany","latitude":"50.28333000","longitude":"7.45000000","wikiDataId":"Q567585"},{"id":27021,"name":"Leimersheim","stateId":3019,"stateCode":"RP","stateName":"Rhineland-Palatinate","countryId":82,"countryCode":"DE","countryName":"Germany","latitude":"49.12421000","longitude":"8.34531000","wikiDataId":"Q656053"},{"id":27031,"name":"Leiwen","stateId":3019,"stateCode":"RP","stateName":"Rhineland-Palatinate","countryId":82,"countryCode":"DE","countryName":"Germany","latitude":"49.81667000","longitude":"6.88333000","wikiDataId":"Q681047"},{"id":27033,"name":"Lemberg","stateId":3019,"stateCode":"RP","stateName":"Rhineland-Palatinate","countryId":82,"countryCode":"DE","countryName":"Germany","latitude":"49.17309000","longitude":"7.65111000","wikiDataId":"Q688622"},{"id":27059,"name":"Leubsdorf","stateId":3019,"stateCode":"RP","stateName":"Rhineland-Palatinate","countryId":82,"countryCode":"DE","countryName":"Germany","latitude":"50.55000000","longitude":"7.30000000","wikiDataId":"Q1412212"},{"id":27069,"name":"Leutesdorf","stateId":3019,"stateCode":"RP","stateName":"Rhineland-Palatinate","countryId":82,"countryCode":"DE","countryName":"Germany","latitude":"50.45000000","longitude":"7.38333000","wikiDataId":"Q659908"},{"id":27094,"name":"Lieser","stateId":3019,"stateCode":"RP","stateName":"Rhineland-Palatinate","countryId":82,"countryCode":"DE","countryName":"Germany","latitude":"49.91667000","longitude":"7.01667000","wikiDataId":"Q32095436"},{"id":27100,"name":"Limburgerhof","stateId":3019,"stateCode":"RP","stateName":"Rhineland-Palatinate","countryId":82,"countryCode":"DE","countryName":"Germany","latitude":"49.42444000","longitude":"8.39194000","wikiDataId":"Q662258"},{"id":27106,"name":"Linden","stateId":3019,"stateCode":"RP","stateName":"Rhineland-Palatinate","countryId":82,"countryCode":"DE","countryName":"Germany","latitude":"49.35000000","longitude":"7.65000000","wikiDataId":"Q488718"},{"id":27107,"name":"Lindenberg","stateId":3019,"stateCode":"RP","stateName":"Rhineland-Palatinate","countryId":82,"countryCode":"DE","countryName":"Germany","latitude":"49.38028000","longitude":"8.09861000","wikiDataId":"Q685210"},{"id":27115,"name":"Lingenfeld","stateId":3019,"stateCode":"RP","stateName":"Rhineland-Palatinate","countryId":82,"countryCode":"DE","countryName":"Germany","latitude":"49.25389000","longitude":"8.33861000","wikiDataId":"Q22973"},{"id":27119,"name":"Linz am Rhein","stateId":3019,"stateCode":"RP","stateName":"Rhineland-Palatinate","countryId":82,"countryCode":"DE","countryName":"Germany","latitude":"50.56884000","longitude":"7.28445000","wikiDataId":"Q390125"},{"id":27121,"name":"Lissendorf","stateId":3019,"stateCode":"RP","stateName":"Rhineland-Palatinate","countryId":82,"countryCode":"DE","countryName":"Germany","latitude":"50.31667000","longitude":"6.60000000","wikiDataId":"Q567229"},{"id":27192,"name":"Löf","stateId":3019,"stateCode":"RP","stateName":"Rhineland-Palatinate","countryId":82,"countryCode":"DE","countryName":"Germany","latitude":"50.23333000","longitude":"7.43333000","wikiDataId":"Q553970"},{"id":27143,"name":"Longkamp","stateId":3019,"stateCode":"RP","stateName":"Rhineland-Palatinate","countryId":82,"countryCode":"DE","countryName":"Germany","latitude":"49.89044000","longitude":"7.11764000","wikiDataId":"Q8734"},{"id":27144,"name":"Longuich","stateId":3019,"stateCode":"RP","stateName":"Rhineland-Palatinate","countryId":82,"countryCode":"DE","countryName":"Germany","latitude":"49.80841000","longitude":"6.76832000","wikiDataId":"Q569606"},{"id":27146,"name":"Lonnig","stateId":3019,"stateCode":"RP","stateName":"Rhineland-Palatinate","countryId":82,"countryCode":"DE","countryName":"Germany","latitude":"50.31002000","longitude":"7.40509000","wikiDataId":"Q1869695"},{"id":27198,"name":"Lörzweiler","stateId":3019,"stateCode":"RP","stateName":"Rhineland-Palatinate","countryId":82,"countryCode":"DE","countryName":"Germany","latitude":"49.89833000","longitude":"8.29472000","wikiDataId":"Q6855"},{"id":27165,"name":"Ludwigshafen am Rhein","stateId":3019,"stateCode":"RP","stateName":"Rhineland-Palatinate","countryId":82,"countryCode":"DE","countryName":"Germany","latitude":"49.48121000","longitude":"8.44641000","wikiDataId":"Q574170"},{"id":27179,"name":"Lustadt","stateId":3019,"stateCode":"RP","stateName":"Rhineland-Palatinate","countryId":82,"countryCode":"DE","countryName":"Germany","latitude":"49.24476000","longitude":"8.27407000","wikiDataId":"Q22970"},{"id":27181,"name":"Lutzerath","stateId":3019,"stateCode":"RP","stateName":"Rhineland-Palatinate","countryId":82,"countryCode":"DE","countryName":"Germany","latitude":"50.12695000","longitude":"7.00740000","wikiDataId":"Q553271"},{"id":27228,"name":"Mackenbach","stateId":3019,"stateCode":"RP","stateName":"Rhineland-Palatinate","countryId":82,"countryCode":"DE","countryName":"Germany","latitude":"49.46667000","longitude":"7.58333000","wikiDataId":"Q567199"},{"id":27236,"name":"Maikammer","stateId":3019,"stateCode":"RP","stateName":"Rhineland-Palatinate","countryId":82,"countryCode":"DE","countryName":"Germany","latitude":"49.30528000","longitude":"8.13167000","wikiDataId":"Q22969"},{"id":27244,"name":"Mainz","stateId":3019,"stateCode":"RP","stateName":"Rhineland-Palatinate","countryId":82,"countryCode":"DE","countryName":"Germany","latitude":"49.98419000","longitude":"8.27910000","wikiDataId":"Q1720"},{"id":27248,"name":"Malborn","stateId":3019,"stateCode":"RP","stateName":"Rhineland-Palatinate","countryId":82,"countryCode":"DE","countryName":"Germany","latitude":"49.71667000","longitude":"6.98333000","wikiDataId":"Q569220"},{"id":27260,"name":"Mammelzen","stateId":3019,"stateCode":"RP","stateName":"Rhineland-Palatinate","countryId":82,"countryCode":"DE","countryName":"Germany","latitude":"50.70000000","longitude":"7.66667000","wikiDataId":"Q562708"},{"id":27264,"name":"Manderscheid","stateId":3019,"stateCode":"RP","stateName":"Rhineland-Palatinate","countryId":82,"countryCode":"DE","countryName":"Germany","latitude":"50.09672000","longitude":"6.80981000","wikiDataId":"Q252036"},{"id":27278,"name":"Marienrachdorf","stateId":3019,"stateCode":"RP","stateName":"Rhineland-Palatinate","countryId":82,"countryCode":"DE","countryName":"Germany","latitude":"50.55000000","longitude":"7.71667000","wikiDataId":"Q564480"},{"id":27282,"name":"Maring-Noviand","stateId":3019,"stateCode":"RP","stateName":"Rhineland-Palatinate","countryId":82,"countryCode":"DE","countryName":"Germany","latitude":"49.93333000","longitude":"7.00000000","wikiDataId":"Q566744"},{"id":27321,"name":"Marnheim","stateId":3019,"stateCode":"RP","stateName":"Rhineland-Palatinate","countryId":82,"countryCode":"DE","countryName":"Germany","latitude":"49.63278000","longitude":"8.04000000","wikiDataId":"Q562676"},{"id":27331,"name":"Martinshöhe","stateId":3019,"stateCode":"RP","stateName":"Rhineland-Palatinate","countryId":82,"countryCode":"DE","countryName":"Germany","latitude":"49.36667000","longitude":"7.48333000","wikiDataId":"Q567778"},{"id":27336,"name":"Masburg","stateId":3019,"stateCode":"RP","stateName":"Rhineland-Palatinate","countryId":82,"countryCode":"DE","countryName":"Germany","latitude":"50.24065000","longitude":"7.11736000","wikiDataId":"Q564991"},{"id":27353,"name":"Maßweiler","stateId":3019,"stateCode":"RP","stateName":"Rhineland-Palatinate","countryId":82,"countryCode":"DE","countryName":"Germany","latitude":"49.26667000","longitude":"7.53333000","wikiDataId":"Q565765"},{"id":27341,"name":"Mastershausen","stateId":3019,"stateCode":"RP","stateName":"Rhineland-Palatinate","countryId":82,"countryCode":"DE","countryName":"Germany","latitude":"50.06667000","longitude":"7.35000000","wikiDataId":"Q562485"},{"id":27348,"name":"Maxdorf","stateId":3019,"stateCode":"RP","stateName":"Rhineland-Palatinate","countryId":82,"countryCode":"DE","countryName":"Germany","latitude":"49.48806000","longitude":"8.29167000","wikiDataId":"Q566946"},{"id":27350,"name":"Maxsain","stateId":3019,"stateCode":"RP","stateName":"Rhineland-Palatinate","countryId":82,"countryCode":"DE","countryName":"Germany","latitude":"50.54316000","longitude":"7.78512000","wikiDataId":"Q282605"},{"id":27351,"name":"Mayen","stateId":3019,"stateCode":"RP","stateName":"Rhineland-Palatinate","countryId":82,"countryCode":"DE","countryName":"Germany","latitude":"50.32797000","longitude":"7.22277000","wikiDataId":"Q516611"},{"id":27357,"name":"Meckenheim","stateId":3019,"stateCode":"RP","stateName":"Rhineland-Palatinate","countryId":82,"countryCode":"DE","countryName":"Germany","latitude":"49.40444000","longitude":"8.23917000","wikiDataId":"Q660438"},{"id":27361,"name":"Meddersheim","stateId":3019,"stateCode":"RP","stateName":"Rhineland-Palatinate","countryId":82,"countryCode":"DE","countryName":"Germany","latitude":"49.77636000","longitude":"7.61708000","wikiDataId":"Q561287"},{"id":27370,"name":"Mehlbach","stateId":3019,"stateCode":"RP","stateName":"Rhineland-Palatinate","countryId":82,"countryCode":"DE","countryName":"Germany","latitude":"49.51667000","longitude":"7.71667000","wikiDataId":"Q567627"},{"id":27371,"name":"Mehlingen","stateId":3019,"stateCode":"RP","stateName":"Rhineland-Palatinate","countryId":82,"countryCode":"DE","countryName":"Germany","latitude":"49.49136000","longitude":"7.85467000","wikiDataId":"Q612785"},{"id":27374,"name":"Mehren","stateId":3019,"stateCode":"RP","stateName":"Rhineland-Palatinate","countryId":82,"countryCode":"DE","countryName":"Germany","latitude":"50.18333000","longitude":"6.88333000","wikiDataId":"Q566816"},{"id":27376,"name":"Mehring","stateId":3019,"stateCode":"RP","stateName":"Rhineland-Palatinate","countryId":82,"countryCode":"DE","countryName":"Germany","latitude":"49.80000000","longitude":"6.83333000","wikiDataId":"Q1917485"},{"id":27384,"name":"Meisenheim","stateId":3019,"stateCode":"RP","stateName":"Rhineland-Palatinate","countryId":82,"countryCode":"DE","countryName":"Germany","latitude":"49.70721000","longitude":"7.66765000","wikiDataId":"Q520103"},{"id":27398,"name":"Melsbach","stateId":3019,"stateCode":"RP","stateName":"Rhineland-Palatinate","countryId":82,"countryCode":"DE","countryName":"Germany","latitude":"50.48333000","longitude":"7.48333000","wikiDataId":"Q531792"},{"id":27405,"name":"Mendig","stateId":3019,"stateCode":"RP","stateName":"Rhineland-Palatinate","countryId":82,"countryCode":"DE","countryName":"Germany","latitude":"50.36667000","longitude":"7.28333000","wikiDataId":"Q570085"},{"id":27423,"name":"Mertesdorf","stateId":3019,"stateCode":"RP","stateName":"Rhineland-Palatinate","countryId":82,"countryCode":"DE","countryName":"Germany","latitude":"49.77212000","longitude":"6.73290000","wikiDataId":"Q659878"},{"id":27425,"name":"Mertloch","stateId":3019,"stateCode":"RP","stateName":"Rhineland-Palatinate","countryId":82,"countryCode":"DE","countryName":"Germany","latitude":"50.26948000","longitude":"7.30814000","wikiDataId":"Q647090"},{"id":27426,"name":"Merxheim","stateId":3019,"stateCode":"RP","stateName":"Rhineland-Palatinate","countryId":82,"countryCode":"DE","countryName":"Germany","latitude":"49.79297000","longitude":"7.56010000","wikiDataId":"Q641481"},{"id":27427,"name":"Merzalben","stateId":3019,"stateCode":"RP","stateName":"Rhineland-Palatinate","countryId":82,"countryCode":"DE","countryName":"Germany","latitude":"49.24467000","longitude":"7.73077000","wikiDataId":"Q23029"},{"id":27438,"name":"Mettendorf","stateId":3019,"stateCode":"RP","stateName":"Rhineland-Palatinate","countryId":82,"countryCode":"DE","countryName":"Germany","latitude":"49.94784000","longitude":"6.33003000","wikiDataId":"Q32132945"},{"id":27439,"name":"Mettenheim","stateId":3019,"stateCode":"RP","stateName":"Rhineland-Palatinate","countryId":82,"countryCode":"DE","countryName":"Germany","latitude":"49.74000000","longitude":"8.32583000","wikiDataId":"Q818829"},{"id":27445,"name":"Meudt","stateId":3019,"stateCode":"RP","stateName":"Rhineland-Palatinate","countryId":82,"countryCode":"DE","countryName":"Germany","latitude":"50.49889000","longitude":"7.89500000","wikiDataId":"Q676345"},{"id":27459,"name":"Miehlen","stateId":3019,"stateCode":"RP","stateName":"Rhineland-Palatinate","countryId":82,"countryCode":"DE","countryName":"Germany","latitude":"50.22574000","longitude":"7.83196000","wikiDataId":"Q631119"},{"id":27473,"name":"Minfeld","stateId":3019,"stateCode":"RP","stateName":"Rhineland-Palatinate","countryId":82,"countryCode":"DE","countryName":"Germany","latitude":"49.07167000","longitude":"8.14528000","wikiDataId":"Q600380"},{"id":27483,"name":"Mittelhof","stateId":3019,"stateCode":"RP","stateName":"Rhineland-Palatinate","countryId":82,"countryCode":"DE","countryName":"Germany","latitude":"50.77517000","longitude":"7.80466000","wikiDataId":"Q652209"},{"id":27500,"name":"Mogendorf","stateId":3019,"stateCode":"RP","stateName":"Rhineland-Palatinate","countryId":82,"countryCode":"DE","countryName":"Germany","latitude":"50.49444000","longitude":"7.75972000","wikiDataId":"Q676280"},{"id":27507,"name":"Mommenheim","stateId":3019,"stateCode":"RP","stateName":"Rhineland-Palatinate","countryId":82,"countryCode":"DE","countryName":"Germany","latitude":"49.88028000","longitude":"8.26500000","wikiDataId":"Q552260"},{"id":27511,"name":"Monsheim","stateId":3019,"stateCode":"RP","stateName":"Rhineland-Palatinate","countryId":82,"countryCode":"DE","countryName":"Germany","latitude":"49.63722000","longitude":"8.21194000","wikiDataId":"Q643044"},{"id":27512,"name":"Montabaur","stateId":3019,"stateCode":"RP","stateName":"Rhineland-Palatinate","countryId":82,"countryCode":"DE","countryName":"Germany","latitude":"50.43588000","longitude":"7.82320000","wikiDataId":"Q632991"},{"id":27513,"name":"Monzelfeld","stateId":3019,"stateCode":"RP","stateName":"Rhineland-Palatinate","countryId":82,"countryCode":"DE","countryName":"Germany","latitude":"49.89237000","longitude":"7.07318000","wikiDataId":"Q654069"},{"id":27514,"name":"Monzingen","stateId":3019,"stateCode":"RP","stateName":"Rhineland-Palatinate","countryId":82,"countryCode":"DE","countryName":"Germany","latitude":"49.79763000","longitude":"7.59284000","wikiDataId":"Q609223"},{"id":27523,"name":"Morbach","stateId":3019,"stateCode":"RP","stateName":"Rhineland-Palatinate","countryId":82,"countryCode":"DE","countryName":"Germany","latitude":"49.80772000","longitude":"7.12714000","wikiDataId":"Q32142777"},{"id":27532,"name":"Mudersbach","stateId":3019,"stateCode":"RP","stateName":"Rhineland-Palatinate","countryId":82,"countryCode":"DE","countryName":"Germany","latitude":"50.82515000","longitude":"7.94347000","wikiDataId":"Q545231"},{"id":27605,"name":"Mülheim-Kärlich","stateId":3019,"stateCode":"RP","stateName":"Rhineland-Palatinate","countryId":82,"countryCode":"DE","countryName":"Germany","latitude":"50.38510000","longitude":"7.49890000","wikiDataId":"Q558577"},{"id":27615,"name":"Münchweiler an der Alsenz","stateId":3019,"stateCode":"RP","stateName":"Rhineland-Palatinate","countryId":82,"countryCode":"DE","countryName":"Germany","latitude":"49.55000000","longitude":"7.88333000","wikiDataId":"Q642327"},{"id":27616,"name":"Münchweiler an der Rodalbe","stateId":3019,"stateCode":"RP","stateName":"Rhineland-Palatinate","countryId":82,"countryCode":"DE","countryName":"Germany","latitude":"49.21798000","longitude":"7.70295000","wikiDataId":"Q642327"},{"id":27623,"name":"Münster-Sarmsheim","stateId":3019,"stateCode":"RP","stateName":"Rhineland-Palatinate","countryId":82,"countryCode":"DE","countryName":"Germany","latitude":"49.94341000","longitude":"7.89426000","wikiDataId":"Q665852"},{"id":27626,"name":"Münstermaifeld","stateId":3019,"stateCode":"RP","stateName":"Rhineland-Palatinate","countryId":82,"countryCode":"DE","countryName":"Germany","latitude":"50.24638000","longitude":"7.36208000","wikiDataId":"Q514762"},{"id":27629,"name":"Müschenbach","stateId":3019,"stateCode":"RP","stateName":"Rhineland-Palatinate","countryId":82,"countryCode":"DE","countryName":"Germany","latitude":"50.68333000","longitude":"7.78333000","wikiDataId":"Q646422"},{"id":27550,"name":"Mutterstadt","stateId":3019,"stateCode":"RP","stateName":"Rhineland-Palatinate","countryId":82,"countryCode":"DE","countryName":"Germany","latitude":"49.44139000","longitude":"8.35611000","wikiDataId":"Q657074"},{"id":27633,"name":"Nackenheim","stateId":3019,"stateCode":"RP","stateName":"Rhineland-Palatinate","countryId":82,"countryCode":"DE","countryName":"Germany","latitude":"49.91528000","longitude":"8.33889000","wikiDataId":"Q683933"},{"id":27642,"name":"Nanzdietschweiler","stateId":3019,"stateCode":"RP","stateName":"Rhineland-Palatinate","countryId":82,"countryCode":"DE","countryName":"Germany","latitude":"49.45000000","longitude":"7.45000000","wikiDataId":"Q643174"},{"id":27644,"name":"Nassau","stateId":3019,"stateCode":"RP","stateName":"Rhineland-Palatinate","countryId":82,"countryCode":"DE","countryName":"Germany","latitude":"50.31453000","longitude":"7.80025000","wikiDataId":"Q10753"},{"id":27645,"name":"Nastätten","stateId":3019,"stateCode":"RP","stateName":"Rhineland-Palatinate","countryId":82,"countryCode":"DE","countryName":"Germany","latitude":"50.19883000","longitude":"7.85892000","wikiDataId":"Q552491"},{"id":27653,"name":"Nauort","stateId":3019,"stateCode":"RP","stateName":"Rhineland-Palatinate","countryId":82,"countryCode":"DE","countryName":"Germany","latitude":"50.46667000","longitude":"7.63333000","wikiDataId":"Q662193"},{"id":27654,"name":"Nauroth","stateId":3019,"stateCode":"RP","stateName":"Rhineland-Palatinate","countryId":82,"countryCode":"DE","countryName":"Germany","latitude":"50.69927000","longitude":"7.87543000","wikiDataId":"Q662193"},{"id":27676,"name":"Nentershausen","stateId":3019,"stateCode":"RP","stateName":"Rhineland-Palatinate","countryId":82,"countryCode":"DE","countryName":"Germany","latitude":"50.41667000","longitude":"7.93333000","wikiDataId":"Q526087"},{"id":27708,"name":"Neuburg","stateId":3019,"stateCode":"RP","stateName":"Rhineland-Palatinate","countryId":82,"countryCode":"DE","countryName":"Germany","latitude":"48.98933000","longitude":"8.24715000","wikiDataId":"Q32179152"},{"id":27730,"name":"Neuerburg","stateId":3019,"stateCode":"RP","stateName":"Rhineland-Palatinate","countryId":82,"countryCode":"DE","countryName":"Germany","latitude":"50.00102000","longitude":"6.94828000","wikiDataId":"Q32180851"},{"id":27751,"name":"Neuhäusel","stateId":3019,"stateCode":"RP","stateName":"Rhineland-Palatinate","countryId":82,"countryCode":"DE","countryName":"Germany","latitude":"50.38360000","longitude":"7.70960000","wikiDataId":"Q645565"},