[{"id":31472,"name":"’Aïn Deheb","stateId":1106,"stateCode":"14","stateName":"Tiaret","countryId":4,"countryCode":"DZ","countryName":"Algeria","latitude":"34.84218000","longitude":"1.54697000","wikiDataId":"Q2876264"},{"id":31317,"name":"Djebilet Rosfa","stateId":1106,"stateCode":"14","stateName":"Tiaret","countryId":4,"countryCode":"DZ","countryName":"Algeria","latitude":"34.86375000","longitude":"0.83496000","wikiDataId":"Q1649054"},{"id":31346,"name":"Frenda","stateId":1106,"stateCode":"14","stateName":"Tiaret","countryId":4,"countryCode":"DZ","countryName":"Algeria","latitude":"35.06544000","longitude":"1.04945000","wikiDataId":"Q2215495"},{"id":31365,"name":"Ksar Chellala","stateId":1106,"stateCode":"14","stateName":"Tiaret","countryId":4,"countryCode":"DZ","countryName":"Algeria","latitude":"35.21222000","longitude":"2.31889000","wikiDataId":"Q1648944"},{"id":31379,"name":"Mehdia daira de meghila","stateId":1106,"stateCode":"14","stateName":"Tiaret","countryId":4,"countryCode":"DZ","countryName":"Algeria","latitude":"35.43058000","longitude":"1.75714000","wikiDataId":"Q3277676"},{"id":31436,"name":"Sougueur","stateId":1106,"stateCode":"14","stateName":"Tiaret","countryId":4,"countryCode":"DZ","countryName":"Algeria","latitude":"35.18568000","longitude":"1.49612000","wikiDataId":"Q1483423"},{"id":31449,"name":"Tiaret","stateId":1106,"stateCode":"14","stateName":"Tiaret","countryId":4,"countryCode":"DZ","countryName":"Algeria","latitude":"35.37103000","longitude":"1.31699000","wikiDataId":"Q565568"}]