[{"id":105209,"name":"Amphoe Ban Phaeng","stateId":3548,"stateCode":"48","stateName":"Nakhon Phanom","countryId":219,"countryCode":"TH","countryName":"Thailand","latitude":"17.86955000","longitude":"104.22744000","wikiDataId":"Q475149"},{"id":105555,"name":"Amphoe Mueang Nakhon Phanom","stateId":3548,"stateCode":"48","stateName":"Nakhon Phanom","countryId":219,"countryCode":"TH","countryName":"Thailand","latitude":"17.31965000","longitude":"104.68232000","wikiDataId":"Q476036"},{"id":105614,"name":"Amphoe Na Kae","stateId":3548,"stateCode":"48","stateName":"Nakhon Phanom","countryId":219,"countryCode":"TH","countryName":"Thailand","latitude":"16.95737000","longitude":"104.49349000","wikiDataId":"Q476129"},{"id":105624,"name":"Amphoe Na Thom","stateId":3548,"stateCode":"48","stateName":"Nakhon Phanom","countryId":219,"countryCode":"TH","countryName":"Thailand","latitude":"17.82134000","longitude":"104.10871000","wikiDataId":"Q476151"},{"id":105625,"name":"Amphoe Na Wa","stateId":3548,"stateCode":"48","stateName":"Nakhon Phanom","countryId":219,"countryCode":"TH","countryName":"Thailand","latitude":"17.49922000","longitude":"104.11833000","wikiDataId":"Q262392"},{"id":105755,"name":"Amphoe Phon Sawan","stateId":3548,"stateCode":"48","stateName":"Nakhon Phanom","countryId":219,"countryCode":"TH","countryName":"Thailand","latitude":"17.46868000","longitude":"104.42234000","wikiDataId":"Q476427"},{"id":105787,"name":"Amphoe Pla Pak","stateId":3548,"stateCode":"48","stateName":"Nakhon Phanom","countryId":219,"countryCode":"TH","countryName":"Thailand","latitude":"17.20133000","longitude":"104.54674000","wikiDataId":"Q476504"},{"id":105811,"name":"Amphoe Renu Nakhon","stateId":3548,"stateCode":"48","stateName":"Nakhon Phanom","countryId":219,"countryCode":"TH","countryName":"Thailand","latitude":"17.05080000","longitude":"104.65664000","wikiDataId":"Q476566"},{"id":106227,"name":"Amphoe Si Songkhram","stateId":3548,"stateCode":"48","stateName":"Nakhon Phanom","countryId":219,"countryCode":"TH","countryName":"Thailand","latitude":"17.62989000","longitude":"104.24495000","wikiDataId":"Q476724"},{"id":106289,"name":"Amphoe Tha Uthen","stateId":3548,"stateCode":"48","stateName":"Nakhon Phanom","countryId":219,"countryCode":"TH","countryName":"Thailand","latitude":"17.59263000","longitude":"104.49884000","wikiDataId":"Q476861"},{"id":106303,"name":"Amphoe That Phanom","stateId":3548,"stateCode":"48","stateName":"Nakhon Phanom","countryId":219,"countryCode":"TH","countryName":"Thailand","latitude":"16.96457000","longitude":"104.70277000","wikiDataId":"Q476902"},{"id":106350,"name":"Amphoe Wangyang","stateId":3548,"stateCode":"48","stateName":"Nakhon Phanom","countryId":219,"countryCode":"TH","countryName":"Thailand","latitude":"17.07189000","longitude":"104.45373000","wikiDataId":"Q477034"},{"id":106577,"name":"Na Wa","stateId":3548,"stateCode":"48","stateName":"Nakhon Phanom","countryId":219,"countryCode":"TH","countryName":"Thailand","latitude":"17.48970000","longitude":"104.10056000","wikiDataId":"Q28727633"},{"id":106582,"name":"Nakhon Phanom","stateId":3548,"stateCode":"48","stateName":"Nakhon Phanom","countryId":219,"countryCode":"TH","countryName":"Thailand","latitude":"17.41081000","longitude":"104.77856000","wikiDataId":"Q777162"},{"id":106729,"name":"That Phanom","stateId":3548,"stateCode":"48","stateName":"Nakhon Phanom","countryId":219,"countryCode":"TH","countryName":"Thailand","latitude":"16.93636000","longitude":"104.71039000","wikiDataId":"Q28727657"}]