[{"id":105200,"name":"Amphoe Ban Luang","stateId":3530,"stateCode":"55","stateName":"Nan","countryId":219,"countryCode":"TH","countryName":"Thailand","latitude":"18.88375000","longitude":"100.46014000","wikiDataId":"Q475124"},{"id":105251,"name":"Amphoe Bo Kluea","stateId":3530,"stateCode":"55","stateName":"Nan","countryId":219,"countryCode":"TH","countryName":"Thailand","latitude":"19.08994000","longitude":"101.18952000","wikiDataId":"Q475276"},{"id":105276,"name":"Amphoe Chaloem Phra Kiat","stateId":3530,"stateCode":"55","stateName":"Nan","countryId":219,"countryCode":"TH","countryName":"Thailand","latitude":"19.50618000","longitude":"101.14249000","wikiDataId":"Q475347"},{"id":105297,"name":"Amphoe Chiang Klang","stateId":3530,"stateCode":"55","stateName":"Nan","countryId":219,"countryCode":"TH","countryName":"Thailand","latitude":"19.30637000","longitude":"100.87878000","wikiDataId":"Q475393"},{"id":105500,"name":"Amphoe Mae Charim","stateId":3530,"stateCode":"55","stateName":"Nan","countryId":219,"countryCode":"TH","countryName":"Thailand","latitude":"18.71336000","longitude":"101.11011000","wikiDataId":"Q475927"},{"id":105559,"name":"Amphoe Mueang Nan","stateId":3530,"stateCode":"55","stateName":"Nan","countryId":219,"countryCode":"TH","countryName":"Thailand","latitude":"18.89008000","longitude":"100.67472000","wikiDataId":"Q476043"},{"id":105619,"name":"Amphoe Na Muen","stateId":3530,"stateCode":"55","stateName":"Nan","countryId":219,"countryCode":"TH","countryName":"Thailand","latitude":"18.12524000","longitude":"100.60270000","wikiDataId":"Q476138"},{"id":105620,"name":"Amphoe Na Noi","stateId":3530,"stateCode":"55","stateName":"Nan","countryId":219,"countryCode":"TH","countryName":"Thailand","latitude":"18.30269000","longitude":"100.72393000","wikiDataId":"Q205752"},{"id":105779,"name":"Amphoe Phu Phiang","stateId":3530,"stateCode":"55","stateName":"Nan","countryId":219,"countryCode":"TH","countryName":"Thailand","latitude":"18.78030000","longitude":"100.87497000","wikiDataId":"Q476484"},{"id":105800,"name":"Amphoe Pua","stateId":3530,"stateCode":"55","stateName":"Nan","countryId":219,"countryCode":"TH","countryName":"Thailand","latitude":"19.16306000","longitude":"101.02796000","wikiDataId":"Q476535"},{"id":106192,"name":"Amphoe Santi Suk","stateId":3530,"stateCode":"55","stateName":"Nan","countryId":219,"countryCode":"TH","countryName":"Thailand","latitude":"18.91190000","longitude":"101.00016000","wikiDataId":"Q476644"},{"id":106246,"name":"Amphoe Song Khwae","stateId":3530,"stateCode":"55","stateName":"Nan","countryId":219,"countryCode":"TH","countryName":"Thailand","latitude":"19.40911000","longitude":"100.66174000","wikiDataId":"Q382806"},{"id":106290,"name":"Amphoe Tha Wang Pha","stateId":3530,"stateCode":"55","stateName":"Nan","countryId":219,"countryCode":"TH","countryName":"Thailand","latitude":"19.13148000","longitude":"100.76117000","wikiDataId":"Q476862"},{"id":106311,"name":"Amphoe Thung Chang","stateId":3530,"stateCode":"55","stateName":"Nan","countryId":219,"countryCode":"TH","countryName":"Thailand","latitude":"19.46342000","longitude":"100.91937000","wikiDataId":"Q476933"},{"id":106366,"name":"Amphoe Wiang Sa","stateId":3530,"stateCode":"55","stateName":"Nan","countryId":219,"countryCode":"TH","countryName":"Thailand","latitude":"18.55088000","longitude":"100.72754000","wikiDataId":"Q477085"},{"id":106473,"name":"Chiang Klang","stateId":3530,"stateCode":"55","stateName":"Nan","countryId":219,"countryCode":"TH","countryName":"Thailand","latitude":"19.29378000","longitude":"100.86169000","wikiDataId":"Q28726657"},{"id":106588,"name":"Nan","stateId":3530,"stateCode":"55","stateName":"Nan","countryId":219,"countryCode":"TH","countryName":"Thailand","latitude":"18.78378000","longitude":"100.77899000","wikiDataId":"Q1014345"}]