[{"id":31243,"name":"Aïn Defla","stateId":1119,"stateCode":"44","stateName":"Aïn Defla","countryId":4,"countryCode":"DZ","countryName":"Algeria","latitude":"36.26405000","longitude":"1.96790000","wikiDataId":"Q168846"},{"id":31325,"name":"El Abadia","stateId":1119,"stateCode":"44","stateName":"Aïn Defla","countryId":4,"countryCode":"DZ","countryName":"Algeria","latitude":"36.26951000","longitude":"1.68609000","wikiDataId":"Q1649058"},{"id":31331,"name":"El Attaf","stateId":1119,"stateCode":"44","stateName":"Aïn Defla","countryId":4,"countryCode":"DZ","countryName":"Algeria","latitude":"36.22393000","longitude":"1.67187000","wikiDataId":"Q1029528"},{"id":31361,"name":"Khemis Miliana","stateId":1119,"stateCode":"44","stateName":"Aïn Defla","countryId":4,"countryCode":"DZ","countryName":"Algeria","latitude":"36.26104000","longitude":"2.22015000","wikiDataId":"Q954285"},{"id":31448,"name":"Theniet el Had","stateId":1119,"stateCode":"44","stateName":"Aïn Defla","countryId":4,"countryCode":"DZ","countryName":"Algeria","latitude":"35.87111000","longitude":"2.02806000","wikiDataId":"Q3054256"}]