[{"id":134484,"name":"Al Miqdādīyah","stateId":3965,"stateCode":"DI","stateName":"Diyala","countryId":104,"countryCode":"IQ","countryName":"Iraq","latitude":"33.97861000","longitude":"44.93694000","wikiDataId":"Q2353893"},{"id":134506,"name":"Baladrūz","stateId":3965,"stateCode":"DI","stateName":"Diyala","countryId":104,"countryCode":"IQ","countryName":"Iraq","latitude":"33.69631000","longitude":"45.07782000","wikiDataId":"Q804598"},{"id":134507,"name":"Baqubah","stateId":3965,"stateCode":"DI","stateName":"Diyala","countryId":104,"countryCode":"IQ","countryName":"Iraq","latitude":"33.75403000","longitude":"44.60518000","wikiDataId":"Q270821"},{"id":134519,"name":"Khāliş","stateId":3965,"stateCode":"DI","stateName":"Diyala","countryId":104,"countryCode":"IQ","countryName":"Iraq","latitude":"33.80809000","longitude":"44.53343000","wikiDataId":"Q199909"},{"id":134520,"name":"Kifrī","stateId":3965,"stateCode":"DI","stateName":"Diyala","countryId":104,"countryCode":"IQ","countryName":"Iraq","latitude":"34.68963000","longitude":"44.96057000","wikiDataId":"Q2626532"},{"id":134524,"name":"Mandalī","stateId":3965,"stateCode":"DI","stateName":"Diyala","countryId":104,"countryCode":"IQ","countryName":"Iraq","latitude":"33.74810000","longitude":"45.55503000","wikiDataId":"Q1382440"},{"id":134532,"name":"Qaḑā’ Kifrī","stateId":3965,"stateCode":"DI","stateName":"Diyala","countryId":104,"countryCode":"IQ","countryName":"Iraq","latitude":"34.52289000","longitude":"44.85821000","wikiDataId":"Q4404528"}]