[{"id":2727,"name":"Estuaire Province","countryId":79,"countryCode":"GA","countryName":"Gabon","stateCode":"1","type":null,"latitude":"0.44328640","longitude":"10.08072980"},{"id":2726,"name":"Haut-Ogooué Province","countryId":79,"countryCode":"GA","countryName":"Gabon","stateCode":"2","type":null,"latitude":"-1.47625440","longitude":"13.91439900"},{"id":2730,"name":"Moyen-Ogooué Province","countryId":79,"countryCode":"GA","countryName":"Gabon","stateCode":"3","type":null,"latitude":"-0.44278400","longitude":"10.43965600"},{"id":2731,"name":"Ngounié Province","countryId":79,"countryCode":"GA","countryName":"Gabon","stateCode":"4","type":null,"latitude":"-1.49303030","longitude":"10.98070030"},{"id":2725,"name":"Nyanga Province","countryId":79,"countryCode":"GA","countryName":"Gabon","stateCode":"5","type":null,"latitude":"-2.88210330","longitude":"11.16173560"},{"id":2724,"name":"Ogooué-Ivindo Province","countryId":79,"countryCode":"GA","countryName":"Gabon","stateCode":"6","type":null,"latitude":"0.88183110","longitude":"13.17403480"},{"id":2729,"name":"Ogooué-Lolo Province","countryId":79,"countryCode":"GA","countryName":"Gabon","stateCode":"7","type":null,"latitude":"-0.88440930","longitude":"12.43805810"},{"id":2728,"name":"Ogooué-Maritime Province","countryId":79,"countryCode":"GA","countryName":"Gabon","stateCode":"8","type":null,"latitude":"-1.34659750","longitude":"9.72326730"},{"id":2723,"name":"Woleu-Ntem Province","countryId":79,"countryCode":"GA","countryName":"Gabon","stateCode":"9","type":null,"latitude":"2.29898270","longitude":"11.44669140"}]