[{"id":66464,"name":"Dehiwala-Mount Lavinia","stateId":2815,"stateCode":"11","stateName":"Colombo District","countryId":208,"countryCode":"LK","countryName":"Sri Lanka","latitude":"6.84019000","longitude":"79.87116000","wikiDataId":"Q24462"},{"id":66479,"name":"Homagama","stateId":2815,"stateCode":"11","stateName":"Colombo District","countryId":208,"countryCode":"LK","countryName":"Sri Lanka","latitude":"6.84879896","longitude":"80.00467300","wikiDataId":"Q5887377"},{"id":146181,"name":"Kaduwela","stateId":2815,"stateCode":"11","stateName":"Colombo District","countryId":208,"countryCode":"LK","countryName":"Sri Lanka","latitude":"6.93106260","longitude":"79.97944220","wikiDataId":"Q6345805"},{"id":146180,"name":"Kesbewa","stateId":2815,"stateCode":"11","stateName":"Colombo District","countryId":208,"countryCode":"LK","countryName":"Sri Lanka","latitude":"6.78425894","longitude":"79.94665276","wikiDataId":"Q6394911"},{"id":66499,"name":"Kolonnawa","stateId":2815,"stateCode":"11","stateName":"Colombo District","countryId":208,"countryCode":"LK","countryName":"Sri Lanka","latitude":"6.92893463","longitude":"79.89495168","wikiDataId":"Q6427785"},{"id":146176,"name":"Kotte","stateId":2815,"stateCode":"11","stateName":"Colombo District","countryId":208,"countryCode":"LK","countryName":"Sri Lanka","latitude":"6.88932048","longitude":"79.90359501","wikiDataId":"Q6434328"},{"id":66504,"name":"Maharagama","stateId":2815,"stateCode":"11","stateName":"Colombo District","countryId":208,"countryCode":"LK","countryName":"Sri Lanka","latitude":"6.84954886","longitude":"79.92507313","wikiDataId":"Q6733192"},{"id":66514,"name":"Moratuwa","stateId":2815,"stateCode":"11","stateName":"Colombo District","countryId":208,"countryCode":"LK","countryName":"Sri Lanka","latitude":"6.78149272","longitude":"79.88347117","wikiDataId":"Q6909302"},{"id":146179,"name":"Padukka","stateId":2815,"stateCode":"11","stateName":"Colombo District","countryId":208,"countryCode":"LK","countryName":"Sri Lanka","latitude":"6.84794680","longitude":"80.10153292","wikiDataId":"Q7124001"},{"id":146178,"name":"Ratmalana","stateId":2815,"stateCode":"11","stateName":"Colombo District","countryId":208,"countryCode":"LK","countryName":"Sri Lanka","latitude":"6.82105987","longitude":"79.88023083","wikiDataId":"Q7295826"},{"id":146177,"name":"Seethawaka","stateId":2815,"stateCode":"11","stateName":"Colombo District","countryId":208,"countryCode":"LK","countryName":"Sri Lanka","latitude":"6.92959912","longitude":"80.14979867","wikiDataId":"Q7445984"},{"id":146175,"name":"Thimbirigasyaya","stateId":2815,"stateCode":"11","stateName":"Colombo District","countryId":208,"countryCode":"LK","countryName":"Sri Lanka","latitude":"6.90214217","longitude":"79.86957578","wikiDataId":"Q7784197"}]