[{"id":107281,"name":"Banaz","stateId":2201,"stateCode":"64","stateName":"Uşak","countryId":225,"countryCode":"TR","countryName":"Turkey","latitude":"38.73707000","longitude":"29.75194000","wikiDataId":"Q199723"},{"id":107629,"name":"Eşme","stateId":2201,"stateCode":"64","stateName":"Uşak","countryId":225,"countryCode":"TR","countryName":"Turkey","latitude":"38.39976000","longitude":"28.96905000","wikiDataId":"Q586434"},{"id":107894,"name":"Karahallı","stateId":2201,"stateCode":"64","stateName":"Uşak","countryId":225,"countryCode":"TR","countryName":"Turkey","latitude":"38.32083000","longitude":"29.53028000","wikiDataId":"Q189697"},{"id":108183,"name":"Merkez","stateId":2201,"stateCode":"64","stateName":"Uşak","countryId":225,"countryCode":"TR","countryName":"Turkey","latitude":"38.68463000","longitude":"29.29455000","wikiDataId":"Q3055997"},{"id":108474,"name":"Sivaslı","stateId":2201,"stateCode":"64","stateName":"Uşak","countryId":225,"countryCode":"TR","countryName":"Turkey","latitude":"38.49944000","longitude":"29.68361000","wikiDataId":"Q107401"},{"id":108621,"name":"Ulubey","stateId":2201,"stateCode":"64","stateName":"Uşak","countryId":225,"countryCode":"TR","countryName":"Turkey","latitude":"38.41987000","longitude":"29.29129000","wikiDataId":"Q1816898"}]