[{"id":52217,"name":"Abuko","stateId":2667,"stateCode":"W","stateName":"West Coast Division","countryId":80,"countryCode":"GM","countryName":"Gambia The","latitude":"13.40417000","longitude":"-16.65583000","wikiDataId":"Q335811"},{"id":52227,"name":"Brikama","stateId":2667,"stateCode":"W","stateName":"West Coast Division","countryId":80,"countryCode":"GM","countryName":"Gambia The","latitude":"13.27136000","longitude":"-16.64944000","wikiDataId":"Q916988"},{"id":52241,"name":"Foni Bondali","stateId":2667,"stateCode":"W","stateName":"West Coast Division","countryId":80,"countryCode":"GM","countryName":"Gambia The","latitude":"13.21667000","longitude":"-15.93333000","wikiDataId":"Q1435751"},{"id":52242,"name":"Foni Brefet","stateId":2667,"stateCode":"W","stateName":"West Coast Division","countryId":80,"countryCode":"GM","countryName":"Gambia The","latitude":"13.21667000","longitude":"-16.33333000","wikiDataId":"Q1435749"},{"id":52243,"name":"Foni Jarrol","stateId":2667,"stateCode":"W","stateName":"West Coast Division","countryId":80,"countryCode":"GM","countryName":"Gambia The","latitude":"13.23333000","longitude":"-15.83333000","wikiDataId":"Q124275"},{"id":52244,"name":"Foni Kansala","stateId":2667,"stateCode":"W","stateName":"West Coast Division","countryId":80,"countryCode":"GM","countryName":"Gambia The","latitude":"13.21667000","longitude":"-16.05000000","wikiDataId":"Q1435754"},{"id":52249,"name":"Gunjur","stateId":2667,"stateCode":"W","stateName":"West Coast Division","countryId":80,"countryCode":"GM","countryName":"Gambia The","latitude":"13.20194000","longitude":"-16.73389000","wikiDataId":"Q687816"},{"id":52274,"name":"Kombo Central District","stateId":2667,"stateCode":"W","stateName":"West Coast Division","countryId":80,"countryCode":"GM","countryName":"Gambia The","latitude":"13.25000000","longitude":"-16.66667000","wikiDataId":"Q1572741"},{"id":52275,"name":"Kombo East District","stateId":2667,"stateCode":"W","stateName":"West Coast Division","countryId":80,"countryCode":"GM","countryName":"Gambia The","latitude":"13.21667000","longitude":"-16.51667000","wikiDataId":"Q1548433"},{"id":52276,"name":"Kombo North District","stateId":2667,"stateCode":"W","stateName":"West Coast Division","countryId":80,"countryCode":"GM","countryName":"Gambia The","latitude":"13.36667000","longitude":"-16.66667000","wikiDataId":"Q1572418"},{"id":52278,"name":"Kombo South District","stateId":2667,"stateCode":"W","stateName":"West Coast Division","countryId":80,"countryCode":"GM","countryName":"Gambia The","latitude":"13.25000000","longitude":"-16.75000000","wikiDataId":"Q1572017"},{"id":52307,"name":"Somita","stateId":2667,"stateCode":"W","stateName":"West Coast Division","countryId":80,"countryCode":"GM","countryName":"Gambia The","latitude":"13.20583000","longitude":"-16.30556000","wikiDataId":"Q2299731"},{"id":52310,"name":"Sukuta","stateId":2667,"stateCode":"W","stateName":"West Coast Division","countryId":80,"countryCode":"GM","countryName":"Gambia The","latitude":"13.41033000","longitude":"-16.70815000","wikiDataId":"Q1013940"}]