[{"id":81025,"name":"Aitape","stateId":4836,"stateCode":"SAN","stateName":"Sandaun Province","countryId":171,"countryCode":"PG","countryName":"Papua new Guinea","latitude":"-3.13697000","longitude":"142.34913000","wikiDataId":"Q1771821"},{"id":81026,"name":"Aitape Lumi","stateId":4836,"stateCode":"SAN","stateName":"Sandaun Province","countryId":171,"countryCode":"PG","countryName":"Papua new Guinea","latitude":"-3.25000000","longitude":"142.08333000","wikiDataId":"Q3710592"},{"id":81094,"name":"Nuku","stateId":4836,"stateCode":"SAN","stateName":"Sandaun Province","countryId":171,"countryCode":"PG","countryName":"Papua new Guinea","latitude":"-3.66667000","longitude":"142.41667000","wikiDataId":"Q3711268"},{"id":81116,"name":"Telefomin","stateId":4836,"stateCode":"SAN","stateName":"Sandaun Province","countryId":171,"countryCode":"PG","countryName":"Papua new Guinea","latitude":"-4.91667000","longitude":"141.66667000","wikiDataId":"Q3711525"},{"id":81120,"name":"Vanimo","stateId":4836,"stateCode":"SAN","stateName":"Sandaun Province","countryId":171,"countryCode":"PG","countryName":"Papua new Guinea","latitude":"-2.68372000","longitude":"141.30195000","wikiDataId":"Q3711569"},{"id":81121,"name":"Vanimo Green","stateId":4836,"stateCode":"SAN","stateName":"Sandaun Province","countryId":171,"countryCode":"PG","countryName":"Papua new Guinea","latitude":"-3.36667000","longitude":"141.35000000","wikiDataId":"Q3711580"}]