[{"id":109070,"name":"Geiro","stateId":1470,"stateCode":"16","stateName":"Morogoro","countryId":218,"countryCode":"TZ","countryName":"Tanzania","latitude":"-6.15000000","longitude":"36.86667000","wikiDataId":"Q49349721"},{"id":109073,"name":"Ifakara","stateId":1470,"stateCode":"16","stateName":"Morogoro","countryId":218,"countryCode":"TZ","countryName":"Tanzania","latitude":"-8.13333000","longitude":"36.68333000","wikiDataId":"Q995454"},{"id":109106,"name":"Kidatu","stateId":1470,"stateCode":"16","stateName":"Morogoro","countryId":218,"countryCode":"TZ","countryName":"Tanzania","latitude":"-7.69916000","longitude":"36.95722000","wikiDataId":"Q939295"},{"id":109107,"name":"Kidodi","stateId":1470,"stateCode":"16","stateName":"Morogoro","countryId":218,"countryCode":"TZ","countryName":"Tanzania","latitude":"-7.60361000","longitude":"37.00438000","wikiDataId":"Q939295"},{"id":109115,"name":"Kilosa","stateId":1470,"stateCode":"16","stateName":"Morogoro","countryId":218,"countryCode":"TZ","countryName":"Tanzania","latitude":"-6.83333000","longitude":"36.98333000","wikiDataId":"Q6408133"},{"id":109116,"name":"Kimamba","stateId":1470,"stateCode":"16","stateName":"Morogoro","countryId":218,"countryCode":"TZ","countryName":"Tanzania","latitude":"-6.78333000","longitude":"37.13333000","wikiDataId":"Q6408133"},{"id":109123,"name":"Kisanga","stateId":1470,"stateCode":"16","stateName":"Morogoro","countryId":218,"countryCode":"TZ","countryName":"Tanzania","latitude":"-7.43622000","longitude":"37.70337000","wikiDataId":"Q11929863"},{"id":109149,"name":"Lupiro","stateId":1470,"stateCode":"16","stateName":"Morogoro","countryId":218,"countryCode":"TZ","countryName":"Tanzania","latitude":"-8.38333000","longitude":"36.66667000","wikiDataId":"Q1877120"},{"id":109155,"name":"Magole","stateId":1470,"stateCode":"16","stateName":"Morogoro","countryId":218,"countryCode":"TZ","countryName":"Tanzania","latitude":"-6.37697000","longitude":"37.37373000","wikiDataId":"Q35722319"},{"id":109160,"name":"Mahenge","stateId":1470,"stateCode":"16","stateName":"Morogoro","countryId":218,"countryCode":"TZ","countryName":"Tanzania","latitude":"-8.68333000","longitude":"36.71667000","wikiDataId":"Q13123849"},{"id":109170,"name":"Malinyi","stateId":1470,"stateCode":"16","stateName":"Morogoro","countryId":218,"countryCode":"TZ","countryName":"Tanzania","latitude":"-8.93333000","longitude":"36.13333000","wikiDataId":"Q6272925"},{"id":109197,"name":"Mikumi","stateId":1470,"stateCode":"16","stateName":"Morogoro","countryId":218,"countryCode":"TZ","countryName":"Tanzania","latitude":"-7.40409000","longitude":"36.98309000","wikiDataId":"Q6850269"},{"id":109206,"name":"Mlimba","stateId":1470,"stateCode":"16","stateName":"Morogoro","countryId":218,"countryCode":"TZ","countryName":"Tanzania","latitude":"-8.80000000","longitude":"35.81667000","wikiDataId":"Q29578870"},{"id":109208,"name":"Morogoro","stateId":1470,"stateCode":"16","stateName":"Morogoro","countryId":218,"countryCode":"TZ","countryName":"Tanzania","latitude":"-6.82102000","longitude":"37.66122000","wikiDataId":"Q243319"},{"id":109213,"name":"Msowero","stateId":1470,"stateCode":"16","stateName":"Morogoro","countryId":218,"countryCode":"TZ","countryName":"Tanzania","latitude":"-6.53333000","longitude":"37.20000000","wikiDataId":"Q3711197"},{"id":109216,"name":"Mtimbira","stateId":1470,"stateCode":"16","stateName":"Morogoro","countryId":218,"countryCode":"TZ","countryName":"Tanzania","latitude":"-8.78333000","longitude":"36.35000000","wikiDataId":"Q13124271"},{"id":109228,"name":"Mvomero District","stateId":1470,"stateCode":"16","stateName":"Morogoro","countryId":218,"countryCode":"TZ","countryName":"Tanzania","latitude":"-6.30000000","longitude":"37.45000000","wikiDataId":"Q3711212"},{"id":109252,"name":"Ngerengere","stateId":1470,"stateCode":"16","stateName":"Morogoro","countryId":218,"countryCode":"TZ","countryName":"Tanzania","latitude":"-6.75000000","longitude":"38.11667000","wikiDataId":"Q3875760"}]