[{"id":31944,"name":"Agaete","stateId":1185,"stateCode":"GC","stateName":"Las Palmas","countryId":207,"countryCode":"ES","countryName":"Spain","latitude":"28.10023000","longitude":"-15.69998000","wikiDataId":"Q24013887"},{"id":31973,"name":"Agüimes","stateId":1185,"stateCode":"GC","stateName":"Las Palmas","countryId":207,"countryCode":"ES","countryName":"Spain","latitude":"27.90539000","longitude":"-15.44609000","wikiDataId":"Q399683"},{"id":153199,"name":"Aldea de San Nicolás La","stateId":1185,"stateCode":"GC","stateName":"Las Palmas","countryId":207,"countryCode":"ES","countryName":"Spain","latitude":"0.00000000","longitude":"0.00000000","wikiDataId":null},{"id":32393,"name":"Antigua","stateId":1185,"stateCode":"GC","stateName":"Las Palmas","countryId":207,"countryCode":"ES","countryName":"Spain","latitude":"28.42307000","longitude":"-14.01379000","wikiDataId":"Q575670"},{"id":32504,"name":"Arrecife","stateId":1185,"stateCode":"GC","stateName":"Las Palmas","countryId":207,"countryCode":"ES","countryName":"Spain","latitude":"28.96302000","longitude":"-13.54769000","wikiDataId":"Q384380"},{"id":32523,"name":"Artenara","stateId":1185,"stateCode":"GC","stateName":"Las Palmas","countryId":207,"countryCode":"ES","countryName":"Spain","latitude":"28.02055000","longitude":"-15.64693000","wikiDataId":"Q12383329"},{"id":32528,"name":"Arucas","stateId":1185,"stateCode":"GC","stateName":"Las Palmas","countryId":207,"countryCode":"ES","countryName":"Spain","latitude":"28.11983000","longitude":"-15.52325000","wikiDataId":"Q715970"},{"id":153196,"name":"Betancuria","stateId":1185,"stateCode":"GC","stateName":"Las Palmas","countryId":207,"countryCode":"ES","countryName":"Spain","latitude":"0.00000000","longitude":"0.00000000","wikiDataId":null},{"id":33328,"name":"Carrizal","stateId":1185,"stateCode":"GC","stateName":"Las Palmas","countryId":207,"countryCode":"ES","countryName":"Spain","latitude":"27.91161000","longitude":"-15.40558000","wikiDataId":"Q1644871"},{"id":33802,"name":"Corralejo","stateId":1185,"stateCode":"GC","stateName":"Las Palmas","countryId":207,"countryCode":"ES","countryName":"Spain","latitude":"28.73079000","longitude":"-13.86749000","wikiDataId":"Q187978"},{"id":33818,"name":"Costa Calma","stateId":1185,"stateCode":"GC","stateName":"Las Palmas","countryId":207,"countryCode":"ES","countryName":"Spain","latitude":"28.16155000","longitude":"-14.22691000","wikiDataId":"Q1136332"},{"id":33819,"name":"Costa Teguise","stateId":1185,"stateCode":"GC","stateName":"Las Palmas","countryId":207,"countryCode":"ES","countryName":"Spain","latitude":"28.99838000","longitude":"-13.49911000","wikiDataId":"Q991489"},{"id":33839,"name":"Cruce de Arinaga","stateId":1185,"stateCode":"GC","stateName":"Las Palmas","countryId":207,"countryCode":"ES","countryName":"Spain","latitude":"27.87656000","longitude":"-15.42798000","wikiDataId":"Q5792267"},{"id":33994,"name":"El Cotillo","stateId":1185,"stateCode":"GC","stateName":"Las Palmas","countryId":207,"countryCode":"ES","countryName":"Spain","latitude":"28.68264000","longitude":"-14.00637000","wikiDataId":"Q1324017"},{"id":34004,"name":"El Paso","stateId":1185,"stateCode":"GC","stateName":"Las Palmas","countryId":207,"countryCode":"ES","countryName":"Spain","latitude":"28.65007000","longitude":"-17.88274000","wikiDataId":"Q434123"},{"id":34190,"name":"Firgas","stateId":1185,"stateCode":"GC","stateName":"Las Palmas","countryId":207,"countryCode":"ES","countryName":"Spain","latitude":"28.10711000","longitude":"-15.56299000","wikiDataId":"Q1646107"},{"id":34559,"name":"Gáldar","stateId":1185,"stateCode":"GC","stateName":"Las Palmas","countryId":207,"countryCode":"ES","countryName":"Spain","latitude":"28.14701000","longitude":"-15.65020000","wikiDataId":"Q23986000"},{"id":34541,"name":"Guia","stateId":1185,"stateCode":"GC","stateName":"Las Palmas","countryId":207,"countryCode":"ES","countryName":"Spain","latitude":"28.13974000","longitude":"-15.63294000","wikiDataId":"Q62128920"},{"id":34573,"name":"Haría","stateId":1185,"stateCode":"GC","stateName":"Las Palmas","countryId":207,"countryCode":"ES","countryName":"Spain","latitude":"29.14553000","longitude":"-13.49986000","wikiDataId":"Q1643548"},{"id":34754,"name":"Ingenio","stateId":1185,"stateCode":"GC","stateName":"Las Palmas","countryId":207,"countryCode":"ES","countryName":"Spain","latitude":"27.91855000","longitude":"-15.43433000","wikiDataId":"Q23984826"},{"id":34880,"name":"La Guancha","stateId":1185,"stateCode":"GC","stateName":"Las Palmas","countryId":207,"countryCode":"ES","countryName":"Spain","latitude":"28.37320000","longitude":"-16.65158000","wikiDataId":"Q1228808"},{"id":34887,"name":"La Laguna","stateId":1185,"stateCode":"GC","stateName":"Las Palmas","countryId":207,"countryCode":"ES","countryName":"Spain","latitude":"28.48530000","longitude":"-16.32014000","wikiDataId":"Q16628307"},{"id":34894,"name":"La Matanza de Acentejo","stateId":1185,"stateCode":"GC","stateName":"Las Palmas","countryId":207,"countryCode":"ES","countryName":"Spain","latitude":"28.45242000","longitude":"-16.44720000","wikiDataId":"Q13148"},{"id":34897,"name":"La Oliva","stateId":1185,"stateCode":"GC","stateName":"Las Palmas","countryId":207,"countryCode":"ES","countryName":"Spain","latitude":"28.61052000","longitude":"-13.92912000","wikiDataId":"Q594892"},{"id":34898,"name":"La Orotava","stateId":1185,"stateCode":"GC","stateName":"Las Palmas","countryId":207,"countryCode":"ES","countryName":"Spain","latitude":"28.39076000","longitude":"-16.52309000","wikiDataId":"Q920391"},{"id":34934,"name":"La Victoria de Acentejo","stateId":1185,"stateCode":"GC","stateName":"Las Palmas","countryId":207,"countryCode":"ES","countryName":"Spain","latitude":"28.43231000","longitude":"-16.46232000","wikiDataId":"Q985601"},{"id":34988,"name":"Las Palmas de Gran Canaria","stateId":1185,"stateCode":"GC","stateName":"Las Palmas","countryId":207,"countryCode":"ES","countryName":"Spain","latitude":"28.09973000","longitude":"-15.41343000","wikiDataId":"Q23984578"},{"id":34990,"name":"Las Rosas","stateId":1185,"stateCode":"GC","stateName":"Las Palmas","countryId":207,"countryCode":"ES","countryName":"Spain","latitude":"28.01539000","longitude":"-16.65373000","wikiDataId":"Q24011519"},{"id":35105,"name":"Lomo de Arico","stateId":1185,"stateCode":"GC","stateName":"Las Palmas","countryId":207,"countryCode":"ES","countryName":"Spain","latitude":"28.16667000","longitude":"-16.48333000","wikiDataId":"Q657738"},{"id":35122,"name":"Los Gigantes","stateId":1185,"stateCode":"GC","stateName":"Las Palmas","countryId":207,"countryCode":"ES","countryName":"Spain","latitude":"28.24361000","longitude":"-16.84153000","wikiDataId":"Q1489481"},{"id":35124,"name":"Los Llanos de Aridane","stateId":1185,"stateCode":"GC","stateName":"Las Palmas","countryId":207,"countryCode":"ES","countryName":"Spain","latitude":"28.65851000","longitude":"-17.91821000","wikiDataId":"Q366948"},{"id":35132,"name":"Los Realejos","stateId":1185,"stateCode":"GC","stateName":"Las Palmas","countryId":207,"countryCode":"ES","countryName":"Spain","latitude":"28.38487000","longitude":"-16.58275000","wikiDataId":"Q953876"},{"id":35135,"name":"Los Silos","stateId":1185,"stateCode":"GC","stateName":"Las Palmas","countryId":207,"countryCode":"ES","countryName":"Spain","latitude":"28.36610000","longitude":"-16.81552000","wikiDataId":"Q682964"},{"id":35702,"name":"Mácher","stateId":1185,"stateCode":"GC","stateName":"Las Palmas","countryId":207,"countryCode":"ES","countryName":"Spain","latitude":"28.94840000","longitude":"-13.69117000","wikiDataId":"Q6949526"},{"id":35324,"name":"Maspalomas","stateId":1185,"stateCode":"GC","stateName":"Las Palmas","countryId":207,"countryCode":"ES","countryName":"Spain","latitude":"27.76056000","longitude":"-15.58602000","wikiDataId":"Q580743"},{"id":35357,"name":"Mazo","stateId":1185,"stateCode":"GC","stateName":"Las Palmas","countryId":207,"countryCode":"ES","countryName":"Spain","latitude":"28.60906000","longitude":"-17.77801000","wikiDataId":"Q23984118"},{"id":35469,"name":"Mogán","stateId":1185,"stateCode":"GC","stateName":"Las Palmas","countryId":207,"countryCode":"ES","countryName":"Spain","latitude":"27.88385000","longitude":"-15.72538000","wikiDataId":"Q785888"},{"id":35647,"name":"Moya","stateId":1185,"stateCode":"GC","stateName":"Las Palmas","countryId":207,"countryCode":"ES","countryName":"Spain","latitude":"28.11106000","longitude":"-15.58285000","wikiDataId":"Q23983299"},{"id":35794,"name":"Nazaret","stateId":1185,"stateCode":"GC","stateName":"Las Palmas","countryId":207,"countryCode":"ES","countryName":"Spain","latitude":"29.03818000","longitude":"-13.56386000","wikiDataId":"Q1488169"},{"id":153197,"name":"Oliva La","stateId":1185,"stateCode":"GC","stateName":"Las Palmas","countryId":207,"countryCode":"ES","countryName":"Spain","latitude":"0.00000000","longitude":"0.00000000","wikiDataId":null},{"id":36480,"name":"Pájara","stateId":1185,"stateCode":"GC","stateName":"Las Palmas","countryId":207,"countryCode":"ES","countryName":"Spain","latitude":"28.35039000","longitude":"-14.10760000","wikiDataId":"Q661198"},{"id":153198,"name":"Palmas de Gran Canaria Las","stateId":1185,"stateCode":"GC","stateName":"Las Palmas","countryId":207,"countryCode":"ES","countryName":"Spain","latitude":"0.00000000","longitude":"0.00000000","wikiDataId":null},{"id":36239,"name":"Playa Blanca","stateId":1185,"stateCode":"GC","stateName":"Las Palmas","countryId":207,"countryCode":"ES","countryName":"Spain","latitude":"28.86426000","longitude":"-13.82814000","wikiDataId":"Q2000517"},{"id":36240,"name":"Playa de las Américas","stateId":1185,"stateCode":"GC","stateName":"Las Palmas","countryId":207,"countryCode":"ES","countryName":"Spain","latitude":"28.06403000","longitude":"-16.73012000","wikiDataId":"Q267946"},{"id":36241,"name":"Playa del Ingles","stateId":1185,"stateCode":"GC","stateName":"Las Palmas","countryId":207,"countryCode":"ES","countryName":"Spain","latitude":"27.75670000","longitude":"-15.57870000","wikiDataId":"Q1929363"},{"id":36376,"name":"Provincia de Las Palmas","stateId":1185,"stateCode":"GC","stateName":"Las Palmas","countryId":207,"countryCode":"ES","countryName":"Spain","latitude":"28.42039000","longitude":"-14.01306000","wikiDataId":"Q95080"},{"id":36386,"name":"Provincia de Santa Cruz de Tenerife","stateId":1185,"stateCode":"GC","stateName":"Las Palmas","countryId":207,"countryCode":"ES","countryName":"Spain","latitude":"28.16667000","longitude":"-17.33333000","wikiDataId":"Q99976"},{"id":36455,"name":"Puerto del Carmen","stateId":1185,"stateCode":"GC","stateName":"Las Palmas","countryId":207,"countryCode":"ES","countryName":"Spain","latitude":"28.92313000","longitude":"-13.66579000","wikiDataId":"Q1928400"},{"id":36456,"name":"Puerto del Rosario","stateId":1185,"stateCode":"GC","stateName":"Las Palmas","countryId":207,"countryCode":"ES","countryName":"Spain","latitude":"28.50038000","longitude":"-13.86272000","wikiDataId":"Q540185"},{"id":36448,"name":"Puerto Rico","stateId":1185,"stateCode":"GC","stateName":"Las Palmas","countryId":207,"countryCode":"ES","countryName":"Spain","latitude":"27.78943000","longitude":"-15.71045000","wikiDataId":"Q2117512"},{"id":36471,"name":"Punta de Mujeres","stateId":1185,"stateCode":"GC","stateName":"Las Palmas","countryId":207,"countryCode":"ES","countryName":"Spain","latitude":"29.14660000","longitude":"-13.44761000","wikiDataId":"Q2118556"},{"id":36553,"name":"Realejo Alto","stateId":1185,"stateCode":"GC","stateName":"Las Palmas","countryId":207,"countryCode":"ES","countryName":"Spain","latitude":"28.37645000","longitude":"-16.58575000","wikiDataId":"Q23983386"},{"id":36806,"name":"San Bartolomé","stateId":1185,"stateCode":"GC","stateName":"Las Palmas","countryId":207,"countryCode":"ES","countryName":"Spain","latitude":"29.00093000","longitude":"-13.61300000","wikiDataId":"Q1636238"},{"id":36809,"name":"San Bartolomé de Tirajana","stateId":1185,"stateCode":"GC","stateName":"Las Palmas","countryId":207,"countryCode":"ES","countryName":"Spain","latitude":"27.92481000","longitude":"-15.57329000","wikiDataId":"Q693258"},{"id":36895,"name":"San Nicolás","stateId":1185,"stateCode":"GC","stateName":"Las Palmas","countryId":207,"countryCode":"ES","countryName":"Spain","latitude":"27.98910000","longitude":"-15.78126000","wikiDataId":"Q1905345"},{"id":37007,"name":"Santa Brígida","stateId":1185,"stateCode":"GC","stateName":"Las Palmas","countryId":207,"countryCode":"ES","countryName":"Spain","latitude":"28.03197000","longitude":"-15.50425000","wikiDataId":"Q1630172"},{"id":37062,"name":"Santa Lucía","stateId":1185,"stateCode":"GC","stateName":"Las Palmas","countryId":207,"countryCode":"ES","countryName":"Spain","latitude":"27.91174000","longitude":"-15.54071000","wikiDataId":"Q738674"},{"id":153200,"name":"Santa Lucía de Tirajana","stateId":1185,"stateCode":"GC","stateName":"Las Palmas","countryId":207,"countryCode":"ES","countryName":"Spain","latitude":"0.00000000","longitude":"0.00000000","wikiDataId":null},{"id":153201,"name":"Santa María de Guía de Gran Canaria","stateId":1185,"stateCode":"GC","stateName":"Las Palmas","countryId":207,"countryCode":"ES","countryName":"Spain","latitude":"0.00000000","longitude":"0.00000000","wikiDataId":null},{"id":37180,"name":"Sauzal","stateId":1185,"stateCode":"GC","stateName":"Las Palmas","countryId":207,"countryCode":"ES","countryName":"Spain","latitude":"28.46667000","longitude":"-16.41667000","wikiDataId":"Q782910"},{"id":37368,"name":"Tanque","stateId":1185,"stateCode":"GC","stateName":"Las Palmas","countryId":207,"countryCode":"ES","countryName":"Spain","latitude":"28.36667000","longitude":"-16.83333000","wikiDataId":"Q23979490"},{"id":37392,"name":"Teguise","stateId":1185,"stateCode":"GC","stateName":"Las Palmas","countryId":207,"countryCode":"ES","countryName":"Spain","latitude":"29.06049000","longitude":"-13.56397000","wikiDataId":"Q4397801"},{"id":37397,"name":"Tejeda","stateId":1185,"stateCode":"GC","stateName":"Las Palmas","countryId":207,"countryCode":"ES","countryName":"Spain","latitude":"27.99508000","longitude":"-15.61543000","wikiDataId":"Q986361"},{"id":37400,"name":"Telde","stateId":1185,"stateCode":"GC","stateName":"Las Palmas","countryId":207,"countryCode":"ES","countryName":"Spain","latitude":"27.99243000","longitude":"-15.41915000","wikiDataId":"Q24013877"},{"id":37405,"name":"Teror","stateId":1185,"stateCode":"GC","stateName":"Las Palmas","countryId":207,"countryCode":"ES","countryName":"Spain","latitude":"28.06062000","longitude":"-15.54909000","wikiDataId":"Q430147"},{"id":37666,"name":"Tías","stateId":1185,"stateCode":"GC","stateName":"Las Palmas","countryId":207,"countryCode":"ES","countryName":"Spain","latitude":"28.96108000","longitude":"-13.64502000","wikiDataId":"Q2046900"},{"id":37427,"name":"Tinajo","stateId":1185,"stateCode":"GC","stateName":"Las Palmas","countryId":207,"countryCode":"ES","countryName":"Spain","latitude":"29.06326000","longitude":"-13.67647000","wikiDataId":"Q24011484"},{"id":37652,"name":"Tuineje","stateId":1185,"stateCode":"GC","stateName":"Las Palmas","countryId":207,"countryCode":"ES","countryName":"Spain","latitude":"28.32372000","longitude":"-14.04722000","wikiDataId":"Q1646935"},{"id":37850,"name":"Vallehermosa","stateId":1185,"stateCode":"GC","stateName":"Las Palmas","countryId":207,"countryCode":"ES","countryName":"Spain","latitude":"28.17944000","longitude":"-17.26664000","wikiDataId":"Q635308"},{"id":37857,"name":"Valleseco","stateId":1185,"stateCode":"GC","stateName":"Las Palmas","countryId":207,"countryCode":"ES","countryName":"Spain","latitude":"28.04330000","longitude":"-15.57623000","wikiDataId":"Q1766957"},{"id":37875,"name":"Valsequillo de Gran Canaria","stateId":1185,"stateCode":"GC","stateName":"Las Palmas","countryId":207,"countryCode":"ES","countryName":"Spain","latitude":"27.98562000","longitude":"-15.49725000","wikiDataId":"Q914195"},{"id":37900,"name":"Vecindario","stateId":1185,"stateCode":"GC","stateName":"Las Palmas","countryId":207,"countryCode":"ES","countryName":"Spain","latitude":"27.84636000","longitude":"-15.44455000","wikiDataId":"Q9092770"},{"id":37907,"name":"Vega de San Mateo","stateId":1185,"stateCode":"GC","stateName":"Las Palmas","countryId":207,"countryCode":"ES","countryName":"Spain","latitude":"28.00892000","longitude":"-15.53330000","wikiDataId":"Q1929334"},{"id":38425,"name":"Yaiza","stateId":1185,"stateCode":"GC","stateName":"Las Palmas","countryId":207,"countryCode":"ES","countryName":"Spain","latitude":"28.95678000","longitude":"-13.76535000","wikiDataId":"Q23986918"}]