[{"id":107085,"name":"Akkuş","stateId":2174,"stateCode":"52","stateName":"Ordu","countryId":225,"countryCode":"TR","countryName":"Turkey","latitude":"40.81000000","longitude":"36.96000000","wikiDataId":"Q6949890"},{"id":107144,"name":"Altınordu","stateId":2174,"stateCode":"52","stateName":"Ordu","countryId":225,"countryCode":"TR","countryName":"Turkey","latitude":"40.94879000","longitude":"37.79572000","wikiDataId":"Q3233272"},{"id":107219,"name":"Aybastı","stateId":2174,"stateCode":"52","stateName":"Ordu","countryId":225,"countryCode":"TR","countryName":"Turkey","latitude":"40.69690000","longitude":"37.40794000","wikiDataId":"Q1922399"},{"id":108765,"name":"Çamaş","stateId":2174,"stateCode":"52","stateName":"Ordu","countryId":225,"countryCode":"TR","countryName":"Turkey","latitude":"40.90200000","longitude":"37.52786000","wikiDataId":"Q272375"},{"id":108790,"name":"Çatalpınar","stateId":2174,"stateCode":"52","stateName":"Ordu","countryId":225,"countryCode":"TR","countryName":"Turkey","latitude":"40.88678000","longitude":"37.44329000","wikiDataId":"Q2158475"},{"id":108797,"name":"Çaybaşı","stateId":2174,"stateCode":"52","stateName":"Ordu","countryId":225,"countryCode":"TR","countryName":"Turkey","latitude":"41.02532000","longitude":"37.10867000","wikiDataId":"Q1027108"},{"id":107633,"name":"Fatsa","stateId":2174,"stateCode":"52","stateName":"Ordu","countryId":225,"countryCode":"TR","countryName":"Turkey","latitude":"41.02778000","longitude":"37.50139000","wikiDataId":"Q732923"},{"id":107697,"name":"Gölköy","stateId":2174,"stateCode":"52","stateName":"Ordu","countryId":225,"countryCode":"TR","countryName":"Turkey","latitude":"40.68726000","longitude":"37.61660000","wikiDataId":"Q1948371"},{"id":107733,"name":"Gülyalı","stateId":2174,"stateCode":"52","stateName":"Ordu","countryId":225,"countryCode":"TR","countryName":"Turkey","latitude":"40.96682000","longitude":"38.05679000","wikiDataId":"Q2670812"},{"id":107749,"name":"Gürgentepe","stateId":2174,"stateCode":"52","stateName":"Ordu","countryId":225,"countryCode":"TR","countryName":"Turkey","latitude":"40.78567000","longitude":"37.58969000","wikiDataId":"Q1919824"},{"id":108887,"name":"İkizce","stateId":2174,"stateCode":"52","stateName":"Ordu","countryId":225,"countryCode":"TR","countryName":"Turkey","latitude":"41.05833000","longitude":"37.08028000","wikiDataId":"Q335204"},{"id":107855,"name":"Kabadüz","stateId":2174,"stateCode":"52","stateName":"Ordu","countryId":225,"countryCode":"TR","countryName":"Turkey","latitude":"40.86096000","longitude":"37.88470000","wikiDataId":"Q3233253"},{"id":107858,"name":"Kabataş","stateId":2174,"stateCode":"52","stateName":"Ordu","countryId":225,"countryCode":"TR","countryName":"Turkey","latitude":"40.75000000","longitude":"37.45000000","wikiDataId":"Q2744219"},{"id":108018,"name":"Korgan","stateId":2174,"stateCode":"52","stateName":"Ordu","countryId":225,"countryCode":"TR","countryName":"Turkey","latitude":"40.82472000","longitude":"37.34667000","wikiDataId":"Q79857"},{"id":108052,"name":"Kumru","stateId":2174,"stateCode":"52","stateName":"Ordu","countryId":225,"countryCode":"TR","countryName":"Turkey","latitude":"40.87444000","longitude":"37.26389000","wikiDataId":"Q1015322"},{"id":108201,"name":"Mesudiye","stateId":2174,"stateCode":"52","stateName":"Ordu","countryId":225,"countryCode":"TR","countryName":"Turkey","latitude":"40.45446000","longitude":"37.77353000","wikiDataId":"Q2744201"},{"id":108341,"name":"Perşembe","stateId":2174,"stateCode":"52","stateName":"Ordu","countryId":225,"countryCode":"TR","countryName":"Turkey","latitude":"41.06556000","longitude":"37.77139000","wikiDataId":"Q921953"},{"id":108622,"name":"Ulubey","stateId":2174,"stateCode":"52","stateName":"Ordu","countryId":225,"countryCode":"TR","countryName":"Turkey","latitude":"40.86863000","longitude":"37.75405000","wikiDataId":"Q14510650"},{"id":108872,"name":"Ünye","stateId":2174,"stateCode":"52","stateName":"Ordu","countryId":225,"countryCode":"TR","countryName":"Turkey","latitude":"41.13921000","longitude":"37.27246000","wikiDataId":"Q334985"}]