[{"id":104387,"name":"Dunajská Streda","stateId":4355,"stateCode":"TA","stateName":"Trnava Region","countryId":200,"countryCode":"SK","countryName":"Slovakia","latitude":"47.99268000","longitude":"17.61211000","wikiDataId":"Q646393"},{"id":104389,"name":"Gabčíkovo","stateId":4355,"stateCode":"TA","stateName":"Trnava Region","countryId":200,"countryCode":"SK","countryName":"Slovakia","latitude":"47.89211000","longitude":"17.57884000","wikiDataId":"Q389397"},{"id":104390,"name":"Galanta","stateId":4355,"stateCode":"TA","stateName":"Trnava Region","countryId":200,"countryCode":"SK","countryName":"Slovakia","latitude":"48.19001000","longitude":"17.72747000","wikiDataId":"Q460767"},{"id":104391,"name":"Gbely","stateId":4355,"stateCode":"TA","stateName":"Trnava Region","countryId":200,"countryCode":"SK","countryName":"Slovakia","latitude":"48.71800000","longitude":"17.11628000","wikiDataId":"Q846424"},{"id":104395,"name":"Hlohovec","stateId":4355,"stateCode":"TA","stateName":"Trnava Region","countryId":200,"countryCode":"SK","countryName":"Slovakia","latitude":"48.43174000","longitude":"17.80310000","wikiDataId":"Q754773"},{"id":104396,"name":"Holíč","stateId":4355,"stateCode":"TA","stateName":"Trnava Region","countryId":200,"countryCode":"SK","countryName":"Slovakia","latitude":"48.81105000","longitude":"17.16238000","wikiDataId":"Q653326"},{"id":104420,"name":"Leopoldov","stateId":4355,"stateCode":"TA","stateName":"Trnava Region","countryId":200,"countryCode":"SK","countryName":"Slovakia","latitude":"48.44575000","longitude":"17.76458000","wikiDataId":"Q690807"},{"id":104460,"name":"Okres Dunajská Streda","stateId":4355,"stateCode":"TA","stateName":"Trnava Region","countryId":200,"countryCode":"SK","countryName":"Slovakia","latitude":"47.99635000","longitude":"17.60937000","wikiDataId":"Q756662"},{"id":104461,"name":"Okres Galanta","stateId":4355,"stateCode":"TA","stateName":"Trnava Region","countryId":200,"countryCode":"SK","countryName":"Slovakia","latitude":"48.20000000","longitude":"17.71667000","wikiDataId":"Q836182"},{"id":104463,"name":"Okres Hlohovec","stateId":4355,"stateCode":"TA","stateName":"Trnava Region","countryId":200,"countryCode":"SK","countryName":"Slovakia","latitude":"48.41667000","longitude":"17.75000000","wikiDataId":"Q550271"},{"id":104486,"name":"Okres Piešťany","stateId":4355,"stateCode":"TA","stateName":"Trnava Region","countryId":200,"countryCode":"SK","countryName":"Slovakia","latitude":"48.59064000","longitude":"17.82679000","wikiDataId":"Q837868"},{"id":104498,"name":"Okres Senica","stateId":4355,"stateCode":"TA","stateName":"Trnava Region","countryId":200,"countryCode":"SK","countryName":"Slovakia","latitude":"48.68333000","longitude":"17.36667000","wikiDataId":"Q842557"},{"id":104499,"name":"Okres Skalica","stateId":4355,"stateCode":"TA","stateName":"Trnava Region","countryId":200,"countryCode":"SK","countryName":"Slovakia","latitude":"48.75000000","longitude":"17.16667000","wikiDataId":"Q837894"},{"id":104509,"name":"Okres Trnava","stateId":4355,"stateCode":"TA","stateName":"Trnava Region","countryId":200,"countryCode":"SK","countryName":"Slovakia","latitude":"48.36667000","longitude":"17.60000000","wikiDataId":"Q775484"},{"id":104525,"name":"Piešťany","stateId":4355,"stateCode":"TA","stateName":"Trnava Region","countryId":200,"countryCode":"SK","countryName":"Slovakia","latitude":"48.59479000","longitude":"17.82591000","wikiDataId":"Q321074"},{"id":104592,"name":"Šamorín","stateId":4355,"stateCode":"TA","stateName":"Trnava Region","countryId":200,"countryCode":"SK","countryName":"Slovakia","latitude":"48.03015000","longitude":"17.30972000","wikiDataId":"Q391068"},{"id":104541,"name":"Senica","stateId":4355,"stateCode":"TA","stateName":"Trnava Region","countryId":200,"countryCode":"SK","countryName":"Slovakia","latitude":"48.67922000","longitude":"17.36697000","wikiDataId":"Q750407"},{"id":104543,"name":"Skalica","stateId":4355,"stateCode":"TA","stateName":"Trnava Region","countryId":200,"countryCode":"SK","countryName":"Slovakia","latitude":"48.84490000","longitude":"17.22635000","wikiDataId":"Q649076"},{"id":104544,"name":"Sládkovičovo","stateId":4355,"stateCode":"TA","stateName":"Trnava Region","countryId":200,"countryCode":"SK","countryName":"Slovakia","latitude":"48.20137000","longitude":"17.63852000","wikiDataId":"Q568249"},{"id":104545,"name":"Smolenice","stateId":4355,"stateCode":"TA","stateName":"Trnava Region","countryId":200,"countryCode":"SK","countryName":"Slovakia","latitude":"48.50478000","longitude":"17.43067000","wikiDataId":"Q1020253"},{"id":104568,"name":"Trnava","stateId":4355,"stateCode":"TA","stateName":"Trnava Region","countryId":200,"countryCode":"SK","countryName":"Slovakia","latitude":"48.37741000","longitude":"17.58723000","wikiDataId":"Q26175"},{"id":104574,"name":"Veľký Meder","stateId":4355,"stateCode":"TA","stateName":"Trnava Region","countryId":200,"countryCode":"SK","countryName":"Slovakia","latitude":"47.85798000","longitude":"17.76884000","wikiDataId":"Q740469"},{"id":104579,"name":"Vrbové","stateId":4355,"stateCode":"TA","stateName":"Trnava Region","countryId":200,"countryCode":"SK","countryName":"Slovakia","latitude":"48.61973000","longitude":"17.72260000","wikiDataId":"Q846444"}]