[{"id":80558,"name":"Ambo","stateId":3687,"stateCode":"HUC","stateName":"Huanuco","countryId":173,"countryCode":"PE","countryName":"Peru","latitude":"-10.13083000","longitude":"-76.20472000","wikiDataId":"Q3317423"},{"id":80646,"name":"Huacaybamba","stateId":3687,"stateCode":"HUC","stateName":"Huanuco","countryId":173,"countryCode":"PE","countryName":"Peru","latitude":"-8.99480000","longitude":"-76.81027000","wikiDataId":"Q2084668"},{"id":80665,"name":"Huánuco","stateId":3687,"stateCode":"HUC","stateName":"Huanuco","countryId":173,"countryCode":"PE","countryName":"Peru","latitude":"-9.93062000","longitude":"-76.24223000","wikiDataId":"Q504394"},{"id":80691,"name":"La Unión","stateId":3687,"stateCode":"HUC","stateName":"Huanuco","countryId":173,"countryCode":"PE","countryName":"Peru","latitude":"-9.82702000","longitude":"-76.80199000","wikiDataId":"Q595441"},{"id":80699,"name":"Lauricocha","stateId":3687,"stateCode":"HUC","stateName":"Huanuco","countryId":173,"countryCode":"PE","countryName":"Peru","latitude":"-10.20055000","longitude":"-76.70359000","wikiDataId":"Q188098"},{"id":80703,"name":"Llata","stateId":3687,"stateCode":"HUC","stateName":"Huanuco","countryId":173,"countryCode":"PE","countryName":"Peru","latitude":"-9.41667000","longitude":"-76.78333000","wikiDataId":"Q3344864"},{"id":80771,"name":"Provincia de Ambo","stateId":3687,"stateCode":"HUC","stateName":"Huanuco","countryId":173,"countryCode":"PE","countryName":"Peru","latitude":"-10.16667000","longitude":"-76.16667000","wikiDataId":"Q980098"},{"id":80821,"name":"Provincia de Dos de Mayo","stateId":3687,"stateCode":"HUC","stateName":"Huanuco","countryId":173,"countryCode":"PE","countryName":"Peru","latitude":"-9.91667000","longitude":"-76.75000000","wikiDataId":"Q2088810"},{"id":80828,"name":"Provincia de Huamalíes","stateId":3687,"stateCode":"HUC","stateName":"Huanuco","countryId":173,"countryCode":"PE","countryName":"Peru","latitude":"-9.25000000","longitude":"-76.50000000","wikiDataId":"Q1819840"},{"id":80842,"name":"Provincia de Huánuco","stateId":3687,"stateCode":"HUC","stateName":"Huanuco","countryId":173,"countryCode":"PE","countryName":"Peru","latitude":"-9.66667000","longitude":"-76.08333000","wikiDataId":"Q2100624"},{"id":80855,"name":"Provincia de Leoncio Prado","stateId":3687,"stateCode":"HUC","stateName":"Huanuco","countryId":173,"countryCode":"PE","countryName":"Peru","latitude":"-9.16667000","longitude":"-76.00000000","wikiDataId":"Q1468138"},{"id":80859,"name":"Provincia de Marañón","stateId":3687,"stateCode":"HUC","stateName":"Huanuco","countryId":173,"countryCode":"PE","countryName":"Peru","latitude":"-8.75000000","longitude":"-76.66667000","wikiDataId":"Q764487"},{"id":80869,"name":"Provincia de Pachitea","stateId":3687,"stateCode":"HUC","stateName":"Huanuco","countryId":173,"countryCode":"PE","countryName":"Peru","latitude":"-9.95262000","longitude":"-75.81390000","wikiDataId":"Q2084641"},{"id":80917,"name":"Puerto Inca","stateId":3687,"stateCode":"HUC","stateName":"Huanuco","countryId":173,"countryCode":"PE","countryName":"Peru","latitude":"-9.36696000","longitude":"-75.08958000","wikiDataId":"Q1944276"},{"id":80952,"name":"San Miguel de Cauri","stateId":3687,"stateCode":"HUC","stateName":"Huanuco","countryId":173,"countryCode":"PE","countryName":"Peru","latitude":"-10.13818000","longitude":"-76.62288000","wikiDataId":"Q2726675"},{"id":80992,"name":"Tingo María","stateId":3687,"stateCode":"HUC","stateName":"Huanuco","countryId":173,"countryCode":"PE","countryName":"Peru","latitude":"-9.29532000","longitude":"-75.99574000","wikiDataId":"Q1974467"},{"id":81014,"name":"Yanacancha","stateId":3687,"stateCode":"HUC","stateName":"Huanuco","countryId":173,"countryCode":"PE","countryName":"Peru","latitude":"-10.24111000","longitude":"-76.64556000","wikiDataId":"Q3344843"},{"id":81016,"name":"Yarowilca","stateId":3687,"stateCode":"HUC","stateName":"Huanuco","countryId":173,"countryCode":"PE","countryName":"Peru","latitude":"-9.80263000","longitude":"-76.59516000","wikiDataId":"Q2088849"}]