[{"id":54390,"name":"Bedekovčina","stateId":729,"stateCode":"02","stateName":"Krapina-Zagorje","countryId":55,"countryCode":"HR","countryName":"Croatia","latitude":"46.04111000","longitude":"15.99639000","wikiDataId":"Q791827"},{"id":54430,"name":"Budinščina","stateId":729,"stateCode":"02","stateName":"Krapina-Zagorje","countryId":55,"countryCode":"HR","countryName":"Croatia","latitude":"46.12785000","longitude":"16.20415000","wikiDataId":"Q2253905"},{"id":55026,"name":"Đurmanec","stateId":729,"stateCode":"02","stateName":"Krapina-Zagorje","countryId":55,"countryCode":"HR","countryName":"Croatia","latitude":"46.19708000","longitude":"15.83786000","wikiDataId":"Q318961"},{"id":54510,"name":"Grad Donja Stubica","stateId":729,"stateCode":"02","stateName":"Krapina-Zagorje","countryId":55,"countryCode":"HR","countryName":"Croatia","latitude":"45.97955000","longitude":"15.97069000","wikiDataId":"Q319276"},{"id":54523,"name":"Grad Klanjec","stateId":729,"stateCode":"02","stateName":"Krapina-Zagorje","countryId":55,"countryCode":"HR","countryName":"Croatia","latitude":"46.04977000","longitude":"15.74615000","wikiDataId":"Q1722"},{"id":54526,"name":"Grad Krapina","stateId":729,"stateCode":"02","stateName":"Krapina-Zagorje","countryId":55,"countryCode":"HR","countryName":"Croatia","latitude":"46.15968000","longitude":"15.87258000","wikiDataId":"Q1722"},{"id":54566,"name":"Grad Zabok","stateId":729,"stateCode":"02","stateName":"Krapina-Zagorje","countryId":55,"countryCode":"HR","countryName":"Croatia","latitude":"46.02808000","longitude":"15.90855000","wikiDataId":"Q398436"},{"id":54568,"name":"Grad Zlatar","stateId":729,"stateCode":"02","stateName":"Krapina-Zagorje","countryId":55,"countryCode":"HR","countryName":"Croatia","latitude":"46.09198000","longitude":"16.07695000","wikiDataId":"Q1194688"},{"id":54622,"name":"Jesenje","stateId":729,"stateCode":"02","stateName":"Krapina-Zagorje","countryId":55,"countryCode":"HR","countryName":"Croatia","latitude":"46.20724000","longitude":"15.88194000","wikiDataId":"Q239903"},{"id":54648,"name":"Klanjec","stateId":729,"stateCode":"02","stateName":"Krapina-Zagorje","countryId":55,"countryCode":"HR","countryName":"Croatia","latitude":"46.04982000","longitude":"15.74418000","wikiDataId":"Q769880"},{"id":54657,"name":"Konjščina","stateId":729,"stateCode":"02","stateName":"Krapina-Zagorje","countryId":55,"countryCode":"HR","countryName":"Croatia","latitude":"46.05435000","longitude":"16.17763000","wikiDataId":"Q3441457"},{"id":54667,"name":"Krapina","stateId":729,"stateCode":"02","stateName":"Krapina-Zagorje","countryId":55,"countryCode":"HR","countryName":"Croatia","latitude":"46.16083000","longitude":"15.87889000","wikiDataId":"Q396555"},{"id":54674,"name":"Kumrovec","stateId":729,"stateCode":"02","stateName":"Krapina-Zagorje","countryId":55,"countryCode":"HR","countryName":"Croatia","latitude":"46.07750000","longitude":"15.67556000","wikiDataId":"Q696051"},{"id":54725,"name":"Mače","stateId":729,"stateCode":"02","stateName":"Krapina-Zagorje","countryId":55,"countryCode":"HR","countryName":"Croatia","latitude":"46.09472000","longitude":"16.03528000","wikiDataId":"Q613948"},{"id":54714,"name":"Marija Bistrica","stateId":729,"stateCode":"02","stateName":"Krapina-Zagorje","countryId":55,"countryCode":"HR","countryName":"Croatia","latitude":"46.00611000","longitude":"16.11111000","wikiDataId":"Q921910"},{"id":54731,"name":"Mihovljan","stateId":729,"stateCode":"02","stateName":"Krapina-Zagorje","countryId":55,"countryCode":"HR","countryName":"Croatia","latitude":"46.13306000","longitude":"15.97222000","wikiDataId":"Q587990"},{"id":54791,"name":"Oroslavje","stateId":729,"stateCode":"02","stateName":"Krapina-Zagorje","countryId":55,"countryCode":"HR","countryName":"Croatia","latitude":"45.99672000","longitude":"15.91507000","wikiDataId":"Q126365"},{"id":54832,"name":"Pregrada","stateId":729,"stateCode":"02","stateName":"Krapina-Zagorje","countryId":55,"countryCode":"HR","countryName":"Croatia","latitude":"46.16417000","longitude":"15.75083000","wikiDataId":"Q844312"},{"id":54851,"name":"Radoboj","stateId":729,"stateCode":"02","stateName":"Krapina-Zagorje","countryId":55,"countryCode":"HR","countryName":"Croatia","latitude":"46.16639000","longitude":"15.92361000","wikiDataId":"Q1194715"},{"id":54918,"name":"Stubičke Toplice","stateId":729,"stateCode":"02","stateName":"Krapina-Zagorje","countryId":55,"countryCode":"HR","countryName":"Croatia","latitude":"45.97585000","longitude":"15.93238000","wikiDataId":"Q921726"},{"id":54930,"name":"Sveti Križ Začretje","stateId":729,"stateCode":"02","stateName":"Krapina-Zagorje","countryId":55,"countryCode":"HR","countryName":"Croatia","latitude":"46.08224000","longitude":"15.90704000","wikiDataId":"Q1014083"},{"id":55001,"name":"Zabok","stateId":729,"stateCode":"02","stateName":"Krapina-Zagorje","countryId":55,"countryCode":"HR","countryName":"Croatia","latitude":"46.02944000","longitude":"15.91500000","wikiDataId":"Q1284798"},{"id":55010,"name":"Zlatar","stateId":729,"stateCode":"02","stateName":"Krapina-Zagorje","countryId":55,"countryCode":"HR","countryName":"Croatia","latitude":"46.09417000","longitude":"16.07083000","wikiDataId":"Q396550"},{"id":55011,"name":"Zlatar Bistrica","stateId":729,"stateCode":"02","stateName":"Krapina-Zagorje","countryId":55,"countryCode":"HR","countryName":"Croatia","latitude":"46.04788000","longitude":"16.08527000","wikiDataId":"Q396550"}]