[{"id":66000,"name":"Belle Vue","stateId":3760,"stateCode":"03","stateName":"Choiseul Quarter","countryId":186,"countryCode":"LC","countryName":"Saint Lucia","latitude":"13.80510000","longitude":"-61.03615000","wikiDataId":"Q569439"},{"id":66023,"name":"Bois Dinde","stateId":3760,"stateCode":"03","stateName":"Choiseul Quarter","countryId":186,"countryCode":"LC","countryName":"Saint Lucia","latitude":"13.80463000","longitude":"-61.04952000","wikiDataId":"Q569439"},{"id":66036,"name":"Caffiere","stateId":3760,"stateCode":"03","stateName":"Choiseul Quarter","countryId":186,"countryCode":"LC","countryName":"Saint Lucia","latitude":"13.78409000","longitude":"-61.03554000","wikiDataId":"Q569439"},{"id":66061,"name":"Cedars/Chu Tigre","stateId":3760,"stateCode":"03","stateName":"Choiseul Quarter","countryId":186,"countryCode":"LC","countryName":"Saint Lucia","latitude":"13.76995000","longitude":"-61.04716000","wikiDataId":"Q41699"},{"id":66069,"name":"Choiseul","stateId":3760,"stateCode":"03","stateName":"Choiseul Quarter","countryId":186,"countryCode":"LC","countryName":"Saint Lucia","latitude":"13.77273000","longitude":"-61.04931000","wikiDataId":"Q3556840"},{"id":66071,"name":"Christian Hill","stateId":3760,"stateCode":"03","stateName":"Choiseul Quarter","countryId":186,"countryCode":"LC","countryName":"Saint Lucia","latitude":"13.77354000","longitude":"-61.04694000","wikiDataId":"Q3556840"},{"id":66090,"name":"Dacretin","stateId":3760,"stateCode":"03","stateName":"Choiseul Quarter","countryId":186,"countryCode":"LC","countryName":"Saint Lucia","latitude":"13.79617000","longitude":"-61.03574000","wikiDataId":"Q3556840"},{"id":66094,"name":"Debreuil","stateId":3760,"stateCode":"03","stateName":"Choiseul Quarter","countryId":186,"countryCode":"LC","countryName":"Saint Lucia","latitude":"13.79033000","longitude":"-61.02585000","wikiDataId":"Q3556840"},{"id":66097,"name":"Delcer","stateId":3760,"stateCode":"03","stateName":"Choiseul Quarter","countryId":186,"countryCode":"LC","countryName":"Saint Lucia","latitude":"13.80121000","longitude":"-61.05892000","wikiDataId":"Q3556840"},{"id":66113,"name":"Derriere Morne","stateId":3760,"stateCode":"03","stateName":"Choiseul Quarter","countryId":186,"countryCode":"LC","countryName":"Saint Lucia","latitude":"13.80916000","longitude":"-61.05101000","wikiDataId":"Q3556840"},{"id":66125,"name":"Dugard","stateId":3760,"stateCode":"03","stateName":"Choiseul Quarter","countryId":186,"countryCode":"LC","countryName":"Saint Lucia","latitude":"13.80386000","longitude":"-61.02831000","wikiDataId":"Q3556840"},{"id":66127,"name":"Dupre","stateId":3760,"stateCode":"03","stateName":"Choiseul Quarter","countryId":186,"countryCode":"LC","countryName":"Saint Lucia","latitude":"13.79435000","longitude":"-61.02947000","wikiDataId":"Q3556840"},{"id":66136,"name":"Esperance","stateId":3760,"stateCode":"03","stateName":"Choiseul Quarter","countryId":186,"countryCode":"LC","countryName":"Saint Lucia","latitude":"13.80775000","longitude":"-61.05331000","wikiDataId":"Q3556840"},{"id":66155,"name":"Franciou","stateId":3760,"stateCode":"03","stateName":"Choiseul Quarter","countryId":186,"countryCode":"LC","countryName":"Saint Lucia","latitude":"13.80400000","longitude":"-61.05448000","wikiDataId":"Q3556840"},{"id":66197,"name":"Industry","stateId":3760,"stateCode":"03","stateName":"Choiseul Quarter","countryId":186,"countryCode":"LC","countryName":"Saint Lucia","latitude":"13.79127000","longitude":"-61.05992000","wikiDataId":"Q3116994"},{"id":66213,"name":"La Fargue","stateId":3760,"stateCode":"03","stateName":"Choiseul Quarter","countryId":186,"countryCode":"LC","countryName":"Saint Lucia","latitude":"13.77197000","longitude":"-61.04124000","wikiDataId":"Q3116994"},{"id":66223,"name":"La Pointe","stateId":3760,"stateCode":"03","stateName":"Choiseul Quarter","countryId":186,"countryCode":"LC","countryName":"Saint Lucia","latitude":"13.79443000","longitude":"-61.06497000","wikiDataId":"Q3116994"},{"id":66234,"name":"Lamaze","stateId":3760,"stateCode":"03","stateName":"Choiseul Quarter","countryId":186,"countryCode":"LC","countryName":"Saint Lucia","latitude":"13.80649000","longitude":"-61.01906000","wikiDataId":"Q13220042"},{"id":66236,"name":"Le Riche","stateId":3760,"stateCode":"03","stateName":"Choiseul Quarter","countryId":186,"countryCode":"LC","countryName":"Saint Lucia","latitude":"13.78365000","longitude":"-61.04815000","wikiDataId":"Q13220042"},{"id":66246,"name":"Mailly Motete","stateId":3760,"stateCode":"03","stateName":"Choiseul Quarter","countryId":186,"countryCode":"LC","countryName":"Saint Lucia","latitude":"13.81788000","longitude":"-61.02772000","wikiDataId":"Q13220042"},{"id":66259,"name":"Martin","stateId":3760,"stateCode":"03","stateName":"Choiseul Quarter","countryId":186,"countryCode":"LC","countryName":"Saint Lucia","latitude":"13.78941000","longitude":"-61.04542000","wikiDataId":"Q13220042"},{"id":66286,"name":"Mongouge","stateId":3760,"stateCode":"03","stateName":"Choiseul Quarter","countryId":186,"countryCode":"LC","countryName":"Saint Lucia","latitude":"13.80301000","longitude":"-61.04524000","wikiDataId":"Q11779522"},{"id":66289,"name":"Monzie","stateId":3760,"stateCode":"03","stateName":"Choiseul Quarter","countryId":186,"countryCode":"LC","countryName":"Saint Lucia","latitude":"13.80669000","longitude":"-61.02297000","wikiDataId":"Q11779522"},{"id":66299,"name":"Morne Jacques","stateId":3760,"stateCode":"03","stateName":"Choiseul Quarter","countryId":186,"countryCode":"LC","countryName":"Saint Lucia","latitude":"13.81162000","longitude":"-61.03165000","wikiDataId":"Q11779522"},{"id":66306,"name":"Morne Sion","stateId":3760,"stateCode":"03","stateName":"Choiseul Quarter","countryId":186,"countryCode":"LC","countryName":"Saint Lucia","latitude":"13.79246000","longitude":"-61.05467000","wikiDataId":"Q11779522"},{"id":66309,"name":"Motete","stateId":3760,"stateCode":"03","stateName":"Choiseul Quarter","countryId":186,"countryCode":"LC","countryName":"Saint Lucia","latitude":"13.81325000","longitude":"-61.02320000","wikiDataId":"Q11779522"},{"id":66314,"name":"New Field/Fiette","stateId":3760,"stateCode":"03","stateName":"Choiseul Quarter","countryId":186,"countryCode":"LC","countryName":"Saint Lucia","latitude":"13.78815000","longitude":"-61.05216000","wikiDataId":"Q11779522"},{"id":66340,"name":"Ponyon","stateId":3760,"stateCode":"03","stateName":"Choiseul Quarter","countryId":186,"countryCode":"LC","countryName":"Saint Lucia","latitude":"13.79639000","longitude":"-61.04360000","wikiDataId":"Q11779522"},{"id":66345,"name":"Raveneau","stateId":3760,"stateCode":"03","stateName":"Choiseul Quarter","countryId":186,"countryCode":"LC","countryName":"Saint Lucia","latitude":"13.81018000","longitude":"-61.04642000","wikiDataId":"Q11779522"},{"id":66354,"name":"Reunion","stateId":3760,"stateCode":"03","stateName":"Choiseul Quarter","countryId":186,"countryCode":"LC","countryName":"Saint Lucia","latitude":"13.77861000","longitude":"-61.04531000","wikiDataId":"Q11779522"},{"id":66358,"name":"River Doree","stateId":3760,"stateCode":"03","stateName":"Choiseul Quarter","countryId":186,"countryCode":"LC","countryName":"Saint Lucia","latitude":"13.76769000","longitude":"-61.03646000","wikiDataId":"Q11779522"},{"id":66360,"name":"Roblot","stateId":3760,"stateCode":"03","stateName":"Choiseul Quarter","countryId":186,"countryCode":"LC","countryName":"Saint Lucia","latitude":"13.80323000","longitude":"-61.02297000","wikiDataId":"Q11779522"},{"id":66374,"name":"Sauzay","stateId":3760,"stateCode":"03","stateName":"Choiseul Quarter","countryId":186,"countryCode":"LC","countryName":"Saint Lucia","latitude":"13.77743000","longitude":"-61.03368000","wikiDataId":"Q11779522"},{"id":66376,"name":"Savannesgeorge/Constitution","stateId":3760,"stateCode":"03","stateName":"Choiseul Quarter","countryId":186,"countryCode":"LC","countryName":"Saint Lucia","latitude":"13.77855000","longitude":"-61.05139000","wikiDataId":"Q11779522"},{"id":66418,"name":"Victoria","stateId":3760,"stateCode":"03","stateName":"Choiseul Quarter","countryId":186,"countryCode":"LC","countryName":"Saint Lucia","latitude":"13.81116000","longitude":"-61.03963000","wikiDataId":"Q493030"},{"id":66424,"name":"Village","stateId":3760,"stateCode":"03","stateName":"Choiseul Quarter","countryId":186,"countryCode":"LC","countryName":"Saint Lucia","latitude":"13.77464000","longitude":"-61.05020000","wikiDataId":"Q3494579"}]