[{"id":31480,"name":"Alfredo Baquerizo Moreno","stateId":2914,"stateCode":"G","stateName":"Guayas","countryId":64,"countryCode":"EC","countryName":"Ecuador","latitude":"-1.91667000","longitude":"-79.51667000","wikiDataId":"Q4723711"},{"id":31488,"name":"Baláo","stateId":2914,"stateCode":"G","stateName":"Guayas","countryId":64,"countryCode":"EC","countryName":"Ecuador","latitude":"-2.91100000","longitude":"-79.81441000","wikiDataId":"Q4850064"},{"id":31487,"name":"Balzar","stateId":2914,"stateCode":"G","stateName":"Guayas","countryId":64,"countryCode":"EC","countryName":"Ecuador","latitude":"-1.36501000","longitude":"-79.90494000","wikiDataId":"Q4853169"},{"id":31498,"name":"Colimes","stateId":2914,"stateCode":"G","stateName":"Guayas","countryId":64,"countryCode":"EC","countryName":"Ecuador","latitude":"-1.54553000","longitude":"-80.01165000","wikiDataId":"Q5144832"},{"id":31499,"name":"Coronel Marcelino Maridueña","stateId":2914,"stateCode":"G","stateName":"Guayas","countryId":64,"countryCode":"EC","countryName":"Ecuador","latitude":"-2.20924000","longitude":"-79.43248000","wikiDataId":"Q642543"},{"id":31502,"name":"El Triunfo","stateId":2914,"stateCode":"G","stateName":"Guayas","countryId":64,"countryCode":"EC","countryName":"Ecuador","latitude":"-1.93333000","longitude":"-79.96667000","wikiDataId":"Q5352286"},{"id":31504,"name":"Eloy Alfaro","stateId":2914,"stateCode":"G","stateName":"Guayas","countryId":64,"countryCode":"EC","countryName":"Ecuador","latitude":"-2.17579000","longitude":"-79.85519000","wikiDataId":"Q1120810"},{"id":31511,"name":"Guayaquil","stateId":2914,"stateCode":"G","stateName":"Guayas","countryId":64,"countryCode":"EC","countryName":"Ecuador","latitude":"-2.19616000","longitude":"-79.88621000","wikiDataId":"Q43509"},{"id":31522,"name":"Lomas de Sargentillo","stateId":2914,"stateCode":"G","stateName":"Guayas","countryId":64,"countryCode":"EC","countryName":"Ecuador","latitude":"-1.88333000","longitude":"-80.08333000","wikiDataId":"Q6669164"},{"id":31528,"name":"Milagro","stateId":2914,"stateCode":"G","stateName":"Guayas","countryId":64,"countryCode":"EC","countryName":"Ecuador","latitude":"-2.13404000","longitude":"-79.59415000","wikiDataId":"Q773238"},{"id":31532,"name":"Naranjal","stateId":2914,"stateCode":"G","stateName":"Guayas","countryId":64,"countryCode":"EC","countryName":"Ecuador","latitude":"-2.67364000","longitude":"-79.61830000","wikiDataId":"Q6965358"},{"id":31533,"name":"Naranjito","stateId":2914,"stateCode":"G","stateName":"Guayas","countryId":64,"countryCode":"EC","countryName":"Ecuador","latitude":"-2.16671000","longitude":"-79.46540000","wikiDataId":"Q962774"},{"id":31539,"name":"Palestina","stateId":2914,"stateCode":"G","stateName":"Guayas","countryId":64,"countryCode":"EC","countryName":"Ecuador","latitude":"-1.93709000","longitude":"-79.71396000","wikiDataId":"Q7127272"},{"id":31544,"name":"Pedro Carbo","stateId":2914,"stateCode":"G","stateName":"Guayas","countryId":64,"countryCode":"EC","countryName":"Ecuador","latitude":"-1.81563000","longitude":"-80.23309000","wikiDataId":"Q11004410"},{"id":31548,"name":"Playas","stateId":2914,"stateCode":"G","stateName":"Guayas","countryId":64,"countryCode":"EC","countryName":"Ecuador","latitude":"-2.63199000","longitude":"-80.38808000","wikiDataId":"Q3123278"},{"id":31566,"name":"Samborondón","stateId":2914,"stateCode":"G","stateName":"Guayas","countryId":64,"countryCode":"EC","countryName":"Ecuador","latitude":"-1.96276000","longitude":"-79.72402000","wikiDataId":"Q368320"},{"id":31575,"name":"Santa Lucía","stateId":2914,"stateCode":"G","stateName":"Guayas","countryId":64,"countryCode":"EC","countryName":"Ecuador","latitude":"-2.18333000","longitude":"-80.00000000","wikiDataId":"Q13190708"},{"id":31586,"name":"Velasco Ibarra","stateId":2914,"stateCode":"G","stateName":"Guayas","countryId":64,"countryCode":"EC","countryName":"Ecuador","latitude":"-1.04376000","longitude":"-79.63837000","wikiDataId":"Q5351224"},{"id":31589,"name":"Yaguachi Nuevo","stateId":2914,"stateCode":"G","stateName":"Guayas","countryId":64,"countryCode":"EC","countryName":"Ecuador","latitude":"-2.09680000","longitude":"-79.69485000","wikiDataId":"Q3816731"}]