[{"id":52336,"name":"Kankan","stateId":2697,"stateCode":"K","stateName":"Kankan Region","countryId":92,"countryCode":"GN","countryName":"Guinea","latitude":"10.38542000","longitude":"-9.30568000","wikiDataId":"Q874317"},{"id":52337,"name":"Kankan Prefecture","stateId":2697,"stateCode":"K","stateName":"Kankan Region","countryId":92,"countryCode":"GN","countryName":"Guinea","latitude":"10.27100000","longitude":"-9.17800000","wikiDataId":"Q581719"},{"id":52345,"name":"Kérouané","stateId":2697,"stateCode":"K","stateName":"Kankan Region","countryId":92,"countryCode":"GN","countryName":"Guinea","latitude":"9.26667000","longitude":"-9.01667000","wikiDataId":"Q1152900"},{"id":52338,"name":"Kerouane Prefecture","stateId":2697,"stateCode":"K","stateName":"Kankan Region","countryId":92,"countryCode":"GN","countryName":"Guinea","latitude":"9.16667000","longitude":"-9.08333000","wikiDataId":"Q962654"},{"id":52344,"name":"Kouroussa","stateId":2697,"stateCode":"K","stateName":"Kankan Region","countryId":92,"countryCode":"GN","countryName":"Guinea","latitude":"10.66667000","longitude":"-9.91667000","wikiDataId":"Q1471573"},{"id":52356,"name":"Mandiana","stateId":2697,"stateCode":"K","stateName":"Kankan Region","countryId":92,"countryCode":"GN","countryName":"Guinea","latitude":"10.62577000","longitude":"-8.69413000","wikiDataId":"Q6748057"},{"id":52357,"name":"Mandiana Prefecture","stateId":2697,"stateCode":"K","stateName":"Kankan Region","countryId":92,"countryCode":"GN","countryName":"Guinea","latitude":"10.65800000","longitude":"-8.61500000","wikiDataId":"Q1470878"},{"id":52365,"name":"Siguiri","stateId":2697,"stateCode":"K","stateName":"Kankan Region","countryId":92,"countryCode":"GN","countryName":"Guinea","latitude":"11.42282000","longitude":"-9.16852000","wikiDataId":"Q1100303"},{"id":52366,"name":"Siguiri Prefecture","stateId":2697,"stateCode":"K","stateName":"Kankan Region","countryId":92,"countryCode":"GN","countryName":"Guinea","latitude":"11.66667000","longitude":"-9.50000000","wikiDataId":"Q1780649"},{"id":52368,"name":"Tokonou","stateId":2697,"stateCode":"K","stateName":"Kankan Region","countryId":92,"countryCode":"GN","countryName":"Guinea","latitude":"9.65000000","longitude":"-9.78333000","wikiDataId":"Q922545"}]