[{"id":109069,"name":"Gamba","stateId":1473,"stateCode":"07","stateName":"Zanzibar North","countryId":218,"countryCode":"TZ","countryName":"Tanzania","latitude":"-5.90000000","longitude":"39.30000000","wikiDataId":"Q49349721"},{"id":109112,"name":"Kijini","stateId":1473,"stateCode":"07","stateName":"Zanzibar North","countryId":218,"countryCode":"TZ","countryName":"Tanzania","latitude":"-5.85000000","longitude":"39.31667000","wikiDataId":"Q244509"},{"id":109131,"name":"Kiwengwa","stateId":1473,"stateCode":"07","stateName":"Zanzibar North","countryId":218,"countryCode":"TZ","countryName":"Tanzania","latitude":"-5.98957000","longitude":"39.37680000","wikiDataId":"Q11929863"},{"id":109201,"name":"Mkokotoni","stateId":1473,"stateCode":"07","stateName":"Zanzibar North","countryId":218,"countryCode":"TZ","countryName":"Tanzania","latitude":"-5.87506000","longitude":"39.25523000","wikiDataId":"Q2086390"},{"id":109261,"name":"Nungwi","stateId":1473,"stateCode":"07","stateName":"Zanzibar North","countryId":218,"countryCode":"TZ","countryName":"Tanzania","latitude":"-5.72651000","longitude":"39.29870000","wikiDataId":"Q7192944"}]