[{"id":102808,"name":"Ad Dawādimī","stateId":2849,"stateCode":"01","stateName":"Riyadh","countryId":194,"countryCode":"SA","countryName":"Saudi Arabia","latitude":"24.50772000","longitude":"44.39237000","wikiDataId":"Q27258"},{"id":102809,"name":"Ad Dilam","stateId":2849,"stateCode":"01","stateName":"Riyadh","countryId":194,"countryCode":"SA","countryName":"Saudi Arabia","latitude":"23.99104000","longitude":"47.16181000","wikiDataId":"Q31868886"},{"id":102811,"name":"Afif","stateId":2849,"stateCode":"01","stateName":"Riyadh","countryId":194,"countryCode":"SA","countryName":"Saudi Arabia","latitude":"23.90650000","longitude":"42.91724000","wikiDataId":"Q27139"},{"id":102812,"name":"Ain AlBaraha","stateId":2849,"stateCode":"01","stateName":"Riyadh","countryId":194,"countryCode":"SA","countryName":"Saudi Arabia","latitude":"24.75806000","longitude":"43.77389000","wikiDataId":"Q20394853"},{"id":102813,"name":"Al Arţāwīyah","stateId":2849,"stateCode":"01","stateName":"Riyadh","countryId":194,"countryCode":"SA","countryName":"Saudi Arabia","latitude":"26.50387000","longitude":"45.34813000","wikiDataId":"Q31871949"},{"id":149017,"name":"Al Bir","stateId":2849,"stateCode":"01","stateName":"Riyadh","countryId":194,"countryCode":"SA","countryName":"Saudi Arabia","latitude":"25.30000000","longitude":"45.96670000","wikiDataId":"Q12184747"},{"id":149018,"name":"Al Hair","stateId":2849,"stateCode":"01","stateName":"Riyadh","countryId":194,"countryCode":"SA","countryName":"Saudi Arabia","latitude":"24.39072000","longitude":"46.98677000","wikiDataId":"Q23048600"},{"id":149019,"name":"Al Jurayfah","stateId":2849,"stateCode":"01","stateName":"Riyadh","countryId":194,"countryCode":"SA","countryName":"Saudi Arabia","latitude":"25.52932000","longitude":"45.25644000","wikiDataId":"Q6722656"},{"id":102826,"name":"Al Kharj","stateId":2849,"stateCode":"01","stateName":"Riyadh","countryId":194,"countryCode":"SA","countryName":"Saudi Arabia","latitude":"24.15541000","longitude":"47.33457000","wikiDataId":"Q2162128"},{"id":149020,"name":"Ar Rayn","stateId":2849,"stateCode":"01","stateName":"Riyadh","countryId":194,"countryCode":"SA","countryName":"Saudi Arabia","latitude":"23.54995000","longitude":"45.50463000","wikiDataId":"Q12241891"},{"id":149021,"name":"As Salamiyah","stateId":2849,"stateCode":"01","stateName":"Riyadh","countryId":194,"countryCode":"SA","countryName":"Saudi Arabia","latitude":"24.20154000","longitude":"47.28872000","wikiDataId":"Q12192365"},{"id":102844,"name":"As Sulayyil","stateId":2849,"stateCode":"01","stateName":"Riyadh","countryId":194,"countryCode":"SA","countryName":"Saudi Arabia","latitude":"20.46067000","longitude":"45.57792000","wikiDataId":"Q27221"},{"id":102847,"name":"Az Zulfī","stateId":2849,"stateCode":"01","stateName":"Riyadh","countryId":194,"countryCode":"SA","countryName":"Saudi Arabia","latitude":"26.29945000","longitude":"44.81542000","wikiDataId":"Q31894563"},{"id":149022,"name":"Dawadmi","stateId":2849,"stateCode":"01","stateName":"Riyadh","countryId":194,"countryCode":"SA","countryName":"Saudi Arabia","latitude":"24.50772000","longitude":"44.39237000","wikiDataId":"Q97290974"},{"id":149023,"name":"Diriyah","stateId":2849,"stateCode":"01","stateName":"Riyadh","countryId":194,"countryCode":"SA","countryName":"Saudi Arabia","latitude":"24.75187000","longitude":"46.53874000","wikiDataId":"Q277505"},{"id":149024,"name":"Harmah","stateId":2849,"stateCode":"01","stateName":"Riyadh","countryId":194,"countryCode":"SA","countryName":"Saudi Arabia","latitude":"25.91666667","longitude":"45.33333333","wikiDataId":"Q3543429"},{"id":149025,"name":"Jalajil","stateId":2849,"stateCode":"01","stateName":"Riyadh","countryId":194,"countryCode":"SA","countryName":"Saudi Arabia","latitude":"25.66666667","longitude":"45.45000000","wikiDataId":"Q3543658"},{"id":149026,"name":"Layla","stateId":2849,"stateCode":"01","stateName":"Riyadh","countryId":194,"countryCode":"SA","countryName":"Saudi Arabia","latitude":"22.28330000","longitude":"46.73330000","wikiDataId":"Q26958"},{"id":149027,"name":"Manfuha","stateId":2849,"stateCode":"01","stateName":"Riyadh","countryId":194,"countryCode":"SA","countryName":"Saudi Arabia","latitude":"24.59611111","longitude":"46.72722222","wikiDataId":"Q2051873"},{"id":102863,"name":"Marāt","stateId":2849,"stateCode":"01","stateName":"Riyadh","countryId":194,"countryCode":"SA","countryName":"Saudi Arabia","latitude":"25.07064000","longitude":"45.45775000","wikiDataId":"Q32139417"},{"id":149028,"name":"Najan","stateId":2849,"stateCode":"01","stateName":"Riyadh","countryId":194,"countryCode":"SA","countryName":"Saudi Arabia","latitude":"24.07746000","longitude":"47.16590000","wikiDataId":"Q12248676"},{"id":102874,"name":"Riyadh","stateId":2849,"stateCode":"01","stateName":"Riyadh","countryId":194,"countryCode":"SA","countryName":"Saudi Arabia","latitude":"24.68773000","longitude":"46.72185000","wikiDataId":"Q3692"},{"id":102880,"name":"Sājir","stateId":2849,"stateCode":"01","stateName":"Riyadh","countryId":194,"countryCode":"SA","countryName":"Saudi Arabia","latitude":"25.18251000","longitude":"44.59964000","wikiDataId":"Q32188864"},{"id":102893,"name":"shokhaibٍ","stateId":2849,"stateCode":"01","stateName":"Riyadh","countryId":194,"countryCode":"SA","countryName":"Saudi Arabia","latitude":"24.49023000","longitude":"46.26871000","wikiDataId":"Q466027"},{"id":102885,"name":"Tumayr","stateId":2849,"stateCode":"01","stateName":"Riyadh","countryId":194,"countryCode":"SA","countryName":"Saudi Arabia","latitude":"25.70347000","longitude":"45.86835000","wikiDataId":"Q32190410"}]