[{"id":52222,"name":"Bansang","stateId":2669,"stateCode":"M","stateName":"Central River Division","countryId":80,"countryCode":"GM","countryName":"Gambia The","latitude":"13.43333000","longitude":"-14.65000000","wikiDataId":"Q806951"},{"id":52228,"name":"Brikama Nding","stateId":2669,"stateCode":"M","stateName":"Central River Division","countryId":80,"countryCode":"GM","countryName":"Gambia The","latitude":"13.53333000","longitude":"-14.93333000","wikiDataId":"Q916988"},{"id":52233,"name":"Dankunku","stateId":2669,"stateCode":"M","stateName":"Central River Division","countryId":80,"countryCode":"GM","countryName":"Gambia The","latitude":"13.56667000","longitude":"-15.31667000","wikiDataId":"Q1164277"},{"id":52236,"name":"Denton","stateId":2669,"stateCode":"M","stateName":"Central River Division","countryId":80,"countryCode":"GM","countryName":"Gambia The","latitude":"13.50000000","longitude":"-14.93333000","wikiDataId":"Q1185218"},{"id":52246,"name":"Fulladu West","stateId":2669,"stateCode":"M","stateName":"Central River Division","countryId":80,"countryCode":"GM","countryName":"Gambia The","latitude":"13.50000000","longitude":"-14.75000000","wikiDataId":"Q1473729"},{"id":52247,"name":"Galleh Manda","stateId":2669,"stateCode":"M","stateName":"Central River Division","countryId":80,"countryCode":"GM","countryName":"Gambia The","latitude":"13.43333000","longitude":"-14.78333000","wikiDataId":"Q1492266"},{"id":52248,"name":"Georgetown","stateId":2669,"stateCode":"M","stateName":"Central River Division","countryId":80,"countryCode":"GM","countryName":"Gambia The","latitude":"13.54039000","longitude":"-14.76374000","wikiDataId":"Q1002786"},{"id":52252,"name":"Jakhaly","stateId":2669,"stateCode":"M","stateName":"Central River Division","countryId":80,"countryCode":"GM","countryName":"Gambia The","latitude":"13.55000000","longitude":"-14.96667000","wikiDataId":"Q1678844"},{"id":52254,"name":"Janjanbureh","stateId":2669,"stateCode":"M","stateName":"Central River Division","countryId":80,"countryCode":"GM","countryName":"Gambia The","latitude":"13.53564000","longitude":"-14.76515000","wikiDataId":"Q1669376"},{"id":52258,"name":"Jarreng","stateId":2669,"stateCode":"M","stateName":"Central River Division","countryId":80,"countryCode":"GM","countryName":"Gambia The","latitude":"13.61667000","longitude":"-15.18333000","wikiDataId":"Q1572209"},{"id":52265,"name":"Karantaba","stateId":2669,"stateCode":"M","stateName":"Central River Division","countryId":80,"countryCode":"GM","countryName":"Gambia The","latitude":"13.66667000","longitude":"-15.03333000","wikiDataId":"Q1728955"},{"id":52266,"name":"Kass Wollof","stateId":2669,"stateCode":"M","stateName":"Central River Division","countryId":80,"countryCode":"GM","countryName":"Gambia The","latitude":"13.78333000","longitude":"-14.93333000","wikiDataId":"Q1728955"},{"id":52280,"name":"Kuntaur","stateId":2669,"stateCode":"M","stateName":"Central River Division","countryId":80,"countryCode":"GM","countryName":"Gambia The","latitude":"13.67085000","longitude":"-14.88977000","wikiDataId":"Q1188137"},{"id":52281,"name":"Kunting","stateId":2669,"stateCode":"M","stateName":"Central River Division","countryId":80,"countryCode":"GM","countryName":"Gambia The","latitude":"13.53333000","longitude":"-14.66667000","wikiDataId":"Q1319580"},{"id":52285,"name":"Lower Saloum","stateId":2669,"stateCode":"M","stateName":"Central River Division","countryId":80,"countryCode":"GM","countryName":"Gambia The","latitude":"13.71667000","longitude":"-15.36667000","wikiDataId":"Q1572755"},{"id":52287,"name":"Niamina East District","stateId":2669,"stateCode":"M","stateName":"Central River Division","countryId":80,"countryCode":"GM","countryName":"Gambia The","latitude":"13.63333000","longitude":"-15.08333000","wikiDataId":"Q1626738"},{"id":52288,"name":"Niamina West District","stateId":2669,"stateCode":"M","stateName":"Central River Division","countryId":80,"countryCode":"GM","countryName":"Gambia The","latitude":"13.58333000","longitude":"-15.25000000","wikiDataId":"Q1572232"},{"id":52289,"name":"Niani","stateId":2669,"stateCode":"M","stateName":"Central River Division","countryId":80,"countryCode":"GM","countryName":"Gambia The","latitude":"13.66667000","longitude":"-14.91667000","wikiDataId":"Q1572266"},{"id":52290,"name":"Nianija District","stateId":2669,"stateCode":"M","stateName":"Central River Division","countryId":80,"countryCode":"GM","countryName":"Gambia The","latitude":"13.72900000","longitude":"-15.09100000","wikiDataId":"Q1572202"},{"id":52294,"name":"Pateh Sam","stateId":2669,"stateCode":"M","stateName":"Central River Division","countryId":80,"countryCode":"GM","countryName":"Gambia The","latitude":"13.61667000","longitude":"-15.06667000","wikiDataId":"Q2056669"},{"id":52298,"name":"Sami","stateId":2669,"stateCode":"M","stateName":"Central River Division","countryId":80,"countryCode":"GM","countryName":"Gambia The","latitude":"13.58333000","longitude":"-15.20000000","wikiDataId":"Q1694805"},{"id":52299,"name":"Sami District","stateId":2669,"stateCode":"M","stateName":"Central River Division","countryId":80,"countryCode":"GM","countryName":"Gambia The","latitude":"13.58333000","longitude":"-14.58333000","wikiDataId":"Q728332"},{"id":52303,"name":"Saruja","stateId":2669,"stateCode":"M","stateName":"Central River Division","countryId":80,"countryCode":"GM","countryName":"Gambia The","latitude":"13.55000000","longitude":"-14.91667000","wikiDataId":"Q1455939"},{"id":52309,"name":"Sukuta","stateId":2669,"stateCode":"M","stateName":"Central River Division","countryId":80,"countryCode":"GM","countryName":"Gambia The","latitude":"13.61667000","longitude":"-14.91667000","wikiDataId":"Q2364187"},{"id":52317,"name":"Upper Saloum","stateId":2669,"stateCode":"M","stateName":"Central River Division","countryId":80,"countryCode":"GM","countryName":"Gambia The","latitude":"13.75000000","longitude":"-15.20000000","wikiDataId":"Q1554897"},{"id":52318,"name":"Wassu","stateId":2669,"stateCode":"M","stateName":"Central River Division","countryId":80,"countryCode":"GM","countryName":"Gambia The","latitude":"13.69094000","longitude":"-14.87884000","wikiDataId":"Q2552196"}]