[{"id":8457,"name":"Bandarban","stateId":803,"stateCode":"B","stateName":"Chittagong Division","countryId":19,"countryCode":"BD","countryName":"Bangladesh","latitude":"22.00000000","longitude":"92.33333000","wikiDataId":"Q806273"},{"id":8468,"name":"Bibir Hat","stateId":803,"stateCode":"B","stateName":"Chittagong Division","countryId":19,"countryCode":"BD","countryName":"Bangladesh","latitude":"22.68347000","longitude":"91.79058000","wikiDataId":"Q855042"},{"id":8470,"name":"Brahmanbaria","stateId":803,"stateCode":"B","stateName":"Chittagong Division","countryId":19,"countryCode":"BD","countryName":"Bangladesh","latitude":"23.98333000","longitude":"91.16667000","wikiDataId":"Q2039066"},{"id":8474,"name":"Chandpur","stateId":803,"stateCode":"B","stateName":"Chittagong Division","countryId":19,"countryCode":"BD","countryName":"Bangladesh","latitude":"23.25000000","longitude":"90.83333000","wikiDataId":"Q1429697"},{"id":8478,"name":"Chhāgalnāiya","stateId":803,"stateCode":"B","stateName":"Chittagong Division","countryId":19,"countryCode":"BD","countryName":"Bangladesh","latitude":"23.02475000","longitude":"91.51091000","wikiDataId":"Q46043"},{"id":8481,"name":"Chittagong","stateId":803,"stateCode":"B","stateName":"Chittagong Division","countryId":19,"countryCode":"BD","countryName":"Bangladesh","latitude":"22.48750000","longitude":"91.96333000","wikiDataId":"Q1074991"},{"id":8483,"name":"Comilla","stateId":803,"stateCode":"B","stateName":"Chittagong Division","countryId":19,"countryCode":"BD","countryName":"Bangladesh","latitude":"23.44170000","longitude":"91.00987000","wikiDataId":"Q1480778"},{"id":8484,"name":"Cox's Bazar","stateId":803,"stateCode":"B","stateName":"Chittagong Division","countryId":19,"countryCode":"BD","countryName":"Bangladesh","latitude":"21.58389000","longitude":"92.01528000","wikiDataId":"Q1122278"},{"id":8485,"name":"Cox’s Bāzār","stateId":803,"stateCode":"B","stateName":"Chittagong Division","countryId":19,"countryCode":"BD","countryName":"Bangladesh","latitude":"21.43973000","longitude":"92.00955000","wikiDataId":"Q949746"},{"id":8492,"name":"Feni","stateId":803,"stateCode":"B","stateName":"Chittagong Division","countryId":19,"countryCode":"BD","countryName":"Bangladesh","latitude":"22.96667000","longitude":"91.31667000","wikiDataId":"Q1404741"},{"id":8499,"name":"Hājīganj","stateId":803,"stateCode":"B","stateName":"Chittagong Division","countryId":19,"countryCode":"BD","countryName":"Bangladesh","latitude":"23.25191000","longitude":"90.85508000","wikiDataId":"Q1438974"},{"id":8512,"name":"Khagrachhari","stateId":803,"stateCode":"B","stateName":"Chittagong Division","countryId":19,"countryCode":"BD","countryName":"Bangladesh","latitude":"23.16667000","longitude":"91.90000000","wikiDataId":"Q1429685"},{"id":8525,"name":"Lākshām","stateId":803,"stateCode":"B","stateName":"Chittagong Division","countryId":19,"countryCode":"BD","countryName":"Bangladesh","latitude":"23.24018000","longitude":"91.12143000","wikiDataId":"Q2373734"},{"id":8521,"name":"Lakshmipur","stateId":803,"stateCode":"B","stateName":"Chittagong Division","countryId":19,"countryCode":"BD","countryName":"Bangladesh","latitude":"22.91667000","longitude":"90.83333000","wikiDataId":"Q1550252"},{"id":8530,"name":"Manikchari","stateId":803,"stateCode":"B","stateName":"Chittagong Division","countryId":19,"countryCode":"BD","countryName":"Bangladesh","latitude":"22.83957000","longitude":"91.84128000","wikiDataId":"Q21748528"},{"id":8543,"name":"Nabīnagar","stateId":803,"stateCode":"B","stateName":"Chittagong Division","countryId":19,"countryCode":"BD","countryName":"Bangladesh","latitude":"23.88791000","longitude":"90.96792000","wikiDataId":"Q1429976"},{"id":8553,"name":"Noakhali","stateId":803,"stateCode":"B","stateName":"Chittagong Division","countryId":19,"countryCode":"BD","countryName":"Bangladesh","latitude":"22.75000000","longitude":"91.16667000","wikiDataId":"Q2188627"},{"id":8564,"name":"Patiya","stateId":803,"stateCode":"B","stateName":"Chittagong Division","countryId":19,"countryCode":"BD","countryName":"Bangladesh","latitude":"22.29543000","longitude":"91.97900000","wikiDataId":"Q2367822"},{"id":8579,"name":"Rāipur","stateId":803,"stateCode":"B","stateName":"Chittagong Division","countryId":19,"countryCode":"BD","countryName":"Bangladesh","latitude":"23.03910000","longitude":"90.76808000","wikiDataId":"Q2344570"},{"id":8581,"name":"Rāmganj","stateId":803,"stateCode":"B","stateName":"Chittagong Division","countryId":19,"countryCode":"BD","countryName":"Bangladesh","latitude":"23.10060000","longitude":"90.84989000","wikiDataId":"Q322155"},{"id":8576,"name":"Rangamati","stateId":803,"stateCode":"B","stateName":"Chittagong Division","countryId":19,"countryCode":"BD","countryName":"Bangladesh","latitude":"22.63333000","longitude":"92.20000000","wikiDataId":"Q2121686"},{"id":8578,"name":"Raojān","stateId":803,"stateCode":"B","stateName":"Chittagong Division","countryId":19,"countryCode":"BD","countryName":"Bangladesh","latitude":"22.53511000","longitude":"91.91919000","wikiDataId":"Q2344570"},{"id":8584,"name":"Sandwīp","stateId":803,"stateCode":"B","stateName":"Chittagong Division","countryId":19,"countryCode":"BD","countryName":"Bangladesh","latitude":"22.51409000","longitude":"91.45491000","wikiDataId":"Q21745886"},{"id":8597,"name":"Sātkania","stateId":803,"stateCode":"B","stateName":"Chittagong Division","countryId":19,"countryCode":"BD","countryName":"Bangladesh","latitude":"22.07639000","longitude":"92.04955000","wikiDataId":"Q2093352"},{"id":8600,"name":"Teknāf","stateId":803,"stateCode":"B","stateName":"Chittagong Division","countryId":19,"countryCode":"BD","countryName":"Bangladesh","latitude":"20.85829000","longitude":"92.29773000","wikiDataId":"Q952184"}]