[{"id":135246,"name":"Acate","stateId":1709,"stateCode":"82","stateName":"Sicily","countryId":107,"countryCode":"IT","countryName":"Italy","latitude":"37.02318000","longitude":"14.49302000","wikiDataId":"Q3321966"},{"id":135256,"name":"Aci Bonaccorsi","stateId":1709,"stateCode":"82","stateName":"Sicily","countryId":107,"countryCode":"IT","countryName":"Italy","latitude":"37.59640000","longitude":"15.10724000","wikiDataId":"Q3604172"},{"id":135257,"name":"Aci Castello","stateId":1709,"stateCode":"82","stateName":"Sicily","countryId":107,"countryCode":"IT","countryName":"Italy","latitude":"37.55564000","longitude":"15.14535000","wikiDataId":"Q3604172"},{"id":135258,"name":"Aci Catena","stateId":1709,"stateCode":"82","stateName":"Sicily","countryId":107,"countryCode":"IT","countryName":"Italy","latitude":"37.60614000","longitude":"15.14165000","wikiDataId":"Q3604172"},{"id":135259,"name":"Aci Sant'Antonio","stateId":1709,"stateCode":"82","stateName":"Sicily","countryId":107,"countryCode":"IT","countryName":"Italy","latitude":"37.60499000","longitude":"15.12294000","wikiDataId":"Q3604172"},{"id":135260,"name":"Aci Trezza","stateId":1709,"stateCode":"82","stateName":"Sicily","countryId":107,"countryCode":"IT","countryName":"Italy","latitude":"37.56385000","longitude":"15.16136000","wikiDataId":"Q341300"},{"id":135262,"name":"Acireale","stateId":1709,"stateCode":"82","stateName":"Sicily","countryId":107,"countryCode":"IT","countryName":"Italy","latitude":"37.60886000","longitude":"15.16577000","wikiDataId":"Q3604570"},{"id":135263,"name":"Acitrezza","stateId":1709,"stateCode":"82","stateName":"Sicily","countryId":107,"countryCode":"IT","countryName":"Italy","latitude":"37.55960000","longitude":"15.15990000","wikiDataId":"Q18461170"},{"id":135279,"name":"Acquaviva Platani","stateId":1709,"stateCode":"82","stateName":"Sicily","countryId":107,"countryCode":"IT","countryName":"Italy","latitude":"37.57174000","longitude":"13.70156000","wikiDataId":"Q2175750"},{"id":135282,"name":"Acquedolci","stateId":1709,"stateCode":"82","stateName":"Sicily","countryId":107,"countryCode":"IT","countryName":"Italy","latitude":"38.05708000","longitude":"14.58550000","wikiDataId":"Q2175750"},{"id":135287,"name":"Adrano","stateId":1709,"stateCode":"82","stateName":"Sicily","countryId":107,"countryCode":"IT","countryName":"Italy","latitude":"37.66358000","longitude":"14.83283000","wikiDataId":"Q2175750"},{"id":135300,"name":"Agira","stateId":1709,"stateCode":"82","stateName":"Sicily","countryId":107,"countryCode":"IT","countryName":"Italy","latitude":"37.65580000","longitude":"14.51972000","wikiDataId":"Q18431725"},{"id":135302,"name":"Agliandroni-Paternella","stateId":1709,"stateCode":"82","stateName":"Sicily","countryId":107,"countryCode":"IT","countryName":"Italy","latitude":"38.13280000","longitude":"13.06884000","wikiDataId":"Q18467195"},{"id":135318,"name":"Agrigento","stateId":1709,"stateCode":"82","stateName":"Sicily","countryId":107,"countryCode":"IT","countryName":"Italy","latitude":"37.45000000","longitude":"13.50000000","wikiDataId":"Q16112"},{"id":135324,"name":"Aidone","stateId":1709,"stateCode":"82","stateName":"Sicily","countryId":107,"countryCode":"IT","countryName":"Italy","latitude":"37.41468000","longitude":"14.44542000","wikiDataId":"Q16112"},{"id":135389,"name":"Alcamo","stateId":1709,"stateCode":"82","stateName":"Sicily","countryId":107,"countryCode":"IT","countryName":"Italy","latitude":"37.97790000","longitude":"12.96473000","wikiDataId":"Q18454404"},{"id":135390,"name":"Alcara Li Fusi","stateId":1709,"stateCode":"82","stateName":"Sicily","countryId":107,"countryCode":"IT","countryName":"Italy","latitude":"38.02143000","longitude":"14.70142000","wikiDataId":"Q18454404"},{"id":135396,"name":"Alessandria della Rocca","stateId":1709,"stateCode":"82","stateName":"Sicily","countryId":107,"countryCode":"IT","countryName":"Italy","latitude":"37.56767000","longitude":"13.45343000","wikiDataId":"Q18454404"},{"id":135454,"name":"Alì","stateId":1709,"stateCode":"82","stateName":"Sicily","countryId":107,"countryCode":"IT","countryName":"Italy","latitude":"38.02678000","longitude":"15.41910000","wikiDataId":"Q3613147"},{"id":135455,"name":"Alì Terme","stateId":1709,"stateCode":"82","stateName":"Sicily","countryId":107,"countryCode":"IT","countryName":"Italy","latitude":"38.00506000","longitude":"15.42269000","wikiDataId":"Q3613147"},{"id":135406,"name":"Alia","stateId":1709,"stateCode":"82","stateName":"Sicily","countryId":107,"countryCode":"IT","countryName":"Italy","latitude":"37.77867000","longitude":"13.71391000","wikiDataId":"Q18454404"},{"id":135412,"name":"Alimena","stateId":1709,"stateCode":"82","stateName":"Sicily","countryId":107,"countryCode":"IT","countryName":"Italy","latitude":"37.69310000","longitude":"14.11369000","wikiDataId":"Q18454404"},{"id":135413,"name":"Aliminusa","stateId":1709,"stateCode":"82","stateName":"Sicily","countryId":107,"countryCode":"IT","countryName":"Italy","latitude":"37.86395000","longitude":"13.78126000","wikiDataId":"Q18454404"},{"id":135433,"name":"Altavilla Milicia","stateId":1709,"stateCode":"82","stateName":"Sicily","countryId":107,"countryCode":"IT","countryName":"Italy","latitude":"38.03800000","longitude":"13.54947000","wikiDataId":"Q18503836"},{"id":135444,"name":"Altofonte","stateId":1709,"stateCode":"82","stateName":"Sicily","countryId":107,"countryCode":"IT","countryName":"Italy","latitude":"38.04298000","longitude":"13.29434000","wikiDataId":"Q3613147"},{"id":135519,"name":"Antillo","stateId":1709,"stateCode":"82","stateName":"Sicily","countryId":107,"countryCode":"IT","countryName":"Italy","latitude":"37.97937000","longitude":"15.24029000","wikiDataId":"Q18437157"},{"id":135550,"name":"Aragona","stateId":1709,"stateCode":"82","stateName":"Sicily","countryId":107,"countryCode":"IT","countryName":"Italy","latitude":"37.39904000","longitude":"13.61974000","wikiDataId":"Q3621160"},{"id":135669,"name":"Assoro","stateId":1709,"stateCode":"82","stateName":"Sicily","countryId":107,"countryCode":"IT","countryName":"Italy","latitude":"37.62210000","longitude":"14.41810000","wikiDataId":"Q3625263"},{"id":135685,"name":"Augusta","stateId":1709,"stateCode":"82","stateName":"Sicily","countryId":107,"countryCode":"IT","countryName":"Italy","latitude":"37.24065000","longitude":"15.22121000","wikiDataId":"Q18452704"},{"id":135713,"name":"Avola","stateId":1709,"stateCode":"82","stateName":"Sicily","countryId":107,"countryCode":"IT","countryName":"Italy","latitude":"36.90840000","longitude":"15.13937000","wikiDataId":"Q18448272"},{"id":135747,"name":"Bagheria","stateId":1709,"stateCode":"82","stateName":"Sicily","countryId":107,"countryCode":"IT","countryName":"Italy","latitude":"38.07892000","longitude":"13.51237000","wikiDataId":"Q18440466"},{"id":135787,"name":"Balestrate","stateId":1709,"stateCode":"82","stateName":"Sicily","countryId":107,"countryCode":"IT","countryName":"Italy","latitude":"38.05125000","longitude":"13.00724000","wikiDataId":"Q18436446"},{"id":135834,"name":"Barcellona Pozzo di Gotto","stateId":1709,"stateCode":"82","stateName":"Sicily","countryId":107,"countryCode":"IT","countryName":"Italy","latitude":"38.14772000","longitude":"15.21469000","wikiDataId":"Q3634777"},{"id":135868,"name":"Barrafranca","stateId":1709,"stateCode":"82","stateName":"Sicily","countryId":107,"countryCode":"IT","countryName":"Italy","latitude":"37.37850000","longitude":"14.20270000","wikiDataId":"Q808771"},{"id":135885,"name":"Basicò","stateId":1709,"stateCode":"82","stateName":"Sicily","countryId":107,"countryCode":"IT","countryName":"Italy","latitude":"38.06077000","longitude":"15.06263000","wikiDataId":"Q3635515"},{"id":135911,"name":"Baucina","stateId":1709,"stateCode":"82","stateName":"Sicily","countryId":107,"countryCode":"IT","countryName":"Italy","latitude":"37.92521000","longitude":"13.53636000","wikiDataId":"Q18484109"},{"id":135953,"name":"Belmonte Mezzagno","stateId":1709,"stateCode":"82","stateName":"Sicily","countryId":107,"countryCode":"IT","countryName":"Italy","latitude":"38.04653000","longitude":"13.39207000","wikiDataId":"Q18498108"},{"id":135957,"name":"Belpasso","stateId":1709,"stateCode":"82","stateName":"Sicily","countryId":107,"countryCode":"IT","countryName":"Italy","latitude":"37.59192000","longitude":"14.97985000","wikiDataId":"Q18498108"},{"id":135960,"name":"Belvedere","stateId":1709,"stateCode":"82","stateName":"Sicily","countryId":107,"countryCode":"IT","countryName":"Italy","latitude":"37.08839000","longitude":"15.21314000","wikiDataId":"Q3637887"},{"id":135966,"name":"Belvedere-Piano Tavola","stateId":1709,"stateCode":"82","stateName":"Sicily","countryId":107,"countryCode":"IT","countryName":"Italy","latitude":"37.52955000","longitude":"14.98786000","wikiDataId":"Q18461204"},{"id":136028,"name":"Biancavilla","stateId":1709,"stateCode":"82","stateName":"Sicily","countryId":107,"countryCode":"IT","countryName":"Italy","latitude":"37.64442000","longitude":"14.86685000","wikiDataId":"Q3639404"},{"id":136060,"name":"Bisacquino","stateId":1709,"stateCode":"82","stateName":"Sicily","countryId":107,"countryCode":"IT","countryName":"Italy","latitude":"37.70352000","longitude":"13.26051000","wikiDataId":"Q18434573"},{"id":136075,"name":"Bivona","stateId":1709,"stateCode":"82","stateName":"Sicily","countryId":107,"countryCode":"IT","countryName":"Italy","latitude":"37.61797000","longitude":"13.43895000","wikiDataId":"Q18454425"},{"id":136083,"name":"Blufi","stateId":1709,"stateCode":"82","stateName":"Sicily","countryId":107,"countryCode":"IT","countryName":"Italy","latitude":"37.75205000","longitude":"14.07296000","wikiDataId":"Q18454425"},{"id":136110,"name":"Bolognetta","stateId":1709,"stateCode":"82","stateName":"Sicily","countryId":107,"countryCode":"IT","countryName":"Italy","latitude":"37.97120000","longitude":"13.45627000","wikiDataId":"Q18478734"},{"id":136120,"name":"Bompensiere","stateId":1709,"stateCode":"82","stateName":"Sicily","countryId":107,"countryCode":"IT","countryName":"Italy","latitude":"37.47240000","longitude":"13.78140000","wikiDataId":"Q15124"},{"id":136121,"name":"Bompietro","stateId":1709,"stateCode":"82","stateName":"Sicily","countryId":107,"countryCode":"IT","countryName":"Italy","latitude":"37.74394000","longitude":"14.09470000","wikiDataId":"Q15124"},{"id":136157,"name":"Borgetto","stateId":1709,"stateCode":"82","stateName":"Sicily","countryId":107,"countryCode":"IT","countryName":"Italy","latitude":"38.04664000","longitude":"13.14071000","wikiDataId":"Q18429587"},{"id":136349,"name":"Brolo","stateId":1709,"stateCode":"82","stateName":"Sicily","countryId":107,"countryCode":"IT","countryName":"Italy","latitude":"38.15623000","longitude":"14.82799000","wikiDataId":"Q18504046"},{"id":136353,"name":"Bronte","stateId":1709,"stateCode":"82","stateName":"Sicily","countryId":107,"countryCode":"IT","countryName":"Italy","latitude":"37.78863000","longitude":"14.83377000","wikiDataId":"Q18488889"},{"id":136361,"name":"Brucoli","stateId":1709,"stateCode":"82","stateName":"Sicily","countryId":107,"countryCode":"IT","countryName":"Italy","latitude":"37.28191000","longitude":"15.18836000","wikiDataId":"Q952146"},{"id":136384,"name":"Buccheri","stateId":1709,"stateCode":"82","stateName":"Sicily","countryId":107,"countryCode":"IT","countryName":"Italy","latitude":"37.12494000","longitude":"14.85222000","wikiDataId":"Q18438069"},{"id":136412,"name":"Burgio","stateId":1709,"stateCode":"82","stateName":"Sicily","countryId":107,"countryCode":"IT","countryName":"Italy","latitude":"37.60094000","longitude":"13.28826000","wikiDataId":"Q18502918"},{"id":136423,"name":"Buscemi","stateId":1709,"stateCode":"82","stateName":"Sicily","countryId":107,"countryCode":"IT","countryName":"Italy","latitude":"37.08604000","longitude":"14.88499000","wikiDataId":"Q18446439"},{"id":136425,"name":"Buseto Palizzolo","stateId":1709,"stateCode":"82","stateName":"Sicily","countryId":107,"countryCode":"IT","countryName":"Italy","latitude":"38.00339000","longitude":"12.70911000","wikiDataId":"Q3013233"},{"id":136436,"name":"Butera","stateId":1709,"stateCode":"82","stateName":"Sicily","countryId":107,"countryCode":"IT","countryName":"Italy","latitude":"37.19100000","longitude":"14.18232000","wikiDataId":"Q12360475"},{"id":136451,"name":"Caccamo","stateId":1709,"stateCode":"82","stateName":"Sicily","countryId":107,"countryCode":"IT","countryName":"Italy","latitude":"37.93357000","longitude":"13.66808000","wikiDataId":"Q18440594"},{"id":136489,"name":"Calamonaci","stateId":1709,"stateCode":"82","stateName":"Sicily","countryId":107,"countryCode":"IT","countryName":"Italy","latitude":"37.52566000","longitude":"13.29053000","wikiDataId":"Q1026145"},{"id":136493,"name":"Calascibetta","stateId":1709,"stateCode":"82","stateName":"Sicily","countryId":107,"countryCode":"IT","countryName":"Italy","latitude":"37.59024000","longitude":"14.27180000","wikiDataId":"Q1026145"},{"id":136496,"name":"Calatabiano","stateId":1709,"stateCode":"82","stateName":"Sicily","countryId":107,"countryCode":"IT","countryName":"Italy","latitude":"37.82049000","longitude":"15.23069000","wikiDataId":"Q18426488"},{"id":136497,"name":"Calatafimi","stateId":1709,"stateCode":"82","stateName":"Sicily","countryId":107,"countryCode":"IT","countryName":"Italy","latitude":"37.91440000","longitude":"12.86364000","wikiDataId":"Q18471755"},{"id":136540,"name":"Caltabellotta","stateId":1709,"stateCode":"82","stateName":"Sicily","countryId":107,"countryCode":"IT","countryName":"Italy","latitude":"37.57543000","longitude":"13.21632000","wikiDataId":"Q18478648"},{"id":136541,"name":"Caltagirone","stateId":1709,"stateCode":"82","stateName":"Sicily","countryId":107,"countryCode":"IT","countryName":"Italy","latitude":"37.23785000","longitude":"14.51551000","wikiDataId":"Q18478648"},{"id":136543,"name":"Caltanissetta","stateId":1709,"stateCode":"82","stateName":"Sicily","countryId":107,"countryCode":"IT","countryName":"Italy","latitude":"37.49025000","longitude":"14.06216000","wikiDataId":"Q18503049"},{"id":136544,"name":"Caltavuturo","stateId":1709,"stateCode":"82","stateName":"Sicily","countryId":107,"countryCode":"IT","countryName":"Italy","latitude":"37.82040000","longitude":"13.89158000","wikiDataId":"Q18503049"},{"id":136571,"name":"Camastra","stateId":1709,"stateCode":"82","stateName":"Sicily","countryId":107,"countryCode":"IT","countryName":"Italy","latitude":"37.25380000","longitude":"13.79211000","wikiDataId":"Q3651123"},{"id":136594,"name":"Cammarata","stateId":1709,"stateCode":"82","stateName":"Sicily","countryId":107,"countryCode":"IT","countryName":"Italy","latitude":"37.63361000","longitude":"13.62722000","wikiDataId":"Q18453662"},{"id":136609,"name":"Campanella-Gianforma","stateId":1709,"stateCode":"82","stateName":"Sicily","countryId":107,"countryCode":"IT","countryName":"Italy","latitude":"36.92630000","longitude":"14.83360000","wikiDataId":"Q18469409"},{"id":136639,"name":"Campobello di Licata","stateId":1709,"stateCode":"82","stateName":"Sicily","countryId":107,"countryCode":"IT","countryName":"Italy","latitude":"37.25759000","longitude":"13.91811000","wikiDataId":"Q18453665"},{"id":136640,"name":"Campobello di Mazara","stateId":1709,"stateCode":"82","stateName":"Sicily","countryId":107,"countryCode":"IT","countryName":"Italy","latitude":"37.63464000","longitude":"12.74946000","wikiDataId":"Q18453665"},{"id":136650,"name":"Campofelice di Fitalia","stateId":1709,"stateCode":"82","stateName":"Sicily","countryId":107,"countryCode":"IT","countryName":"Italy","latitude":"37.82686000","longitude":"13.48572000","wikiDataId":"Q3654723"},{"id":136651,"name":"Campofelice di Roccella","stateId":1709,"stateCode":"82","stateName":"Sicily","countryId":107,"countryCode":"IT","countryName":"Italy","latitude":"37.99270000","longitude":"13.87648000","wikiDataId":"Q3654723"},{"id":136654,"name":"Campofiorito","stateId":1709,"stateCode":"82","stateName":"Sicily","countryId":107,"countryCode":"IT","countryName":"Italy","latitude":"37.75374000","longitude":"13.26875000","wikiDataId":"Q18488916"},{"id":136656,"name":"Campofranco","stateId":1709,"stateCode":"82","stateName":"Sicily","countryId":107,"countryCode":"IT","countryName":"Italy","latitude":"37.51208000","longitude":"13.71213000","wikiDataId":"Q18461038"},{"id":136674,"name":"Camporeale","stateId":1709,"stateCode":"82","stateName":"Sicily","countryId":107,"countryCode":"IT","countryName":"Italy","latitude":"37.88612000","longitude":"13.10107000","wikiDataId":"Q37672"},{"id":136677,"name":"Camporotondo Etneo","stateId":1709,"stateCode":"82","stateName":"Sicily","countryId":107,"countryCode":"IT","countryName":"Italy","latitude":"37.56565000","longitude":"15.00319000","wikiDataId":"Q37672"},{"id":136690,"name":"Canalicchio","stateId":1709,"stateCode":"82","stateName":"Sicily","countryId":107,"countryCode":"IT","countryName":"Italy","latitude":"37.54097000","longitude":"15.09645000","wikiDataId":"Q2583458"},{"id":136712,"name":"Canicattì","stateId":1709,"stateCode":"82","stateName":"Sicily","countryId":107,"countryCode":"IT","countryName":"Italy","latitude":"37.35842000","longitude":"13.84786000","wikiDataId":"Q18501043"},{"id":136711,"name":"Canicattini Bagni","stateId":1709,"stateCode":"82","stateName":"Sicily","countryId":107,"countryCode":"IT","countryName":"Italy","latitude":"37.03171000","longitude":"15.06388000","wikiDataId":"Q18501043"},{"id":136721,"name":"Canneto","stateId":1709,"stateCode":"82","stateName":"Sicily","countryId":107,"countryCode":"IT","countryName":"Italy","latitude":"38.49505000","longitude":"14.96037000","wikiDataId":"Q3655409"},{"id":136725,"name":"Cannizzaro-Favara","stateId":1709,"stateCode":"82","stateName":"Sicily","countryId":107,"countryCode":"IT","countryName":"Italy","latitude":"38.06163000","longitude":"13.27167000","wikiDataId":"Q18467538"},{"id":136758,"name":"Capaci","stateId":1709,"stateCode":"82","stateName":"Sicily","countryId":107,"countryCode":"IT","countryName":"Italy","latitude":"38.17107000","longitude":"13.23930000","wikiDataId":"Q3656639"},{"id":136776,"name":"Capizzi","stateId":1709,"stateCode":"82","stateName":"Sicily","countryId":107,"countryCode":"IT","countryName":"Italy","latitude":"37.84788000","longitude":"14.47976000","wikiDataId":"Q18437235"},{"id":136778,"name":"Capo d'Orlando","stateId":1709,"stateCode":"82","stateName":"Sicily","countryId":107,"countryCode":"IT","countryName":"Italy","latitude":"38.14262000","longitude":"14.73292000","wikiDataId":"Q3657166"},{"id":136810,"name":"Capri Leone","stateId":1709,"stateCode":"82","stateName":"Sicily","countryId":107,"countryCode":"IT","countryName":"Italy","latitude":"38.08682000","longitude":"14.72959000","wikiDataId":"Q18446560"},{"id":136880,"name":"Carini","stateId":1709,"stateCode":"82","stateName":"Sicily","countryId":107,"countryCode":"IT","countryName":"Italy","latitude":"38.13240000","longitude":"13.18274000","wikiDataId":"Q18467565"},{"id":136886,"name":"Carlentini","stateId":1709,"stateCode":"82","stateName":"Sicily","countryId":107,"countryCode":"IT","countryName":"Italy","latitude":"37.28071000","longitude":"15.01020000","wikiDataId":"Q18467565"},{"id":136900,"name":"Caronia","stateId":1709,"stateCode":"82","stateName":"Sicily","countryId":107,"countryCode":"IT","countryName":"Italy","latitude":"38.02381000","longitude":"14.44142000","wikiDataId":"Q18465915"},{"id":136931,"name":"Carrozziere","stateId":1709,"stateCode":"82","stateName":"Sicily","countryId":107,"countryCode":"IT","countryName":"Italy","latitude":"37.03760000","longitude":"15.27195000","wikiDataId":"Q18470604"},{"id":136932,"name":"Carruba","stateId":1709,"stateCode":"82","stateName":"Sicily","countryId":107,"countryCode":"IT","countryName":"Italy","latitude":"37.69062000","longitude":"15.18815000","wikiDataId":"Q2562846"},{"id":136933,"name":"Carrubazza-Motta","stateId":1709,"stateCode":"82","stateName":"Sicily","countryId":107,"countryCode":"IT","countryName":"Italy","latitude":"37.55323000","longitude":"15.10819000","wikiDataId":"Q18461230"},{"id":136950,"name":"Casa Santa","stateId":1709,"stateCode":"82","stateName":"Sicily","countryId":107,"countryCode":"IT","countryName":"Italy","latitude":"38.02514000","longitude":"12.54840000","wikiDataId":"Q3661163"},{"id":137010,"name":"Casalvecchio Siculo","stateId":1709,"stateCode":"82","stateName":"Sicily","countryId":107,"countryCode":"IT","countryName":"Italy","latitude":"37.95850000","longitude":"15.32371000","wikiDataId":"Q3661449"},{"id":137102,"name":"Cassaro","stateId":1709,"stateCode":"82","stateName":"Sicily","countryId":107,"countryCode":"IT","countryName":"Italy","latitude":"37.10571000","longitude":"14.94697000","wikiDataId":"Q13212147"},{"id":137103,"name":"Cassibile","stateId":1709,"stateCode":"82","stateName":"Sicily","countryId":107,"countryCode":"IT","countryName":"Italy","latitude":"36.97862000","longitude":"15.20061000","wikiDataId":"Q1012526"},{"id":137125,"name":"Castanea delle Furie","stateId":1709,"stateCode":"82","stateName":"Sicily","countryId":107,"countryCode":"IT","countryName":"Italy","latitude":"38.26165000","longitude":"15.52178000","wikiDataId":"Q2580352"},{"id":137170,"name":"Castel di Judica","stateId":1709,"stateCode":"82","stateName":"Sicily","countryId":107,"countryCode":"IT","countryName":"Italy","latitude":"37.49475000","longitude":"14.64744000","wikiDataId":"Q18461236"},{"id":137172,"name":"Castel di Lucio","stateId":1709,"stateCode":"82","stateName":"Sicily","countryId":107,"countryCode":"IT","countryName":"Italy","latitude":"37.88698000","longitude":"14.31116000","wikiDataId":"Q18461236"},{"id":137183,"name":"Castelbuono","stateId":1709,"stateCode":"82","stateName":"Sicily","countryId":107,"countryCode":"IT","countryName":"Italy","latitude":"37.92530000","longitude":"14.08665000","wikiDataId":"Q18473264"},{"id":137188,"name":"Casteldaccia","stateId":1709,"stateCode":"82","stateName":"Sicily","countryId":107,"countryCode":"IT","countryName":"Italy","latitude":"38.05121000","longitude":"13.53041000","wikiDataId":"Q3662204"},{"id":137209,"name":"Castell'Umberto","stateId":1709,"stateCode":"82","stateName":"Sicily","countryId":107,"countryCode":"IT","countryName":"Italy","latitude":"38.08626000","longitude":"14.80686000","wikiDataId":"Q52072"},{"id":137212,"name":"Castellammare del Golfo","stateId":1709,"stateCode":"82","stateName":"Sicily","countryId":107,"countryCode":"IT","countryName":"Italy","latitude":"38.02653000","longitude":"12.88183000","wikiDataId":"Q18426594"},{"id":137216,"name":"Castellana Sicula","stateId":1709,"stateCode":"82","stateName":"Sicily","countryId":107,"countryCode":"IT","countryName":"Italy","latitude":"37.78686000","longitude":"14.03906000","wikiDataId":"Q18426594"},{"id":137268,"name":"Castelluzzo","stateId":1709,"stateCode":"82","stateName":"Sicily","countryId":107,"countryCode":"IT","countryName":"Italy","latitude":"38.10096000","longitude":"12.73599000","wikiDataId":"Q18471990"},{"id":137275,"name":"Castelmola","stateId":1709,"stateCode":"82","stateName":"Sicily","countryId":107,"countryCode":"IT","countryName":"Italy","latitude":"37.85829000","longitude":"15.27713000","wikiDataId":"Q3663000"},{"id":137318,"name":"Casteltermini","stateId":1709,"stateCode":"82","stateName":"Sicily","countryId":107,"countryCode":"IT","countryName":"Italy","latitude":"37.53874000","longitude":"13.64601000","wikiDataId":"Q3663015"},{"id":137329,"name":"Castelvetrano","stateId":1709,"stateCode":"82","stateName":"Sicily","countryId":107,"countryCode":"IT","countryName":"Italy","latitude":"37.68081000","longitude":"12.79194000","wikiDataId":"Q2163325"},{"id":137357,"name":"Castiglione di Sicilia","stateId":1709,"stateCode":"82","stateName":"Sicily","countryId":107,"countryCode":"IT","countryName":"Italy","latitude":"37.88150000","longitude":"15.12156000","wikiDataId":"Q18457021"},{"id":137380,"name":"Castrofilippo","stateId":1709,"stateCode":"82","stateName":"Sicily","countryId":107,"countryCode":"IT","countryName":"Italy","latitude":"37.35046000","longitude":"13.75001000","wikiDataId":"Q2249764"},{"id":137385,"name":"Castronuovo di Sicilia","stateId":1709,"stateCode":"82","stateName":"Sicily","countryId":107,"countryCode":"IT","countryName":"Italy","latitude":"37.67894000","longitude":"13.60346000","wikiDataId":"Q18467637"},{"id":137387,"name":"Castroreale","stateId":1709,"stateCode":"82","stateName":"Sicily","countryId":107,"countryCode":"IT","countryName":"Italy","latitude":"38.09857000","longitude":"15.21012000","wikiDataId":"Q18467637"},{"id":137391,"name":"Catania","stateId":1709,"stateCode":"82","stateName":"Sicily","countryId":107,"countryCode":"IT","countryName":"Italy","latitude":"37.47169000","longitude":"14.84731000","wikiDataId":"Q20991246"},{"id":137394,"name":"Catenanuova","stateId":1709,"stateCode":"82","stateName":"Sicily","countryId":107,"countryCode":"IT","countryName":"Italy","latitude":"37.56876000","longitude":"14.69076000","wikiDataId":"Q18490788"},{"id":137397,"name":"Cattolica Eraclea","stateId":1709,"stateCode":"82","stateName":"Sicily","countryId":107,"countryCode":"IT","countryName":"Italy","latitude":"37.44069000","longitude":"13.39265000","wikiDataId":"Q18490788"},{"id":137403,"name":"Cava d'Aliga","stateId":1709,"stateCode":"82","stateName":"Sicily","countryId":107,"countryCode":"IT","countryName":"Italy","latitude":"36.72964000","longitude":"14.69031000","wikiDataId":"Q2588419"},{"id":137458,"name":"Cefalà Diana","stateId":1709,"stateCode":"82","stateName":"Sicily","countryId":107,"countryCode":"IT","countryName":"Italy","latitude":"37.91565000","longitude":"13.46325000","wikiDataId":"Q18473176"},{"id":137459,"name":"Cefalù","stateId":1709,"stateCode":"82","stateName":"Sicily","countryId":107,"countryCode":"IT","countryName":"Italy","latitude":"38.03856000","longitude":"14.02285000","wikiDataId":"Q18473176"},{"id":137504,"name":"Centuripe","stateId":1709,"stateCode":"82","stateName":"Sicily","countryId":107,"countryCode":"IT","countryName":"Italy","latitude":"37.62336000","longitude":"14.74049000","wikiDataId":"Q18437307"},{"id":137511,"name":"Cerami","stateId":1709,"stateCode":"82","stateName":"Sicily","countryId":107,"countryCode":"IT","countryName":"Italy","latitude":"37.80953000","longitude":"14.50660000","wikiDataId":"Q13100637"},{"id":137529,"name":"Cerda","stateId":1709,"stateCode":"82","stateName":"Sicily","countryId":107,"countryCode":"IT","countryName":"Italy","latitude":"37.90578000","longitude":"13.81496000","wikiDataId":"Q18492542"},{"id":137598,"name":"Cerza","stateId":1709,"stateCode":"82","stateName":"Sicily","countryId":107,"countryCode":"IT","countryName":"Italy","latitude":"37.54297000","longitude":"15.10510000","wikiDataId":"Q18461251"},{"id":137609,"name":"Cesarò","stateId":1709,"stateCode":"82","stateName":"Sicily","countryId":107,"countryCode":"IT","countryName":"Italy","latitude":"37.84476000","longitude":"14.71308000","wikiDataId":"Q18503199"},{"id":137643,"name":"Chianchitta-Pallio","stateId":1709,"stateCode":"82","stateName":"Sicily","countryId":107,"countryCode":"IT","countryName":"Italy","latitude":"37.82108000","longitude":"15.25317000","wikiDataId":"Q18462642"},{"id":137644,"name":"Chianchitta-Trappitello","stateId":1709,"stateCode":"82","stateName":"Sicily","countryId":107,"countryCode":"IT","countryName":"Italy","latitude":"37.82984000","longitude":"15.25077000","wikiDataId":"Q18462653"},{"id":137648,"name":"Chiaramonte Gulfi","stateId":1709,"stateCode":"82","stateName":"Sicily","countryId":107,"countryCode":"IT","countryName":"Italy","latitude":"37.03050000","longitude":"14.70302000","wikiDataId":"Q18462653"},{"id":137687,"name":"Chiusa Sclafani","stateId":1709,"stateCode":"82","stateName":"Sicily","countryId":107,"countryCode":"IT","countryName":"Italy","latitude":"37.67692000","longitude":"13.27074000","wikiDataId":"Q2586177"},{"id":137700,"name":"Ciaculli","stateId":1709,"stateCode":"82","stateName":"Sicily","countryId":107,"countryCode":"IT","countryName":"Italy","latitude":"38.07530000","longitude":"13.40719000","wikiDataId":"Q2972191"},{"id":137702,"name":"Cianciana","stateId":1709,"stateCode":"82","stateName":"Sicily","countryId":107,"countryCode":"IT","countryName":"Italy","latitude":"37.51896000","longitude":"13.43349000","wikiDataId":"Q2972191"},{"id":137705,"name":"Ciavolo","stateId":1709,"stateCode":"82","stateName":"Sicily","countryId":107,"countryCode":"IT","countryName":"Italy","latitude":"37.77943000","longitude":"12.53774000","wikiDataId":"Q18472027"},{"id":137724,"name":"Ciminna","stateId":1709,"stateCode":"82","stateName":"Sicily","countryId":107,"countryCode":"IT","countryName":"Italy","latitude":"37.89765000","longitude":"13.55966000","wikiDataId":"Q3676842"},{"id":137735,"name":"Cinisi","stateId":1709,"stateCode":"82","stateName":"Sicily","countryId":107,"countryCode":"IT","countryName":"Italy","latitude":"38.16082000","longitude":"13.10099000","wikiDataId":"Q3676842"},{"id":137771,"name":"Città Giardino","stateId":1709,"stateCode":"82","stateName":"Sicily","countryId":107,"countryCode":"IT","countryName":"Italy","latitude":"37.10444000","longitude":"15.21172000","wikiDataId":"Q590156"},{"id":137894,"name":"Collesano","stateId":1709,"stateCode":"82","stateName":"Sicily","countryId":107,"countryCode":"IT","countryName":"Italy","latitude":"37.91809000","longitude":"13.93702000","wikiDataId":"Q16542958"},{"id":137942,"name":"Comiso","stateId":1709,"stateCode":"82","stateName":"Sicily","countryId":107,"countryCode":"IT","countryName":"Italy","latitude":"36.94893000","longitude":"14.60731000","wikiDataId":"Q18426684"},{"id":137943,"name":"Comitini","stateId":1709,"stateCode":"82","stateName":"Sicily","countryId":107,"countryCode":"IT","countryName":"Italy","latitude":"37.40735000","longitude":"13.64530000","wikiDataId":"Q18426684"},{"id":137965,"name":"Condrò","stateId":1709,"stateCode":"82","stateName":"Sicily","countryId":107,"countryCode":"IT","countryName":"Italy","latitude":"38.17375000","longitude":"15.32660000","wikiDataId":"Q3685939"},{"id":137977,"name":"Contessa Entellina","stateId":1709,"stateCode":"82","stateName":"Sicily","countryId":107,"countryCode":"IT","countryName":"Italy","latitude":"37.73005000","longitude":"13.18425000","wikiDataId":"Q818317"},{"id":138017,"name":"Corleone","stateId":1709,"stateCode":"82","stateName":"Sicily","countryId":107,"countryCode":"IT","countryName":"Italy","latitude":"37.81338000","longitude":"13.30170000","wikiDataId":"Q18429714"},{"id":138216,"name":"Custonaci","stateId":1709,"stateCode":"82","stateName":"Sicily","countryId":107,"countryCode":"IT","countryName":"Italy","latitude":"38.07931000","longitude":"12.68571000","wikiDataId":"Q3699734"},{"id":138242,"name":"Delia","stateId":1709,"stateCode":"82","stateName":"Sicily","countryId":107,"countryCode":"IT","countryName":"Italy","latitude":"37.35796000","longitude":"13.92867000","wikiDataId":"Q18438304"},{"id":138300,"name":"Donnalucata","stateId":1709,"stateCode":"82","stateName":"Sicily","countryId":107,"countryCode":"IT","countryName":"Italy","latitude":"36.76117000","longitude":"14.64022000","wikiDataId":"Q379107"},{"id":138360,"name":"Enna","stateId":1709,"stateCode":"82","stateName":"Sicily","countryId":107,"countryCode":"IT","countryName":"Italy","latitude":"37.58333000","longitude":"14.43333000","wikiDataId":"Q16166"},{"id":138374,"name":"Erice","stateId":1709,"stateCode":"82","stateName":"Sicily","countryId":107,"countryCode":"IT","countryName":"Italy","latitude":"38.03785000","longitude":"12.58778000","wikiDataId":"Q18490379"},{"id":138389,"name":"Evangelisti-Rubino","stateId":1709,"stateCode":"82","stateName":"Sicily","countryId":107,"countryCode":"IT","countryName":"Italy","latitude":"37.98412000","longitude":"15.17324000","wikiDataId":"Q18462884"},{"id":138417,"name":"Falcone","stateId":1709,"stateCode":"82","stateName":"Sicily","countryId":107,"countryCode":"IT","countryName":"Italy","latitude":"38.11698000","longitude":"15.07965000","wikiDataId":"Q18496478"},{"id":138450,"name":"Faro Superiore","stateId":1709,"stateCode":"82","stateName":"Sicily","countryId":107,"countryCode":"IT","countryName":"Italy","latitude":"38.26794000","longitude":"15.58268000","wikiDataId":"Q2442711"},{"id":138459,"name":"Favara","stateId":1709,"stateCode":"82","stateName":"Sicily","countryId":107,"countryCode":"IT","countryName":"Italy","latitude":"37.31754000","longitude":"13.66226000","wikiDataId":"Q2442711"},{"id":138462,"name":"Favignana","stateId":1709,"stateCode":"82","stateName":"Sicily","countryId":107,"countryCode":"IT","countryName":"Italy","latitude":"37.92951000","longitude":"12.32958000","wikiDataId":"Q18443108"},{"id":138481,"name":"Ferla","stateId":1709,"stateCode":"82","stateName":"Sicily","countryId":107,"countryCode":"IT","countryName":"Italy","latitude":"37.11978000","longitude":"14.93881000","wikiDataId":"Q18498384"},{"id":138503,"name":"Ficarazzi","stateId":1709,"stateCode":"82","stateName":"Sicily","countryId":107,"countryCode":"IT","countryName":"Italy","latitude":"38.09229000","longitude":"13.46390000","wikiDataId":"Q18457570"},{"id":138505,"name":"Ficarra","stateId":1709,"stateCode":"82","stateName":"Sicily","countryId":107,"countryCode":"IT","countryName":"Italy","latitude":"38.10849000","longitude":"14.82990000","wikiDataId":"Q18457570"},{"id":138534,"name":"Finale","stateId":1709,"stateCode":"82","stateName":"Sicily","countryId":107,"countryCode":"IT","countryName":"Italy","latitude":"38.01891000","longitude":"14.16151000","wikiDataId":"Q2156103"},{"id":138551,"name":"Fiumedinisi","stateId":1709,"stateCode":"82","stateName":"Sicily","countryId":107,"countryCode":"IT","countryName":"Italy","latitude":"38.02596000","longitude":"15.38099000","wikiDataId":"Q2530264"},{"id":138553,"name":"Fiumefreddo Sicilia","stateId":1709,"stateCode":"82","stateName":"Sicily","countryId":107,"countryCode":"IT","countryName":"Italy","latitude":"37.79146000","longitude":"15.20919000","wikiDataId":"Q2530264"},{"id":138564,"name":"Floresta","stateId":1709,"stateCode":"82","stateName":"Sicily","countryId":107,"countryCode":"IT","countryName":"Italy","latitude":"37.98779000","longitude":"14.91096000","wikiDataId":"Q2044"},{"id":138565,"name":"Floridia","stateId":1709,"stateCode":"82","stateName":"Sicily","countryId":107,"countryCode":"IT","countryName":"Italy","latitude":"37.08343000","longitude":"15.15332000","wikiDataId":"Q2044"},{"id":138587,"name":"Fondachelli-Fantina","stateId":1709,"stateCode":"82","stateName":"Sicily","countryId":107,"countryCode":"IT","countryName":"Italy","latitude":"37.98476000","longitude":"15.17519000","wikiDataId":"Q3747112"},{"id":138664,"name":"Forza d'Agrò","stateId":1709,"stateCode":"82","stateName":"Sicily","countryId":107,"countryCode":"IT","countryName":"Italy","latitude":"37.91539000","longitude":"15.33409000","wikiDataId":"Q3748429"},{"id":138698,"name":"Francavilla di Sicilia","stateId":1709,"stateCode":"82","stateName":"Sicily","countryId":107,"countryCode":"IT","countryName":"Italy","latitude":"37.90197000","longitude":"15.13821000","wikiDataId":"Q321506"},{"id":138703,"name":"Francofonte","stateId":1709,"stateCode":"82","stateName":"Sicily","countryId":107,"countryCode":"IT","countryName":"Italy","latitude":"37.22477000","longitude":"14.87488000","wikiDataId":"Q18436943"},{"id":138727,"name":"Frazzanò","stateId":1709,"stateCode":"82","stateName":"Sicily","countryId":107,"countryCode":"IT","countryName":"Italy","latitude":"38.07202000","longitude":"14.74407000","wikiDataId":"Q18504170"},{"id":138748,"name":"Fulgatore-Torretta","stateId":1709,"stateCode":"82","stateName":"Sicily","countryId":107,"countryCode":"IT","countryName":"Italy","latitude":"37.94977000","longitude":"12.69303000","wikiDataId":"Q18472303"},{"id":138756,"name":"Furci Siculo","stateId":1709,"stateCode":"82","stateName":"Sicily","countryId":107,"countryCode":"IT","countryName":"Italy","latitude":"37.96159000","longitude":"15.37763000","wikiDataId":"Q3754734"},{"id":138757,"name":"Furnari","stateId":1709,"stateCode":"82","stateName":"Sicily","countryId":107,"countryCode":"IT","countryName":"Italy","latitude":"38.10436000","longitude":"15.12358000","wikiDataId":"Q3754734"},{"id":138775,"name":"Gaggi","stateId":1709,"stateCode":"82","stateName":"Sicily","countryId":107,"countryCode":"IT","countryName":"Italy","latitude":"37.85995000","longitude":"15.22126000","wikiDataId":"Q18490204"},{"id":138782,"name":"Gagliano Castelferrato","stateId":1709,"stateCode":"82","stateName":"Sicily","countryId":107,"countryCode":"IT","countryName":"Italy","latitude":"37.70967000","longitude":"14.53524000","wikiDataId":"Q18441004"},{"id":138794,"name":"Galati Mamertino","stateId":1709,"stateCode":"82","stateName":"Sicily","countryId":107,"countryCode":"IT","countryName":"Italy","latitude":"38.03176000","longitude":"14.77145000","wikiDataId":"Q18449329"},{"id":138819,"name":"Gallodoro","stateId":1709,"stateCode":"82","stateName":"Sicily","countryId":107,"countryCode":"IT","countryName":"Italy","latitude":"37.90206000","longitude":"15.29359000","wikiDataId":"Q18492832"},{"id":138840,"name":"Gangi","stateId":1709,"stateCode":"82","stateName":"Sicily","countryId":107,"countryCode":"IT","countryName":"Italy","latitude":"37.79565000","longitude":"14.20437000","wikiDataId":"Q2161598"},{"id":138889,"name":"Gela","stateId":1709,"stateCode":"82","stateName":"Sicily","countryId":107,"countryCode":"IT","countryName":"Italy","latitude":"37.07381000","longitude":"14.24038000","wikiDataId":"Q18504757"},{"id":138908,"name":"Geraci Siculo","stateId":1709,"stateCode":"82","stateName":"Sicily","countryId":107,"countryCode":"IT","countryName":"Italy","latitude":"37.85901000","longitude":"14.15333000","wikiDataId":"Q18453753"},{"id":138937,"name":"Giacalone","stateId":1709,"stateCode":"82","stateName":"Sicily","countryId":107,"countryCode":"IT","countryName":"Italy","latitude":"38.03276000","longitude":"13.23695000","wikiDataId":"Q3761859"},{"id":138940,"name":"Giammoro","stateId":1709,"stateCode":"82","stateName":"Sicily","countryId":107,"countryCode":"IT","countryName":"Italy","latitude":"38.20372000","longitude":"15.30666000","wikiDataId":"Q3762446"},{"id":138944,"name":"Giardina Gallotti","stateId":1709,"stateCode":"82","stateName":"Sicily","countryId":107,"countryCode":"IT","countryName":"Italy","latitude":"37.35073000","longitude":"13.52272000","wikiDataId":"Q3763793"},{"id":138945,"name":"Giardinello","stateId":1709,"stateCode":"82","stateName":"Sicily","countryId":107,"countryCode":"IT","countryName":"Italy","latitude":"38.08706000","longitude":"13.15648000","wikiDataId":"Q3763793"},{"id":138946,"name":"Giardini-Naxos","stateId":1709,"stateCode":"82","stateName":"Sicily","countryId":107,"countryCode":"IT","countryName":"Italy","latitude":"37.82755000","longitude":"15.26713000","wikiDataId":"Q3763793"},{"id":138948,"name":"Giarratana","stateId":1709,"stateCode":"82","stateName":"Sicily","countryId":107,"countryCode":"IT","countryName":"Italy","latitude":"37.04741000","longitude":"14.79454000","wikiDataId":"Q3763793"},{"id":138949,"name":"Giarre","stateId":1709,"stateCode":"82","stateName":"Sicily","countryId":107,"countryCode":"IT","countryName":"Italy","latitude":"37.72440000","longitude":"15.18165000","wikiDataId":"Q3763793"},{"id":138973,"name":"Gioiosa Marea","stateId":1709,"stateCode":"82","stateName":"Sicily","countryId":107,"countryCode":"IT","countryName":"Italy","latitude":"38.17373000","longitude":"14.89932000","wikiDataId":"Q18486951"},{"id":138989,"name":"Giuliana","stateId":1709,"stateCode":"82","stateName":"Sicily","countryId":107,"countryCode":"IT","countryName":"Italy","latitude":"37.67280000","longitude":"13.23737000","wikiDataId":"Q18503320"},{"id":139004,"name":"Gliaca","stateId":1709,"stateCode":"82","stateName":"Sicily","countryId":107,"countryCode":"IT","countryName":"Italy","latitude":"38.16317000","longitude":"14.84768000","wikiDataId":"Q18463432"},{"id":139010,"name":"Godrano","stateId":1709,"stateCode":"82","stateName":"Sicily","countryId":107,"countryCode":"IT","countryName":"Italy","latitude":"37.90310000","longitude":"13.42823000","wikiDataId":"Q2326372"},{"id":139058,"name":"Grammichele","stateId":1709,"stateCode":"82","stateName":"Sicily","countryId":107,"countryCode":"IT","countryName":"Italy","latitude":"37.21326000","longitude":"14.63311000","wikiDataId":"Q18498460"},{"id":139066,"name":"Graniti","stateId":1709,"stateCode":"82","stateName":"Sicily","countryId":107,"countryCode":"IT","countryName":"Italy","latitude":"37.88986000","longitude":"15.22459000","wikiDataId":"Q2293125"},{"id":139076,"name":"Gratteri","stateId":1709,"stateCode":"82","stateName":"Sicily","countryId":107,"countryCode":"IT","countryName":"Italy","latitude":"37.96607000","longitude":"13.97314000","wikiDataId":"Q2298140"},{"id":139082,"name":"Gravina di Catania","stateId":1709,"stateCode":"82","stateName":"Sicily","countryId":107,"countryCode":"IT","countryName":"Italy","latitude":"37.56085000","longitude":"15.06292000","wikiDataId":"Q18492879"},{"id":139125,"name":"Grotte","stateId":1709,"stateCode":"82","stateName":"Sicily","countryId":107,"countryCode":"IT","countryName":"Italy","latitude":"37.40346000","longitude":"13.69889000","wikiDataId":"Q18468288"},{"id":139149,"name":"Gualtieri Sicaminò","stateId":1709,"stateCode":"82","stateName":"Sicily","countryId":107,"countryCode":"IT","countryName":"Italy","latitude":"38.16267000","longitude":"15.31699000","wikiDataId":"Q18453762"},{"id":139177,"name":"Guidomandri Marina","stateId":1709,"stateCode":"82","stateName":"Sicily","countryId":107,"countryCode":"IT","countryName":"Italy","latitude":"38.04528000","longitude":"15.46303000","wikiDataId":"Q18463487"},{"id":139235,"name":"Isnello","stateId":1709,"stateCode":"82","stateName":"Sicily","countryId":107,"countryCode":"IT","countryName":"Italy","latitude":"37.94324000","longitude":"14.00724000","wikiDataId":"Q18436956"},{"id":139249,"name":"Isola delle Femmine","stateId":1709,"stateCode":"82","stateName":"Sicily","countryId":107,"countryCode":"IT","countryName":"Italy","latitude":"38.19123000","longitude":"13.24691000","wikiDataId":"Q16566532"},{"id":139259,"name":"Ispica","stateId":1709,"stateCode":"82","stateName":"Sicily","countryId":107,"countryCode":"IT","countryName":"Italy","latitude":"36.78622000","longitude":"14.90530000","wikiDataId":"Q18457884"},{"id":139267,"name":"Itala","stateId":1709,"stateCode":"82","stateName":"Sicily","countryId":107,"countryCode":"IT","countryName":"Italy","latitude":"38.05144000","longitude":"15.43706000","wikiDataId":"Q1118172"},{"id":139282,"name":"Joppolo Giancaxio","stateId":1709,"stateCode":"82","stateName":"Sicily","countryId":107,"countryCode":"IT","countryName":"Italy","latitude":"37.38681000","longitude":"13.55586000","wikiDataId":"Q1118172"},{"id":139284,"name":"Kamma","stateId":1709,"stateCode":"82","stateName":"Sicily","countryId":107,"countryCode":"IT","countryName":"Italy","latitude":"36.79701000","longitude":"12.03617000","wikiDataId":"Q18472368"},{"id":139349,"name":"Lampedusa","stateId":1709,"stateCode":"82","stateName":"Sicily","countryId":107,"countryCode":"IT","countryName":"Italy","latitude":"35.50142000","longitude":"12.60964000","wikiDataId":"Q18496588"},{"id":139372,"name":"Larderia","stateId":1709,"stateCode":"82","stateName":"Sicily","countryId":107,"countryCode":"IT","countryName":"Italy","latitude":"38.14101000","longitude":"15.50287000","wikiDataId":"Q3827060"},{"id":139379,"name":"Lascari","stateId":1709,"stateCode":"82","stateName":"Sicily","countryId":107,"countryCode":"IT","countryName":"Italy","latitude":"38.00067000","longitude":"13.94053000","wikiDataId":"Q3827060"},{"id":139416,"name":"Lavinaio-Monterosso","stateId":1709,"stateCode":"82","stateName":"Sicily","countryId":107,"countryCode":"IT","countryName":"Italy","latitude":"37.64097000","longitude":"15.10462000","wikiDataId":"Q18461392"},{"id":139444,"name":"Leni","stateId":1709,"stateCode":"82","stateName":"Sicily","countryId":107,"countryCode":"IT","countryName":"Italy","latitude":"38.55534000","longitude":"14.82497000","wikiDataId":"Q18487625"},{"id":139454,"name":"Lentini","stateId":1709,"stateCode":"82","stateName":"Sicily","countryId":107,"countryCode":"IT","countryName":"Italy","latitude":"37.28556000","longitude":"14.99737000","wikiDataId":"Q18447022"},{"id":139457,"name":"Leonforte","stateId":1709,"stateCode":"82","stateName":"Sicily","countryId":107,"countryCode":"IT","countryName":"Italy","latitude":"37.64197000","longitude":"14.39766000","wikiDataId":"Q18474412"},{"id":139463,"name":"Lercara Friddi","stateId":1709,"stateCode":"82","stateName":"Sicily","countryId":107,"countryCode":"IT","countryName":"Italy","latitude":"37.74657000","longitude":"13.60391000","wikiDataId":"Q18448167"},{"id":139477,"name":"Letojanni","stateId":1709,"stateCode":"82","stateName":"Sicily","countryId":107,"countryCode":"IT","countryName":"Italy","latitude":"37.88050000","longitude":"15.30735000","wikiDataId":"Q3830940"},{"id":139493,"name":"Librizzi","stateId":1709,"stateCode":"82","stateName":"Sicily","countryId":107,"countryCode":"IT","countryName":"Italy","latitude":"38.09719000","longitude":"14.95909000","wikiDataId":"Q384901"},{"id":139494,"name":"Licata","stateId":1709,"stateCode":"82","stateName":"Sicily","countryId":107,"countryCode":"IT","countryName":"Italy","latitude":"37.10267000","longitude":"13.93972000","wikiDataId":"Q384901"},{"id":139498,"name":"Licodia Eubea","stateId":1709,"stateCode":"82","stateName":"Sicily","countryId":107,"countryCode":"IT","countryName":"Italy","latitude":"37.15674000","longitude":"14.70555000","wikiDataId":"Q18437457"},{"id":139522,"name":"Limina","stateId":1709,"stateCode":"82","stateName":"Sicily","countryId":107,"countryCode":"IT","countryName":"Italy","latitude":"37.94076000","longitude":"15.27119000","wikiDataId":"Q18441267"},{"id":139530,"name":"Linera","stateId":1709,"stateCode":"82","stateName":"Sicily","countryId":107,"countryCode":"IT","countryName":"Italy","latitude":"37.66380000","longitude":"15.13653000","wikiDataId":"Q3832885"},{"id":139531,"name":"Linguaglossa","stateId":1709,"stateCode":"82","stateName":"Sicily","countryId":107,"countryCode":"IT","countryName":"Italy","latitude":"37.84243000","longitude":"15.13774000","wikiDataId":"Q3832885"},{"id":139533,"name":"Lipari","stateId":1709,"stateCode":"82","stateName":"Sicily","countryId":107,"countryCode":"IT","countryName":"Italy","latitude":"38.46743000","longitude":"14.95398000","wikiDataId":"Q3832885"},{"id":139595,"name":"Longi","stateId":1709,"stateCode":"82","stateName":"Sicily","countryId":107,"countryCode":"IT","countryName":"Italy","latitude":"38.02617000","longitude":"14.75306000","wikiDataId":"Q18506453"},{"id":139630,"name":"Lucca Sicula","stateId":1709,"stateCode":"82","stateName":"Sicily","countryId":107,"countryCode":"IT","countryName":"Italy","latitude":"37.57783000","longitude":"13.30579000","wikiDataId":"Q18509842"},{"id":139763,"name":"Maletto","stateId":1709,"stateCode":"82","stateName":"Sicily","countryId":107,"countryCode":"IT","countryName":"Italy","latitude":"37.82914000","longitude":"14.86403000","wikiDataId":"Q18437479"},{"id":139764,"name":"Malfa","stateId":1709,"stateCode":"82","stateName":"Sicily","countryId":107,"countryCode":"IT","countryName":"Italy","latitude":"38.57730000","longitude":"14.83598000","wikiDataId":"Q18437479"},{"id":139776,"name":"Malvagna","stateId":1709,"stateCode":"82","stateName":"Sicily","countryId":107,"countryCode":"IT","countryName":"Italy","latitude":"37.91752000","longitude":"15.05548000","wikiDataId":"Q3843959"},{"id":139783,"name":"Mandanici","stateId":1709,"stateCode":"82","stateName":"Sicily","countryId":107,"countryCode":"IT","countryName":"Italy","latitude":"38.00356000","longitude":"15.31669000","wikiDataId":"Q3843959"},{"id":139799,"name":"Maniace","stateId":1709,"stateCode":"82","stateName":"Sicily","countryId":107,"countryCode":"IT","countryName":"Italy","latitude":"37.88306000","longitude":"14.79808000","wikiDataId":"Q18458058"},{"id":139833,"name":"Marausa","stateId":1709,"stateCode":"82","stateName":"Sicily","countryId":107,"countryCode":"IT","countryName":"Italy","latitude":"37.94166000","longitude":"12.50948000","wikiDataId":"Q14224116"},{"id":139869,"name":"Marianopoli","stateId":1709,"stateCode":"82","stateName":"Sicily","countryId":107,"countryCode":"IT","countryName":"Italy","latitude":"37.59840000","longitude":"13.91520000","wikiDataId":"Q18491015"},{"id":139880,"name":"Marina di Caronia","stateId":1709,"stateCode":"82","stateName":"Sicily","countryId":107,"countryCode":"IT","countryName":"Italy","latitude":"38.03545000","longitude":"14.44182000","wikiDataId":"Q3848099"},{"id":139893,"name":"Marina di Ragusa","stateId":1709,"stateCode":"82","stateName":"Sicily","countryId":107,"countryCode":"IT","countryName":"Italy","latitude":"36.78575000","longitude":"14.55474000","wikiDataId":"Q1012515"},{"id":139898,"name":"Marinella","stateId":1709,"stateCode":"82","stateName":"Sicily","countryId":107,"countryCode":"IT","countryName":"Italy","latitude":"37.59475000","longitude":"12.84434000","wikiDataId":"Q3293265"},{"id":139899,"name":"Marineo","stateId":1709,"stateCode":"82","stateName":"Sicily","countryId":107,"countryCode":"IT","countryName":"Italy","latitude":"37.95185000","longitude":"13.41781000","wikiDataId":"Q3293265"},{"id":139919,"name":"Marsala","stateId":1709,"stateCode":"82","stateName":"Sicily","countryId":107,"countryCode":"IT","countryName":"Italy","latitude":"37.79920000","longitude":"12.43670000","wikiDataId":"Q18444890"},{"id":139952,"name":"Mascali","stateId":1709,"stateCode":"82","stateName":"Sicily","countryId":107,"countryCode":"IT","countryName":"Italy","latitude":"37.75794000","longitude":"15.19662000","wikiDataId":"Q18436637"},{"id":139953,"name":"Mascalucia","stateId":1709,"stateCode":"82","stateName":"Sicily","countryId":107,"countryCode":"IT","countryName":"Italy","latitude":"37.57465000","longitude":"15.04964000","wikiDataId":"Q18436637"},{"id":140002,"name":"Maugeri","stateId":1709,"stateCode":"82","stateName":"Sicily","countryId":107,"countryCode":"IT","countryName":"Italy","latitude":"37.58608000","longitude":"15.11785000","wikiDataId":"Q18461421"},{"id":140004,"name":"Mazara del Vallo","stateId":1709,"stateCode":"82","stateName":"Sicily","countryId":107,"countryCode":"IT","countryName":"Italy","latitude":"37.65535000","longitude":"12.58986000","wikiDataId":"Q3853218"},{"id":140003,"name":"Mazara II","stateId":1709,"stateCode":"82","stateName":"Sicily","countryId":107,"countryCode":"IT","countryName":"Italy","latitude":"37.68146000","longitude":"12.60074000","wikiDataId":"Q3853218"},{"id":140007,"name":"Mazzarino","stateId":1709,"stateCode":"82","stateName":"Sicily","countryId":107,"countryCode":"IT","countryName":"Italy","latitude":"37.30188000","longitude":"14.20959000","wikiDataId":"Q3853218"},{"id":140009,"name":"Mazzarrà Sant'Andrea","stateId":1709,"stateCode":"82","stateName":"Sicily","countryId":107,"countryCode":"IT","countryName":"Italy","latitude":"38.08969000","longitude":"15.13535000","wikiDataId":"Q3853218"},{"id":140008,"name":"Mazzarrone","stateId":1709,"stateCode":"82","stateName":"Sicily","countryId":107,"countryCode":"IT","countryName":"Italy","latitude":"37.08834000","longitude":"14.56128000","wikiDataId":"Q3853218"},{"id":140044,"name":"Melia","stateId":1709,"stateCode":"82","stateName":"Sicily","countryId":107,"countryCode":"IT","countryName":"Italy","latitude":"37.90384000","longitude":"15.27499000","wikiDataId":"Q18464144"},{"id":140047,"name":"Melilli","stateId":1709,"stateCode":"82","stateName":"Sicily","countryId":107,"countryCode":"IT","countryName":"Italy","latitude":"37.17821000","longitude":"15.13020000","wikiDataId":"Q18464144"},{"id":140064,"name":"Menfi","stateId":1709,"stateCode":"82","stateName":"Sicily","countryId":107,"countryCode":"IT","countryName":"Italy","latitude":"37.60409000","longitude":"12.96889000","wikiDataId":"Q18464144"},{"id":140090,"name":"Merì","stateId":1709,"stateCode":"82","stateName":"Sicily","countryId":107,"countryCode":"IT","countryName":"Italy","latitude":"38.16630000","longitude":"15.24970000","wikiDataId":"Q18452163"},{"id":140098,"name":"Messina","stateId":1709,"stateCode":"82","stateName":"Sicily","countryId":107,"countryCode":"IT","countryName":"Italy","latitude":"38.05000000","longitude":"14.86667000","wikiDataId":"Q20991250"},{"id":140120,"name":"Mezzojuso","stateId":1709,"stateCode":"82","stateName":"Sicily","countryId":107,"countryCode":"IT","countryName":"Italy","latitude":"37.86509000","longitude":"13.46509000","wikiDataId":"Q18439485"},{"id":140145,"name":"Milazzo","stateId":1709,"stateCode":"82","stateName":"Sicily","countryId":107,"countryCode":"IT","countryName":"Italy","latitude":"38.22008000","longitude":"15.24023000","wikiDataId":"Q18443739"},{"id":140146,"name":"Milena","stateId":1709,"stateCode":"82","stateName":"Sicily","countryId":107,"countryCode":"IT","countryName":"Italy","latitude":"37.47133000","longitude":"13.73613000","wikiDataId":"Q18443739"},{"id":140150,"name":"Militello in Val di Catania","stateId":1709,"stateCode":"82","stateName":"Sicily","countryId":107,"countryCode":"IT","countryName":"Italy","latitude":"37.27594000","longitude":"14.79342000","wikiDataId":"Q18443739"},{"id":140149,"name":"Militello Rosmarino","stateId":1709,"stateCode":"82","stateName":"Sicily","countryId":107,"countryCode":"IT","countryName":"Italy","latitude":"38.04575000","longitude":"14.67584000","wikiDataId":"Q18443739"},{"id":140153,"name":"Milo","stateId":1709,"stateCode":"82","stateName":"Sicily","countryId":107,"countryCode":"IT","countryName":"Italy","latitude":"37.72450000","longitude":"15.11554000","wikiDataId":"Q18491592"},{"id":140156,"name":"Mineo","stateId":1709,"stateCode":"82","stateName":"Sicily","countryId":107,"countryCode":"IT","countryName":"Italy","latitude":"37.26494000","longitude":"14.69381000","wikiDataId":"Q18499364"},{"id":140168,"name":"Mirabella Imbaccari","stateId":1709,"stateCode":"82","stateName":"Sicily","countryId":107,"countryCode":"IT","countryName":"Italy","latitude":"37.32702000","longitude":"14.44605000","wikiDataId":"Q3858689"},{"id":140177,"name":"Mirto","stateId":1709,"stateCode":"82","stateName":"Sicily","countryId":107,"countryCode":"IT","countryName":"Italy","latitude":"38.08439000","longitude":"14.74609000","wikiDataId":"Q18429947"},{"id":140180,"name":"Misilmeri","stateId":1709,"stateCode":"82","stateName":"Sicily","countryId":107,"countryCode":"IT","countryName":"Italy","latitude":"38.03183000","longitude":"13.44795000","wikiDataId":"Q18429947"},{"id":140184,"name":"Misterbianco","stateId":1709,"stateCode":"82","stateName":"Sicily","countryId":107,"countryCode":"IT","countryName":"Italy","latitude":"37.51803000","longitude":"15.00913000","wikiDataId":"Q18429947"},{"id":140185,"name":"Mistretta","stateId":1709,"stateCode":"82","stateName":"Sicily","countryId":107,"countryCode":"IT","countryName":"Italy","latitude":"37.92823000","longitude":"14.35780000","wikiDataId":"Q18429947"},{"id":140189,"name":"Modica","stateId":1709,"stateCode":"82","stateName":"Sicily","countryId":107,"countryCode":"IT","countryName":"Italy","latitude":"36.85868000","longitude":"14.75966000","wikiDataId":"Q18458159"},{"id":140205,"name":"Moio Alcantara","stateId":1709,"stateCode":"82","stateName":"Sicily","countryId":107,"countryCode":"IT","countryName":"Italy","latitude":"37.90056000","longitude":"15.05072000","wikiDataId":"Q2243749"},{"id":140280,"name":"Monforte San Giorgio","stateId":1709,"stateCode":"82","stateName":"Sicily","countryId":107,"countryCode":"IT","countryName":"Italy","latitude":"38.15733000","longitude":"15.38132000","wikiDataId":"Q30027673"},{"id":140287,"name":"Mongiuffi Melia","stateId":1709,"stateCode":"82","stateName":"Sicily","countryId":107,"countryCode":"IT","countryName":"Italy","latitude":"37.90336000","longitude":"15.27539000","wikiDataId":"Q30027673"},{"id":140297,"name":"Monreale","stateId":1709,"stateCode":"82","stateName":"Sicily","countryId":107,"countryCode":"IT","countryName":"Italy","latitude":"38.08125000","longitude":"13.28947000","wikiDataId":"Q1985002"},{"id":140311,"name":"Montagnareale","stateId":1709,"stateCode":"82","stateName":"Sicily","countryId":107,"countryCode":"IT","countryName":"Italy","latitude":"38.13216000","longitude":"14.94658000","wikiDataId":"Q1985002"},{"id":140317,"name":"Montalbano Elicona","stateId":1709,"stateCode":"82","stateName":"Sicily","countryId":107,"countryCode":"IT","countryName":"Italy","latitude":"38.02360000","longitude":"15.01393000","wikiDataId":"Q3861105"},{"id":140329,"name":"Montallegro","stateId":1709,"stateCode":"82","stateName":"Sicily","countryId":107,"countryCode":"IT","countryName":"Italy","latitude":"37.39121000","longitude":"13.35179000","wikiDataId":"Q2802661"},{"id":140428,"name":"Montedoro","stateId":1709,"stateCode":"82","stateName":"Sicily","countryId":107,"countryCode":"IT","countryName":"Italy","latitude":"37.45431000","longitude":"13.81684000","wikiDataId":"Q18436663"},{"id":140473,"name":"Montelepre","stateId":1709,"stateCode":"82","stateName":"Sicily","countryId":107,"countryCode":"IT","countryName":"Italy","latitude":"38.09026000","longitude":"13.17518000","wikiDataId":"Q18454897"},{"id":140483,"name":"Montemaggiore Belsito","stateId":1709,"stateCode":"82","stateName":"Sicily","countryId":107,"countryCode":"IT","countryName":"Italy","latitude":"37.84818000","longitude":"13.76206000","wikiDataId":"Q18443845"},{"id":140522,"name":"Monterosso Almo","stateId":1709,"stateCode":"82","stateName":"Sicily","countryId":107,"countryCode":"IT","countryName":"Italy","latitude":"37.08884000","longitude":"14.76498000","wikiDataId":"Q18426821"},{"id":140546,"name":"Montevago","stateId":1709,"stateCode":"82","stateName":"Sicily","countryId":107,"countryCode":"IT","countryName":"Italy","latitude":"37.70224000","longitude":"12.98584000","wikiDataId":"Q18487695"},{"id":140657,"name":"Motta Camastra","stateId":1709,"stateCode":"82","stateName":"Sicily","countryId":107,"countryCode":"IT","countryName":"Italy","latitude":"37.89431000","longitude":"15.17008000","wikiDataId":"Q18506582"},{"id":140664,"name":"Motta d'Affermo","stateId":1709,"stateCode":"82","stateName":"Sicily","countryId":107,"countryCode":"IT","countryName":"Italy","latitude":"37.98096000","longitude":"14.30337000","wikiDataId":"Q18506582"},{"id":140661,"name":"Motta Sant'Anastasia","stateId":1709,"stateCode":"82","stateName":"Sicily","countryId":107,"countryCode":"IT","countryName":"Italy","latitude":"37.51205000","longitude":"14.96628000","wikiDataId":"Q18506582"},{"id":140704,"name":"Mussomeli","stateId":1709,"stateCode":"82","stateName":"Sicily","countryId":107,"countryCode":"IT","countryName":"Italy","latitude":"37.58067000","longitude":"13.75214000","wikiDataId":"Q3868493"},{"id":140721,"name":"Naro","stateId":1709,"stateCode":"82","stateName":"Sicily","countryId":107,"countryCode":"IT","countryName":"Italy","latitude":"37.29248000","longitude":"13.79337000","wikiDataId":"Q18494864"},{"id":140724,"name":"Naso","stateId":1709,"stateCode":"82","stateName":"Sicily","countryId":107,"countryCode":"IT","countryName":"Italy","latitude":"38.12215000","longitude":"14.78702000","wikiDataId":"Q18462064"},{"id":140763,"name":"Nicolosi","stateId":1709,"stateCode":"82","stateName":"Sicily","countryId":107,"countryCode":"IT","countryName":"Italy","latitude":"37.62148000","longitude":"15.02785000","wikiDataId":"Q2257438"},{"id":140765,"name":"Nicosia","stateId":1709,"stateCode":"82","stateName":"Sicily","countryId":107,"countryCode":"IT","countryName":"Italy","latitude":"37.74747000","longitude":"14.39218000","wikiDataId":"Q2257438"},{"id":140771,"name":"Niscemi","stateId":1709,"stateCode":"82","stateName":"Sicily","countryId":107,"countryCode":"IT","countryName":"Italy","latitude":"37.14649000","longitude":"14.39381000","wikiDataId":"Q18475265"},{"id":140772,"name":"Nissoria","stateId":1709,"stateCode":"82","stateName":"Sicily","countryId":107,"countryCode":"IT","countryName":"Italy","latitude":"37.65410000","longitude":"14.44810000","wikiDataId":"Q18475265"},{"id":140775,"name":"Nizza di Sicilia","stateId":1709,"stateCode":"82","stateName":"Sicily","countryId":107,"countryCode":"IT","countryName":"Italy","latitude":"37.99081000","longitude":"15.40956000","wikiDataId":"Q18445016"},{"id":140812,"name":"Noto","stateId":1709,"stateCode":"82","stateName":"Sicily","countryId":107,"countryCode":"IT","countryName":"Italy","latitude":"36.89244000","longitude":"15.06977000","wikiDataId":"Q3878603"},{"id":140823,"name":"Novara di Sicilia","stateId":1709,"stateCode":"82","stateName":"Sicily","countryId":107,"countryCode":"IT","countryName":"Italy","latitude":"38.01538000","longitude":"15.13134000","wikiDataId":"Q18509753"},{"id":140848,"name":"Nunziata","stateId":1709,"stateCode":"82","stateName":"Sicily","countryId":107,"countryCode":"IT","countryName":"Italy","latitude":"37.75858000","longitude":"15.17058000","wikiDataId":"Q2529258"},{"id":140851,"name":"Nuova Gibellina","stateId":1709,"stateCode":"82","stateName":"Sicily","countryId":107,"countryCode":"IT","countryName":"Italy","latitude":"37.80704000","longitude":"12.86954000","wikiDataId":"Q18472664"},{"id":140852,"name":"Nuovo Centro Urbano Poggioreale","stateId":1709,"stateCode":"82","stateName":"Sicily","countryId":107,"countryCode":"IT","countryName":"Italy","latitude":"37.76404000","longitude":"13.03594000","wikiDataId":"Q18509833"},{"id":140900,"name":"Oliveri","stateId":1709,"stateCode":"82","stateName":"Sicily","countryId":107,"countryCode":"IT","countryName":"Italy","latitude":"38.12515000","longitude":"15.06068000","wikiDataId":"Q18448462"},{"id":141068,"name":"Pace del Mela","stateId":1709,"stateCode":"82","stateName":"Sicily","countryId":107,"countryCode":"IT","countryName":"Italy","latitude":"38.17997000","longitude":"15.30629000","wikiDataId":"Q18442909"},{"id":141069,"name":"Paceco","stateId":1709,"stateCode":"82","stateName":"Sicily","countryId":107,"countryCode":"IT","countryName":"Italy","latitude":"37.98026000","longitude":"12.55766000","wikiDataId":"Q18442909"},{"id":141071,"name":"Pachino","stateId":1709,"stateCode":"82","stateName":"Sicily","countryId":107,"countryCode":"IT","countryName":"Italy","latitude":"36.71522000","longitude":"15.09019000","wikiDataId":"Q18442909"},{"id":58204,"name":"Pagliara","stateId":1709,"stateCode":"82","stateName":"Sicily","countryId":107,"countryCode":"IT","countryName":"Italy","latitude":"37.98546000","longitude":"15.35969000","wikiDataId":""},{"id":58221,"name":"Palagonia","stateId":1709,"stateCode":"82","stateName":"Sicily","countryId":107,"countryCode":"IT","countryName":"Italy","latitude":"37.32955000","longitude":"14.74474000","wikiDataId":"Q18437567"},{"id":58228,"name":"Palazzo Adriano","stateId":1709,"stateCode":"82","stateName":"Sicily","countryId":107,"countryCode":"IT","countryName":"Italy","latitude":"37.68066000","longitude":"13.37941000","wikiDataId":"Q3889493"},{"id":58232,"name":"Palazzolo","stateId":1709,"stateCode":"82","stateName":"Sicily","countryId":107,"countryCode":"IT","countryName":"Italy","latitude":"37.56224000","longitude":"14.92987000","wikiDataId":"Q18461454"},{"id":58233,"name":"Palazzolo Acreide","stateId":1709,"stateCode":"82","stateName":"Sicily","countryId":107,"countryCode":"IT","countryName":"Italy","latitude":"37.06261000","longitude":"14.90593000","wikiDataId":"Q18461454"},{"id":58240,"name":"Palermo","stateId":1709,"stateCode":"82","stateName":"Sicily","countryId":107,"countryCode":"IT","countryName":"Italy","latitude":"37.81667000","longitude":"13.58333000","wikiDataId":"Q20795016"},{"id":58254,"name":"Palma di Montechiaro","stateId":1709,"stateCode":"82","stateName":"Sicily","countryId":107,"countryCode":"IT","countryName":"Italy","latitude":"37.19066000","longitude":"13.76603000","wikiDataId":"Q18489720"},{"id":58284,"name":"Pantelleria","stateId":1709,"stateCode":"82","stateName":"Sicily","countryId":107,"countryCode":"IT","countryName":"Italy","latitude":"36.82836000","longitude":"11.94611000","wikiDataId":"Q18493322"},{"id":58316,"name":"Partanna","stateId":1709,"stateCode":"82","stateName":"Sicily","countryId":107,"countryCode":"IT","countryName":"Italy","latitude":"37.72680000","longitude":"12.88917000","wikiDataId":"Q2703485"},{"id":58317,"name":"Partinico","stateId":1709,"stateCode":"82","stateName":"Sicily","countryId":107,"countryCode":"IT","countryName":"Italy","latitude":"38.04657000","longitude":"13.11785000","wikiDataId":"Q2703485"},{"id":58338,"name":"Pasteria-Lapide","stateId":1709,"stateCode":"82","stateName":"Sicily","countryId":107,"countryCode":"IT","countryName":"Italy","latitude":"37.81012000","longitude":"15.22818000","wikiDataId":"Q18461464"},{"id":58346,"name":"Paternò","stateId":1709,"stateCode":"82","stateName":"Sicily","countryId":107,"countryCode":"IT","countryName":"Italy","latitude":"37.56675000","longitude":"14.90254000","wikiDataId":"Q18461464"},{"id":58350,"name":"Patti","stateId":1709,"stateCode":"82","stateName":"Sicily","countryId":107,"countryCode":"IT","countryName":"Italy","latitude":"38.14736000","longitude":"14.96409000","wikiDataId":"Q18489737"},{"id":58373,"name":"Pedagaggi","stateId":1709,"stateCode":"82","stateName":"Sicily","countryId":107,"countryCode":"IT","countryName":"Italy","latitude":"37.19182000","longitude":"14.93654000","wikiDataId":"Q770694"},{"id":58374,"name":"Pedalino","stateId":1709,"stateCode":"82","stateName":"Sicily","countryId":107,"countryCode":"IT","countryName":"Italy","latitude":"37.02320000","longitude":"14.58116000","wikiDataId":"Q2232790"},{"id":58375,"name":"Pedara","stateId":1709,"stateCode":"82","stateName":"Sicily","countryId":107,"countryCode":"IT","countryName":"Italy","latitude":"37.62386000","longitude":"15.05672000","wikiDataId":"Q2232790"},{"id":58409,"name":"Pennisi","stateId":1709,"stateCode":"82","stateName":"Sicily","countryId":107,"countryCode":"IT","countryName":"Italy","latitude":"37.64945000","longitude":"15.12385000","wikiDataId":"Q2513042"},{"id":58477,"name":"Petralia Soprana","stateId":1709,"stateCode":"82","stateName":"Sicily","countryId":107,"countryCode":"IT","countryName":"Italy","latitude":"37.80064000","longitude":"14.10813000","wikiDataId":"Q18495770"},{"id":58478,"name":"Petralia Sottana","stateId":1709,"stateCode":"82","stateName":"Sicily","countryId":107,"countryCode":"IT","countryName":"Italy","latitude":"37.80919000","longitude":"14.09293000","wikiDataId":"Q18495770"},{"id":58487,"name":"Petrosino","stateId":1709,"stateCode":"82","stateName":"Sicily","countryId":107,"countryCode":"IT","countryName":"Italy","latitude":"37.71271000","longitude":"12.49964000","wikiDataId":"Q775778"},{"id":58491,"name":"Pettineo","stateId":1709,"stateCode":"82","stateName":"Sicily","countryId":107,"countryCode":"IT","countryName":"Italy","latitude":"37.96793000","longitude":"14.29118000","wikiDataId":"Q775778"},{"id":58514,"name":"Piana degli Albanesi","stateId":1709,"stateCode":"82","stateName":"Sicily","countryId":107,"countryCode":"IT","countryName":"Italy","latitude":"37.99372000","longitude":"13.28464000","wikiDataId":"Q18444055"},{"id":58540,"name":"Piano dei Geli","stateId":1709,"stateCode":"82","stateName":"Sicily","countryId":107,"countryCode":"IT","countryName":"Italy","latitude":"38.09919000","longitude":"13.27478000","wikiDataId":"Q18468522"},{"id":58539,"name":"Piano Maglio-Blandino","stateId":1709,"stateCode":"82","stateName":"Sicily","countryId":107,"countryCode":"IT","countryName":"Italy","latitude":"38.05793000","longitude":"13.30909000","wikiDataId":"Q18468528"},{"id":58547,"name":"Pianoconte","stateId":1709,"stateCode":"82","stateName":"Sicily","countryId":107,"countryCode":"IT","countryName":"Italy","latitude":"38.47432000","longitude":"14.92857000","wikiDataId":"Q18464887"},{"id":58565,"name":"Piazza Armerina","stateId":1709,"stateCode":"82","stateName":"Sicily","countryId":107,"countryCode":"IT","countryName":"Italy","latitude":"37.38417000","longitude":"14.36921000","wikiDataId":"Q18440138"},{"id":58589,"name":"Piedimonte Etneo","stateId":1709,"stateCode":"82","stateName":"Sicily","countryId":107,"countryCode":"IT","countryName":"Italy","latitude":"37.80677000","longitude":"15.17516000","wikiDataId":"Q18436693"},{"id":58622,"name":"Pietraperzia","stateId":1709,"stateCode":"82","stateName":"Sicily","countryId":107,"countryCode":"IT","countryName":"Italy","latitude":"37.41852000","longitude":"14.13739000","wikiDataId":"Q18481879"},{"id":58692,"name":"Pioppo","stateId":1709,"stateCode":"82","stateName":"Sicily","countryId":107,"countryCode":"IT","countryName":"Italy","latitude":"38.05000000","longitude":"13.23333000","wikiDataId":"Q18468538"},{"id":58701,"name":"Piraino","stateId":1709,"stateCode":"82","stateName":"Sicily","countryId":107,"countryCode":"IT","countryName":"Italy","latitude":"38.16127000","longitude":"14.86100000","wikiDataId":"Q18468538"},{"id":58794,"name":"Polizzi Generosa","stateId":1709,"stateCode":"82","stateName":"Sicily","countryId":107,"countryCode":"IT","countryName":"Italy","latitude":"37.81159000","longitude":"14.00268000","wikiDataId":"Q610420"},{"id":58800,"name":"Pollina","stateId":1709,"stateCode":"82","stateName":"Sicily","countryId":107,"countryCode":"IT","countryName":"Italy","latitude":"37.99309000","longitude":"14.14586000","wikiDataId":"Q610420"},{"id":58916,"name":"Portella di Mare","stateId":1709,"stateCode":"82","stateName":"Sicily","countryId":107,"countryCode":"IT","countryName":"Italy","latitude":"38.07304000","longitude":"13.46199000","wikiDataId":"Q3453318"},{"id":58928,"name":"Porto Empedocle","stateId":1709,"stateCode":"82","stateName":"Sicily","countryId":107,"countryCode":"IT","countryName":"Italy","latitude":"37.28942000","longitude":"13.52494000","wikiDataId":"Q3909148"},{"id":58948,"name":"Portopalo di Capo Passero","stateId":1709,"stateCode":"82","stateName":"Sicily","countryId":107,"countryCode":"IT","countryName":"Italy","latitude":"36.68219000","longitude":"15.13378000","wikiDataId":"Q3909190"},{"id":58979,"name":"Pozzallo","stateId":1709,"stateCode":"82","stateName":"Sicily","countryId":107,"countryCode":"IT","countryName":"Italy","latitude":"36.73028000","longitude":"14.84672000","wikiDataId":"Q18487279"},{"id":59081,"name":"Priolo Gargallo","stateId":1709,"stateCode":"82","stateName":"Sicily","countryId":107,"countryCode":"IT","countryName":"Italy","latitude":"37.15512000","longitude":"15.18248000","wikiDataId":"Q18441538"},{"id":59084,"name":"Prizzi","stateId":1709,"stateCode":"82","stateName":"Sicily","countryId":107,"countryCode":"IT","countryName":"Italy","latitude":"37.72088000","longitude":"13.43435000","wikiDataId":"Q18502256"},{"id":59120,"name":"Provincia di Caltanissetta","stateId":1709,"stateCode":"82","stateName":"Sicily","countryId":107,"countryCode":"IT","countryName":"Italy","latitude":"37.37448000","longitude":"14.06421000","wikiDataId":"Q16150"},{"id":59176,"name":"Provincia di Siracusa","stateId":1709,"stateCode":"82","stateName":"Sicily","countryId":107,"countryCode":"IT","countryName":"Italy","latitude":"37.08805000","longitude":"15.27924000","wikiDataId":"Q16277"},{"id":59256,"name":"Racalmuto","stateId":1709,"stateCode":"82","stateName":"Sicily","countryId":107,"countryCode":"IT","countryName":"Italy","latitude":"37.40498000","longitude":"13.72995000","wikiDataId":"Q18476108"},{"id":59258,"name":"Raccuja","stateId":1709,"stateCode":"82","stateName":"Sicily","countryId":107,"countryCode":"IT","countryName":"Italy","latitude":"38.05583000","longitude":"14.91044000","wikiDataId":"Q18476108"},{"id":59262,"name":"Raddusa","stateId":1709,"stateCode":"82","stateName":"Sicily","countryId":107,"countryCode":"IT","countryName":"Italy","latitude":"37.47529000","longitude":"14.53521000","wikiDataId":"Q18476118"},{"id":59266,"name":"Raffadali","stateId":1709,"stateCode":"82","stateName":"Sicily","countryId":107,"countryCode":"IT","countryName":"Italy","latitude":"37.40214000","longitude":"13.53175000","wikiDataId":"Q18509654"},{"id":59267,"name":"Ragalna","stateId":1709,"stateCode":"82","stateName":"Sicily","countryId":107,"countryCode":"IT","countryName":"Italy","latitude":"37.63455000","longitude":"14.94698000","wikiDataId":"Q18509654"},{"id":59269,"name":"Ragusa","stateId":1709,"stateCode":"82","stateName":"Sicily","countryId":107,"countryCode":"IT","countryName":"Italy","latitude":"36.91667000","longitude":"14.60000000","wikiDataId":"Q16251"},{"id":59272,"name":"Ramacca","stateId":1709,"stateCode":"82","stateName":"Sicily","countryId":107,"countryCode":"IT","countryName":"Italy","latitude":"37.38616000","longitude":"14.69241000","wikiDataId":"Q18505445"},{"id":59280,"name":"Randazzo","stateId":1709,"stateCode":"82","stateName":"Sicily","countryId":107,"countryCode":"IT","countryName":"Italy","latitude":"37.87736000","longitude":"14.95012000","wikiDataId":"Q2362876"},{"id":59295,"name":"Ravanusa","stateId":1709,"stateCode":"82","stateName":"Sicily","countryId":107,"countryCode":"IT","countryName":"Italy","latitude":"37.26659000","longitude":"13.96834000","wikiDataId":"Q18449036"},{"id":59305,"name":"Realmonte","stateId":1709,"stateCode":"82","stateName":"Sicily","countryId":107,"countryCode":"IT","countryName":"Italy","latitude":"37.30847000","longitude":"13.46429000","wikiDataId":"Q3930585"},{"id":59318,"name":"Regalbuto","stateId":1709,"stateCode":"82","stateName":"Sicily","countryId":107,"countryCode":"IT","countryName":"Italy","latitude":"37.65195000","longitude":"14.63915000","wikiDataId":"Q18452463"},{"id":59326,"name":"Reitano","stateId":1709,"stateCode":"82","stateName":"Sicily","countryId":107,"countryCode":"IT","countryName":"Italy","latitude":"37.97198000","longitude":"14.34418000","wikiDataId":"Q18455762"},{"id":59337,"name":"Resuttano","stateId":1709,"stateCode":"82","stateName":"Sicily","countryId":107,"countryCode":"IT","countryName":"Italy","latitude":"37.67865000","longitude":"14.02946000","wikiDataId":"Q18439645"},{"id":59359,"name":"Ribera","stateId":1709,"stateCode":"82","stateName":"Sicily","countryId":107,"countryCode":"IT","countryName":"Italy","latitude":"37.49773000","longitude":"13.26676000","wikiDataId":"Q3934207"},{"id":59373,"name":"Riesi","stateId":1709,"stateCode":"82","stateName":"Sicily","countryId":107,"countryCode":"IT","countryName":"Italy","latitude":"37.28079000","longitude":"14.08317000","wikiDataId":"Q18510359"},{"id":59381,"name":"Rilievo","stateId":1709,"stateCode":"82","stateName":"Sicily","countryId":107,"countryCode":"IT","countryName":"Italy","latitude":"37.91638000","longitude":"12.54058000","wikiDataId":"Q18472918"},{"id":59412,"name":"Riposto","stateId":1709,"stateCode":"82","stateName":"Sicily","countryId":107,"countryCode":"IT","countryName":"Italy","latitude":"37.73183000","longitude":"15.20576000","wikiDataId":"Q124763"},{"id":59485,"name":"Rocca di Capri Leone","stateId":1709,"stateCode":"82","stateName":"Sicily","countryId":107,"countryCode":"IT","countryName":"Italy","latitude":"38.10677000","longitude":"14.71032000","wikiDataId":"Q18465261"},{"id":59496,"name":"Roccafiorita","stateId":1709,"stateCode":"82","stateName":"Sicily","countryId":107,"countryCode":"IT","countryName":"Italy","latitude":"37.93086000","longitude":"15.26739000","wikiDataId":"Q18426950"},{"id":59506,"name":"Roccalumera","stateId":1709,"stateCode":"82","stateName":"Sicily","countryId":107,"countryCode":"IT","countryName":"Italy","latitude":"37.97554000","longitude":"15.39439000","wikiDataId":"Q18426950"},{"id":59508,"name":"Roccamena","stateId":1709,"stateCode":"82","stateName":"Sicily","countryId":107,"countryCode":"IT","countryName":"Italy","latitude":"37.83824000","longitude":"13.15513000","wikiDataId":"Q18426950"},{"id":59513,"name":"Roccapalumba","stateId":1709,"stateCode":"82","stateName":"Sicily","countryId":107,"countryCode":"IT","countryName":"Italy","latitude":"37.80825000","longitude":"13.63671000","wikiDataId":"Q18426950"},{"id":59526,"name":"Roccavaldina","stateId":1709,"stateCode":"82","stateName":"Sicily","countryId":107,"countryCode":"IT","countryName":"Italy","latitude":"38.18296000","longitude":"15.37402000","wikiDataId":"Q18425438"},{"id":59533,"name":"Roccella Valdemone","stateId":1709,"stateCode":"82","stateName":"Sicily","countryId":107,"countryCode":"IT","countryName":"Italy","latitude":"37.93289000","longitude":"15.00997000","wikiDataId":"Q3939514"},{"id":59555,"name":"Rodì","stateId":1709,"stateCode":"82","stateName":"Sicily","countryId":107,"countryCode":"IT","countryName":"Italy","latitude":"38.10823000","longitude":"15.16933000","wikiDataId":"Q18476450"},{"id":59585,"name":"Rometta","stateId":1709,"stateCode":"82","stateName":"Sicily","countryId":107,"countryCode":"IT","countryName":"Italy","latitude":"38.17007000","longitude":"15.41429000","wikiDataId":"Q3940648"},{"id":59586,"name":"Rometta Marea","stateId":1709,"stateCode":"82","stateName":"Sicily","countryId":107,"countryCode":"IT","countryName":"Italy","latitude":"38.23264000","longitude":"15.40955000","wikiDataId":"Q18465347"},{"id":59643,"name":"Rosolini","stateId":1709,"stateCode":"82","stateName":"Sicily","countryId":107,"countryCode":"IT","countryName":"Italy","latitude":"36.82145000","longitude":"14.95132000","wikiDataId":"Q1064088"},{"id":59747,"name":"Salaparuta","stateId":1709,"stateCode":"82","stateName":"Sicily","countryId":107,"countryCode":"IT","countryName":"Italy","latitude":"37.75694000","longitude":"13.00981000","wikiDataId":"Q3945239"},{"id":59758,"name":"Salemi","stateId":1709,"stateCode":"82","stateName":"Sicily","countryId":107,"countryCode":"IT","countryName":"Italy","latitude":"37.82199000","longitude":"12.80506000","wikiDataId":"Q3945239"},{"id":59805,"name":"Sambuca di Sicilia","stateId":1709,"stateCode":"82","stateName":"Sicily","countryId":107,"countryCode":"IT","countryName":"Italy","latitude":"37.65294000","longitude":"13.11462000","wikiDataId":"Q3946445"},{"id":59841,"name":"San Biagio Platani","stateId":1709,"stateCode":"82","stateName":"Sicily","countryId":107,"countryCode":"IT","countryName":"Italy","latitude":"37.50927000","longitude":"13.52844000","wikiDataId":"Q18496109"},{"id":59862,"name":"San Cataldo","stateId":1709,"stateCode":"82","stateName":"Sicily","countryId":107,"countryCode":"IT","countryName":"Italy","latitude":"37.48412000","longitude":"13.98542000","wikiDataId":"Q18436722"},{"id":59868,"name":"San Cipirello","stateId":1709,"stateCode":"82","stateName":"Sicily","countryId":107,"countryCode":"IT","countryName":"Italy","latitude":"37.96067000","longitude":"13.17732000","wikiDataId":"Q18436722"},{"id":59873,"name":"San Ciro-Ulmi-Filci","stateId":1709,"stateCode":"82","stateName":"Sicily","countryId":107,"countryCode":"IT","countryName":"Italy","latitude":"37.83328000","longitude":"12.78229000","wikiDataId":"Q18472954"},{"id":59878,"name":"San Cono","stateId":1709,"stateCode":"82","stateName":"Sicily","countryId":107,"countryCode":"IT","countryName":"Italy","latitude":"37.28992000","longitude":"14.36709000","wikiDataId":"Q18436724"},{"id":59919,"name":"San Filippo del Mela","stateId":1709,"stateCode":"82","stateName":"Sicily","countryId":107,"countryCode":"IT","countryName":"Italy","latitude":"38.17007000","longitude":"15.27338000","wikiDataId":"Q18498768"},{"id":59928,"name":"San Fratello","stateId":1709,"stateCode":"82","stateName":"Sicily","countryId":107,"countryCode":"IT","countryName":"Italy","latitude":"38.01556000","longitude":"14.59818000","wikiDataId":"Q18487343"},{"id":59951,"name":"San Giorgio","stateId":1709,"stateCode":"82","stateName":"Sicily","countryId":107,"countryCode":"IT","countryName":"Italy","latitude":"38.16834000","longitude":"14.94825000","wikiDataId":"Q18465578"},{"id":59979,"name":"San Giovanni","stateId":1709,"stateCode":"82","stateName":"Sicily","countryId":107,"countryCode":"IT","countryName":"Italy","latitude":"37.73538000","longitude":"15.15887000","wikiDataId":"Q2559022"},{"id":59983,"name":"San Giovanni Gemini","stateId":1709,"stateCode":"82","stateName":"Sicily","countryId":107,"countryCode":"IT","countryName":"Italy","latitude":"37.62785000","longitude":"13.64357000","wikiDataId":"Q18462847"},{"id":60001,"name":"San Giovanni la Punta","stateId":1709,"stateCode":"82","stateName":"Sicily","countryId":107,"countryCode":"IT","countryName":"Italy","latitude":"37.57690000","longitude":"15.09371000","wikiDataId":"Q1631800"},{"id":60012,"name":"San Giuseppe Jato","stateId":1709,"stateCode":"82","stateName":"Sicily","countryId":107,"countryCode":"IT","countryName":"Italy","latitude":"37.97331000","longitude":"13.18889000","wikiDataId":"Q18444840"},{"id":60024,"name":"San Gregorio di Catania","stateId":1709,"stateCode":"82","stateName":"Sicily","countryId":107,"countryCode":"IT","countryName":"Italy","latitude":"37.56764000","longitude":"15.11120000","wikiDataId":"Q18505516"},{"id":60032,"name":"San Leone Mosè","stateId":1709,"stateCode":"82","stateName":"Sicily","countryId":107,"countryCode":"IT","countryName":"Italy","latitude":"37.26497000","longitude":"13.58434000","wikiDataId":"Q18451900"},{"id":60063,"name":"San Marco d'Alunzio","stateId":1709,"stateCode":"82","stateName":"Sicily","countryId":107,"countryCode":"IT","countryName":"Italy","latitude":"38.07261000","longitude":"14.70093000","wikiDataId":"Q473110"},{"id":60105,"name":"San Mauro Castelverde","stateId":1709,"stateCode":"82","stateName":"Sicily","countryId":107,"countryCode":"IT","countryName":"Italy","latitude":"37.91478000","longitude":"14.18961000","wikiDataId":"Q18487359"},{"id":60123,"name":"San Michele di Ganzaria","stateId":1709,"stateCode":"82","stateName":"Sicily","countryId":107,"countryCode":"IT","countryName":"Italy","latitude":"37.28042000","longitude":"14.42633000","wikiDataId":"Q3947693"},{"id":60164,"name":"San Pier Niceto","stateId":1709,"stateCode":"82","stateName":"Sicily","countryId":107,"countryCode":"IT","countryName":"Italy","latitude":"38.16050000","longitude":"15.34982000","wikiDataId":"Q3947760"},{"id":60167,"name":"San Piero Patti","stateId":1709,"stateCode":"82","stateName":"Sicily","countryId":107,"countryCode":"IT","countryName":"Italy","latitude":"38.05214000","longitude":"14.96816000","wikiDataId":"Q18487365"},{"id":60177,"name":"San Pietro Clarenza","stateId":1709,"stateCode":"82","stateName":"Sicily","countryId":107,"countryCode":"IT","countryName":"Italy","latitude":"37.56885000","longitude":"15.02289000","wikiDataId":"Q3947803"},{"id":60233,"name":"San Salvatore di Fitalia","stateId":1709,"stateCode":"82","stateName":"Sicily","countryId":107,"countryCode":"IT","countryName":"Italy","latitude":"38.06841000","longitude":"14.77799000","wikiDataId":"Q18459019"},{"id":60252,"name":"San Teodoro","stateId":1709,"stateCode":"82","stateName":"Sicily","countryId":107,"countryCode":"IT","countryName":"Italy","latitude":"37.84797000","longitude":"14.69878000","wikiDataId":"Q7415310"},{"id":60276,"name":"San Vito Lo Capo","stateId":1709,"stateCode":"82","stateName":"Sicily","countryId":107,"countryCode":"IT","countryName":"Italy","latitude":"38.17395000","longitude":"12.73599000","wikiDataId":"Q18441665"},{"id":60323,"name":"Sant'Agata di Militello","stateId":1709,"stateCode":"82","stateName":"Sicily","countryId":107,"countryCode":"IT","countryName":"Italy","latitude":"38.06838000","longitude":"14.63600000","wikiDataId":"Q3948636"},{"id":60318,"name":"Sant'Agata Li Battiati","stateId":1709,"stateCode":"82","stateName":"Sicily","countryId":107,"countryCode":"IT","countryName":"Italy","latitude":"37.55745000","longitude":"15.07999000","wikiDataId":"Q18505539"},{"id":60334,"name":"Sant'Alessio Siculo","stateId":1709,"stateCode":"82","stateName":"Sicily","countryId":107,"countryCode":"IT","countryName":"Italy","latitude":"37.92516000","longitude":"15.34968000","wikiDataId":"Q16600206"},{"id":60336,"name":"Sant'Alfio","stateId":1709,"stateCode":"82","stateName":"Sicily","countryId":107,"countryCode":"IT","countryName":"Italy","latitude":"37.74393000","longitude":"15.13952000","wikiDataId":"Q16600206"},{"id":60365,"name":"Sant'Angelo di Brolo","stateId":1709,"stateCode":"82","stateName":"Sicily","countryId":107,"countryCode":"IT","countryName":"Italy","latitude":"38.11518000","longitude":"14.88403000","wikiDataId":"Q18437087"},{"id":60360,"name":"Sant'Angelo Muxaro","stateId":1709,"stateCode":"82","stateName":"Sicily","countryId":107,"countryCode":"IT","countryName":"Italy","latitude":"37.48014000","longitude":"13.54554000","wikiDataId":"Q18437087"},{"id":60415,"name":"Santa Caterina Villarmosa","stateId":1709,"stateCode":"82","stateName":"Sicily","countryId":107,"countryCode":"IT","countryName":"Italy","latitude":"37.59034000","longitude":"14.03554000","wikiDataId":"Q18482837"},{"id":60422,"name":"Santa Cristina Gela","stateId":1709,"stateCode":"82","stateName":"Sicily","countryId":107,"countryCode":"IT","countryName":"Italy","latitude":"37.98514000","longitude":"13.32747000","wikiDataId":"Q18502449"},{"id":60426,"name":"Santa Croce Camerina","stateId":1709,"stateCode":"82","stateName":"Sicily","countryId":107,"countryCode":"IT","countryName":"Italy","latitude":"36.82842000","longitude":"14.52538000","wikiDataId":"Q3948975"},{"id":60433,"name":"Santa Domenica Vittoria","stateId":1709,"stateCode":"82","stateName":"Sicily","countryId":107,"countryCode":"IT","countryName":"Italy","latitude":"37.91624000","longitude":"14.96288000","wikiDataId":"Q18434193"},{"id":60434,"name":"Santa Elisabetta","stateId":1709,"stateCode":"82","stateName":"Sicily","countryId":107,"countryCode":"IT","countryName":"Italy","latitude":"37.43171000","longitude":"13.55386000","wikiDataId":"Q18434193"},{"id":60437,"name":"Santa Flavia","stateId":1709,"stateCode":"82","stateName":"Sicily","countryId":107,"countryCode":"IT","countryName":"Italy","latitude":"38.10448000","longitude":"13.53340000","wikiDataId":"Q18429452"},{"id":60447,"name":"Santa Lucia del Mela","stateId":1709,"stateCode":"82","stateName":"Sicily","countryId":107,"countryCode":"IT","countryName":"Italy","latitude":"38.14408000","longitude":"15.28055000","wikiDataId":"Q18455264"},{"id":60453,"name":"Santa Margherita di Belice","stateId":1709,"stateCode":"82","stateName":"Sicily","countryId":107,"countryCode":"IT","countryName":"Italy","latitude":"37.69281000","longitude":"13.01584000","wikiDataId":"Q2586104"},{"id":60476,"name":"Santa Maria di Licodia","stateId":1709,"stateCode":"82","stateName":"Sicily","countryId":107,"countryCode":"IT","countryName":"Italy","latitude":"37.61684000","longitude":"14.89337000","wikiDataId":"Q18488714"},{"id":60481,"name":"Santa Maria la Stella","stateId":1709,"stateCode":"82","stateName":"Sicily","countryId":107,"countryCode":"IT","countryName":"Italy","latitude":"37.62349000","longitude":"15.12071000","wikiDataId":"Q3949197"},{"id":60483,"name":"Santa Marina Salina","stateId":1709,"stateCode":"82","stateName":"Sicily","countryId":107,"countryCode":"IT","countryName":"Italy","latitude":"38.56117000","longitude":"14.87077000","wikiDataId":"Q3949197"},{"id":60487,"name":"Santa Ninfa","stateId":1709,"stateCode":"82","stateName":"Sicily","countryId":107,"countryCode":"IT","countryName":"Italy","latitude":"37.77042000","longitude":"12.87744000","wikiDataId":"Q2275497"},{"id":60496,"name":"Santa Teresa di Riva","stateId":1709,"stateCode":"82","stateName":"Sicily","countryId":107,"countryCode":"IT","countryName":"Italy","latitude":"37.94635000","longitude":"15.36671000","wikiDataId":"Q18427524"},{"id":60498,"name":"Santa Venerina","stateId":1709,"stateCode":"82","stateName":"Sicily","countryId":107,"countryCode":"IT","countryName":"Italy","latitude":"37.69103000","longitude":"15.13880000","wikiDataId":"Q18477046"},{"id":60521,"name":"Santo Stefano di Camastra","stateId":1709,"stateCode":"82","stateName":"Sicily","countryId":107,"countryCode":"IT","countryName":"Italy","latitude":"38.01295000","longitude":"14.35142000","wikiDataId":"Q18430429"},{"id":60514,"name":"Santo Stefano Quisquina","stateId":1709,"stateCode":"82","stateName":"Sicily","countryId":107,"countryCode":"IT","countryName":"Italy","latitude":"37.62606000","longitude":"13.48976000","wikiDataId":"Q18430429"},{"id":60535,"name":"Saponara","stateId":1709,"stateCode":"82","stateName":"Sicily","countryId":107,"countryCode":"IT","countryName":"Italy","latitude":"38.19241000","longitude":"15.43442000","wikiDataId":"Q18446287"},{"id":60536,"name":"Saponara Marittima","stateId":1709,"stateCode":"82","stateName":"Sicily","countryId":107,"countryCode":"IT","countryName":"Italy","latitude":"38.23121000","longitude":"15.42621000","wikiDataId":"Q18466198"},{"id":60564,"name":"Sasi","stateId":1709,"stateCode":"82","stateName":"Sicily","countryId":107,"countryCode":"IT","countryName":"Italy","latitude":"37.90217000","longitude":"12.88788000","wikiDataId":"Q18472981"},{"id":60595,"name":"Savoca","stateId":1709,"stateCode":"82","stateName":"Sicily","countryId":107,"countryCode":"IT","countryName":"Italy","latitude":"37.95326000","longitude":"15.34009000","wikiDataId":"Q18446293"},{"id":60609,"name":"Scaletta Zanclea","stateId":1709,"stateCode":"82","stateName":"Sicily","countryId":107,"countryCode":"IT","countryName":"Italy","latitude":"38.04796000","longitude":"15.46769000","wikiDataId":"Q18445011"},{"id":60649,"name":"Sciacca","stateId":1709,"stateCode":"82","stateName":"Sicily","countryId":107,"countryCode":"IT","countryName":"Italy","latitude":"37.50693000","longitude":"13.08399000","wikiDataId":"Q3951830"},{"id":60650,"name":"Sciara","stateId":1709,"stateCode":"82","stateName":"Sicily","countryId":107,"countryCode":"IT","countryName":"Italy","latitude":"37.91511000","longitude":"13.76177000","wikiDataId":"Q3951830"},{"id":60653,"name":"Scicli","stateId":1709,"stateCode":"82","stateName":"Sicily","countryId":107,"countryCode":"IT","countryName":"Italy","latitude":"36.79014000","longitude":"14.70280000","wikiDataId":"Q18477278"},{"id":60656,"name":"Scillato","stateId":1709,"stateCode":"82","stateName":"Sicily","countryId":107,"countryCode":"IT","countryName":"Italy","latitude":"37.85778000","longitude":"13.90632000","wikiDataId":"Q18477278"},{"id":60659,"name":"Sclafani Bagni","stateId":1709,"stateCode":"82","stateName":"Sicily","countryId":107,"countryCode":"IT","countryName":"Italy","latitude":"37.82175000","longitude":"13.85476000","wikiDataId":"Q18477278"},{"id":60660,"name":"Scoglitti","stateId":1709,"stateCode":"82","stateName":"Sicily","countryId":107,"countryCode":"IT","countryName":"Italy","latitude":"36.89424000","longitude":"14.43355000","wikiDataId":"Q2191593"},{"id":60666,"name":"Scordia","stateId":1709,"stateCode":"82","stateName":"Sicily","countryId":107,"countryCode":"IT","countryName":"Italy","latitude":"37.29548000","longitude":"14.84058000","wikiDataId":"Q2399617"},{"id":60759,"name":"Serradifalco","stateId":1709,"stateCode":"82","stateName":"Sicily","countryId":107,"countryCode":"IT","countryName":"Italy","latitude":"37.45384000","longitude":"13.88046000","wikiDataId":"Q18448031"},{"id":60826,"name":"Sfaranda","stateId":1709,"stateCode":"82","stateName":"Sicily","countryId":107,"countryCode":"IT","countryName":"Italy","latitude":"38.05815000","longitude":"14.83147000","wikiDataId":"Q18466457"},{"id":60827,"name":"Sferracavallo","stateId":1709,"stateCode":"82","stateName":"Sicily","countryId":107,"countryCode":"IT","countryName":"Italy","latitude":"38.20000000","longitude":"13.28333000","wikiDataId":"Q18466457"},{"id":60840,"name":"Siculiana","stateId":1709,"stateCode":"82","stateName":"Sicily","countryId":107,"countryCode":"IT","countryName":"Italy","latitude":"37.33515000","longitude":"13.42432000","wikiDataId":"Q7506929"},{"id":60862,"name":"Sinagra","stateId":1709,"stateCode":"82","stateName":"Sicily","countryId":107,"countryCode":"IT","countryName":"Italy","latitude":"38.08191000","longitude":"14.85009000","wikiDataId":"Q18450107"},{"id":60871,"name":"Siracusa","stateId":1709,"stateCode":"82","stateName":"Sicily","countryId":107,"countryCode":"IT","countryName":"Italy","latitude":"37.07542000","longitude":"15.28664000","wikiDataId":"Q17652434"},{"id":60903,"name":"Solarino","stateId":1709,"stateCode":"82","stateName":"Sicily","countryId":107,"countryCode":"IT","countryName":"Italy","latitude":"37.10136000","longitude":"15.11988000","wikiDataId":"Q18441717"},{"id":60933,"name":"Sommatino","stateId":1709,"stateCode":"82","stateName":"Sicily","countryId":107,"countryCode":"IT","countryName":"Italy","latitude":"37.33471000","longitude":"13.99739000","wikiDataId":"Q18441720"},{"id":60968,"name":"Sortino","stateId":1709,"stateCode":"82","stateName":"Sicily","countryId":107,"countryCode":"IT","countryName":"Italy","latitude":"37.15881000","longitude":"15.02998000","wikiDataId":"Q1710080"},{"id":60988,"name":"Spadafora","stateId":1709,"stateCode":"82","stateName":"Sicily","countryId":107,"countryCode":"IT","countryName":"Italy","latitude":"38.22349000","longitude":"15.38178000","wikiDataId":"Q18429489"},{"id":60992,"name":"Sparta'","stateId":1709,"stateCode":"82","stateName":"Sicily","countryId":107,"countryCode":"IT","countryName":"Italy","latitude":"38.29371000","longitude":"15.53503000","wikiDataId":"Q18466533"},{"id":60997,"name":"Sperlinga","stateId":1709,"stateCode":"82","stateName":"Sicily","countryId":107,"countryCode":"IT","countryName":"Italy","latitude":"37.76653000","longitude":"14.35075000","wikiDataId":"Q18437102"},{"id":61132,"name":"Sutera","stateId":1709,"stateCode":"82","stateName":"Sicily","countryId":107,"countryCode":"IT","countryName":"Italy","latitude":"37.52493000","longitude":"13.73274000","wikiDataId":"Q18430681"},{"id":61161,"name":"Taormina","stateId":1709,"stateCode":"82","stateName":"Sicily","countryId":107,"countryCode":"IT","countryName":"Italy","latitude":"37.85358000","longitude":"15.28851000","wikiDataId":"Q1976012"},{"id":61226,"name":"Terme","stateId":1709,"stateCode":"82","stateName":"Sicily","countryId":107,"countryCode":"IT","countryName":"Italy","latitude":"38.13586000","longitude":"15.15658000","wikiDataId":"Q18466634"},{"id":61228,"name":"Termini Imerese","stateId":1709,"stateCode":"82","stateName":"Sicily","countryId":107,"countryCode":"IT","countryName":"Italy","latitude":"37.98225000","longitude":"13.69729000","wikiDataId":"Q18466634"},{"id":61245,"name":"Terrasini","stateId":1709,"stateCode":"82","stateName":"Sicily","countryId":107,"countryCode":"IT","countryName":"Italy","latitude":"38.14621000","longitude":"13.08319000","wikiDataId":"Q2309058"},{"id":61312,"name":"Tonnara di Bonagia","stateId":1709,"stateCode":"82","stateName":"Sicily","countryId":107,"countryCode":"IT","countryName":"Italy","latitude":"38.06309000","longitude":"12.59434000","wikiDataId":"Q18473000"},{"id":61313,"name":"Tonnarella","stateId":1709,"stateCode":"82","stateName":"Sicily","countryId":107,"countryCode":"IT","countryName":"Italy","latitude":"38.12539000","longitude":"15.11348000","wikiDataId":"Q3993151"},{"id":61354,"name":"Torre Colonna-Sperone","stateId":1709,"stateCode":"82","stateName":"Sicily","countryId":107,"countryCode":"IT","countryName":"Italy","latitude":"38.02986000","longitude":"13.57377000","wikiDataId":"Q18468913"},{"id":61383,"name":"Torregrotta","stateId":1709,"stateCode":"82","stateName":"Sicily","countryId":107,"countryCode":"IT","countryName":"Italy","latitude":"38.20262000","longitude":"15.35010000","wikiDataId":"Q18493670"},{"id":61386,"name":"Torrenova","stateId":1709,"stateCode":"82","stateName":"Sicily","countryId":107,"countryCode":"IT","countryName":"Italy","latitude":"38.09246000","longitude":"14.67917000","wikiDataId":"Q742209"},{"id":61389,"name":"Torretta","stateId":1709,"stateCode":"82","stateName":"Sicily","countryId":107,"countryCode":"IT","countryName":"Italy","latitude":"38.13036000","longitude":"13.23549000","wikiDataId":"Q18498995"},{"id":61418,"name":"Tortorici","stateId":1709,"stateCode":"82","stateName":"Sicily","countryId":107,"countryCode":"IT","countryName":"Italy","latitude":"38.02973000","longitude":"14.82212000","wikiDataId":"Q18428585"},{"id":61427,"name":"Trabia","stateId":1709,"stateCode":"82","stateName":"Sicily","countryId":107,"countryCode":"IT","countryName":"Italy","latitude":"38.00420000","longitude":"13.63393000","wikiDataId":"Q18438761"},{"id":61440,"name":"Trapani","stateId":1709,"stateCode":"82","stateName":"Sicily","countryId":107,"countryCode":"IT","countryName":"Italy","latitude":"37.83333000","longitude":"12.66667000","wikiDataId":"Q16288"},{"id":61441,"name":"Trappeto","stateId":1709,"stateCode":"82","stateName":"Sicily","countryId":107,"countryCode":"IT","countryName":"Italy","latitude":"38.06875000","longitude":"13.03794000","wikiDataId":"Q16288"},{"id":61457,"name":"Tre Fontane","stateId":1709,"stateCode":"82","stateName":"Sicily","countryId":107,"countryCode":"IT","countryName":"Italy","latitude":"37.56989000","longitude":"12.72423000","wikiDataId":"Q18473008"},{"id":61465,"name":"Trecastagni","stateId":1709,"stateCode":"82","stateName":"Sicily","countryId":107,"countryCode":"IT","countryName":"Italy","latitude":"37.61543000","longitude":"15.07796000","wikiDataId":"Q100966"},{"id":61478,"name":"Tremestieri Etneo","stateId":1709,"stateCode":"82","stateName":"Sicily","countryId":107,"countryCode":"IT","countryName":"Italy","latitude":"37.56494000","longitude":"15.07863000","wikiDataId":"Q782473"},{"id":61534,"name":"Tripi","stateId":1709,"stateCode":"82","stateName":"Sicily","countryId":107,"countryCode":"IT","countryName":"Italy","latitude":"38.04673000","longitude":"15.09670000","wikiDataId":"Q17638895"},{"id":61535,"name":"Triscina","stateId":1709,"stateCode":"82","stateName":"Sicily","countryId":107,"countryCode":"IT","countryName":"Italy","latitude":"37.58717000","longitude":"12.78912000","wikiDataId":"Q3999015"},{"id":61550,"name":"Troina","stateId":1709,"stateCode":"82","stateName":"Sicily","countryId":107,"countryCode":"IT","countryName":"Italy","latitude":"37.78437000","longitude":"14.59605000","wikiDataId":"Q18497958"},{"id":61580,"name":"Tusa","stateId":1709,"stateCode":"82","stateName":"Sicily","countryId":107,"countryCode":"IT","countryName":"Italy","latitude":"37.98385000","longitude":"14.23606000","wikiDataId":"Q222063"},{"id":61586,"name":"Ucria","stateId":1709,"stateCode":"82","stateName":"Sicily","countryId":107,"countryCode":"IT","countryName":"Italy","latitude":"38.04624000","longitude":"14.88087000","wikiDataId":"Q18470725"},{"id":61619,"name":"Ustica","stateId":1709,"stateCode":"82","stateName":"Sicily","countryId":107,"countryCode":"IT","countryName":"Italy","latitude":"38.70985000","longitude":"13.19293000","wikiDataId":"Q18491916"},{"id":61653,"name":"Valderice","stateId":1709,"stateCode":"82","stateName":"Sicily","countryId":107,"countryCode":"IT","countryName":"Italy","latitude":"38.04005000","longitude":"12.61505000","wikiDataId":"Q30031451"},{"id":61655,"name":"Valdina","stateId":1709,"stateCode":"82","stateName":"Sicily","countryId":107,"countryCode":"IT","countryName":"Italy","latitude":"38.19351000","longitude":"15.36980000","wikiDataId":"Q30031451"},{"id":61678,"name":"Valguarnera Caropepe","stateId":1709,"stateCode":"82","stateName":"Sicily","countryId":107,"countryCode":"IT","countryName":"Italy","latitude":"37.49527000","longitude":"14.39025000","wikiDataId":"Q18505677"},{"id":61705,"name":"Valledolmo","stateId":1709,"stateCode":"82","stateName":"Sicily","countryId":107,"countryCode":"IT","countryName":"Italy","latitude":"37.74703000","longitude":"13.82811000","wikiDataId":"Q18427098"},{"id":61710,"name":"Vallelunga Pratameno","stateId":1709,"stateCode":"82","stateName":"Sicily","countryId":107,"countryCode":"IT","countryName":"Italy","latitude":"37.68205000","longitude":"13.83156000","wikiDataId":"Q18463323"},{"id":61747,"name":"Valverde","stateId":1709,"stateCode":"82","stateName":"Sicily","countryId":107,"countryCode":"IT","countryName":"Italy","latitude":"37.57695000","longitude":"15.12419000","wikiDataId":"Q53203"},