[{"id":63257,"name":"Asahi","stateId":848,"stateCode":"18","stateName":"Fukui Prefecture","countryId":109,"countryCode":"JP","countryName":"Japan","latitude":"35.97259000","longitude":"136.12455000","wikiDataId":"Q720402"},{"id":63276,"name":"Awara-shi","stateId":848,"stateCode":"18","stateName":"Fukui Prefecture","countryId":109,"countryCode":"JP","countryName":"Japan","latitude":"36.22777000","longitude":"136.25154000","wikiDataId":"Q538623"},{"id":63329,"name":"Echizen-shi","stateId":848,"stateCode":"18","stateName":"Fukui Prefecture","countryId":109,"countryCode":"JP","countryName":"Japan","latitude":"35.88946000","longitude":"136.17723000","wikiDataId":"Q877941"},{"id":63363,"name":"Fukui-shi","stateId":848,"stateCode":"18","stateName":"Fukui Prefecture","countryId":109,"countryCode":"JP","countryName":"Japan","latitude":"36.06667000","longitude":"136.21667000","wikiDataId":"Q201618"},{"id":63763,"name":"Katsuyama","stateId":848,"stateCode":"18","stateName":"Fukui Prefecture","countryId":109,"countryCode":"JP","countryName":"Japan","latitude":"36.06173000","longitude":"136.50101000","wikiDataId":"Q847543"},{"id":63764,"name":"Katsuyama Shi","stateId":848,"stateCode":"18","stateName":"Fukui Prefecture","countryId":109,"countryCode":"JP","countryName":"Japan","latitude":"36.08440000","longitude":"136.52178000","wikiDataId":"Q847543"},{"id":63924,"name":"Maruoka","stateId":848,"stateCode":"18","stateName":"Fukui Prefecture","countryId":109,"countryCode":"JP","countryName":"Japan","latitude":"36.15340000","longitude":"136.27029000","wikiDataId":"Q177273"},{"id":63955,"name":"Mikuni","stateId":848,"stateCode":"18","stateName":"Fukui Prefecture","countryId":109,"countryCode":"JP","countryName":"Japan","latitude":"36.21706000","longitude":"136.15185000","wikiDataId":"Q31238"},{"id":64176,"name":"Obama","stateId":848,"stateCode":"18","stateName":"Fukui Prefecture","countryId":109,"countryCode":"JP","countryName":"Japan","latitude":"35.49576000","longitude":"135.74604000","wikiDataId":"Q861296"},{"id":64177,"name":"Obama-shi","stateId":848,"stateCode":"18","stateName":"Fukui Prefecture","countryId":109,"countryCode":"JP","countryName":"Japan","latitude":"35.45000000","longitude":"135.70000000","wikiDataId":"Q41773"},{"id":64726,"name":"Ōi-gun","stateId":848,"stateCode":"18","stateName":"Fukui Prefecture","countryId":109,"countryCode":"JP","countryName":"Japan","latitude":"35.49238000","longitude":"135.49311000","wikiDataId":"Q384971"},{"id":64209,"name":"Ono","stateId":848,"stateCode":"18","stateName":"Fukui Prefecture","countryId":109,"countryCode":"JP","countryName":"Japan","latitude":"35.98106000","longitude":"136.48727000","wikiDataId":"Q385684"},{"id":64748,"name":"Ōno-shi","stateId":848,"stateCode":"18","stateName":"Fukui Prefecture","countryId":109,"countryCode":"JP","countryName":"Japan","latitude":"35.90837000","longitude":"136.61696000","wikiDataId":"Q385623"},{"id":64236,"name":"Sabae","stateId":848,"stateCode":"18","stateName":"Fukui Prefecture","countryId":109,"countryCode":"JP","countryName":"Japan","latitude":"35.94647000","longitude":"136.18498000","wikiDataId":"Q847598"},{"id":64237,"name":"Sabae-shi","stateId":848,"stateCode":"18","stateName":"Fukui Prefecture","countryId":109,"countryCode":"JP","countryName":"Japan","latitude":"35.95932000","longitude":"136.21835000","wikiDataId":"Q847598"},{"id":64259,"name":"Sakai-shi","stateId":848,"stateCode":"18","stateName":"Fukui Prefecture","countryId":109,"countryCode":"JP","countryName":"Japan","latitude":"36.16406000","longitude":"136.25544000","wikiDataId":"Q990342"},{"id":64444,"name":"Takefu","stateId":848,"stateCode":"18","stateName":"Fukui Prefecture","countryId":109,"countryCode":"JP","countryName":"Japan","latitude":"35.90393000","longitude":"136.16687000","wikiDataId":"Q850508"},{"id":64553,"name":"Tsuruga","stateId":848,"stateCode":"18","stateName":"Fukui Prefecture","countryId":109,"countryCode":"JP","countryName":"Japan","latitude":"35.64547000","longitude":"136.05580000","wikiDataId":"Q747362"},{"id":64554,"name":"Tsuruga-shi","stateId":848,"stateCode":"18","stateName":"Fukui Prefecture","countryId":109,"countryCode":"JP","countryName":"Japan","latitude":"35.63730000","longitude":"136.08068000","wikiDataId":"Q747362"}]