[{"id":32076,"name":"Alcalá de los Gazules","stateId":5096,"stateCode":"CA","stateName":"Cádiz","countryId":207,"countryCode":"ES","countryName":"Spain","latitude":"36.46212000","longitude":"-5.72382000","wikiDataId":"Q203042"},{"id":32080,"name":"Alcalá del Valle","stateId":5096,"stateCode":"CA","stateName":"Cádiz","countryId":207,"countryCode":"ES","countryName":"Spain","latitude":"36.90448000","longitude":"-5.17240000","wikiDataId":"Q506844"},{"id":32210,"name":"Algar","stateId":5096,"stateCode":"CA","stateName":"Cádiz","countryId":207,"countryCode":"ES","countryName":"Spain","latitude":"36.65748000","longitude":"-5.65558000","wikiDataId":"Q851011"},{"id":32216,"name":"Algeciras","stateId":5096,"stateCode":"CA","stateName":"Cádiz","countryId":207,"countryCode":"ES","countryName":"Spain","latitude":"36.13326000","longitude":"-5.45051000","wikiDataId":"Q484552"},{"id":32223,"name":"Algodonales","stateId":5096,"stateCode":"CA","stateName":"Cádiz","countryId":207,"countryCode":"ES","countryName":"Spain","latitude":"36.88044000","longitude":"-5.40536000","wikiDataId":"Q818386"},{"id":32437,"name":"Arcos de la Frontera","stateId":5096,"stateCode":"CA","stateName":"Cádiz","countryId":207,"countryCode":"ES","countryName":"Spain","latitude":"36.75075000","longitude":"-5.81056000","wikiDataId":"Q637863"},{"id":32646,"name":"Barbate","stateId":5096,"stateCode":"CA","stateName":"Cádiz","countryId":207,"countryCode":"ES","countryName":"Spain","latitude":"36.19237000","longitude":"-5.92186000","wikiDataId":"Q502975"},{"id":151361,"name":"Barrios Los","stateId":5096,"stateCode":"CA","stateName":"Cádiz","countryId":207,"countryCode":"ES","countryName":"Spain","latitude":"0.00000000","longitude":"0.00000000","wikiDataId":null},{"id":32766,"name":"Benalup-Casas Viejas","stateId":5096,"stateCode":"CA","stateName":"Cádiz","countryId":207,"countryCode":"ES","countryName":"Spain","latitude":"36.34375000","longitude":"-5.81280000","wikiDataId":"Q488869"},{"id":32773,"name":"Benaocaz","stateId":5096,"stateCode":"CA","stateName":"Cádiz","countryId":207,"countryCode":"ES","countryName":"Spain","latitude":"36.70069000","longitude":"-5.42222000","wikiDataId":"Q741812"},{"id":32957,"name":"Bornos","stateId":5096,"stateCode":"CA","stateName":"Cádiz","countryId":207,"countryCode":"ES","countryName":"Spain","latitude":"36.81677000","longitude":"-5.74448000","wikiDataId":"Q1451570"},{"id":151362,"name":"Bosque El","stateId":5096,"stateCode":"CA","stateName":"Cádiz","countryId":207,"countryCode":"ES","countryName":"Spain","latitude":"0.00000000","longitude":"0.00000000","wikiDataId":null},{"id":33117,"name":"Cadiz","stateId":5096,"stateCode":"CA","stateName":"Cádiz","countryId":207,"countryCode":"ES","countryName":"Spain","latitude":"36.52672000","longitude":"-6.28910000","wikiDataId":"Q15682"},{"id":33420,"name":"Castellar de la Frontera","stateId":5096,"stateCode":"CA","stateName":"Cádiz","countryId":207,"countryCode":"ES","countryName":"Spain","latitude":"36.31736000","longitude":"-5.45407000","wikiDataId":"Q1610266"},{"id":33631,"name":"Chiclana de la Frontera","stateId":5096,"stateCode":"CA","stateName":"Cádiz","countryId":207,"countryCode":"ES","countryName":"Spain","latitude":"36.41976000","longitude":"-6.14367000","wikiDataId":"Q24011946"},{"id":33641,"name":"Chipiona","stateId":5096,"stateCode":"CA","stateName":"Cádiz","countryId":207,"countryCode":"ES","countryName":"Spain","latitude":"36.73663000","longitude":"-6.43703000","wikiDataId":"Q741749"},{"id":33761,"name":"Conil de la Frontera","stateId":5096,"stateCode":"CA","stateName":"Cádiz","countryId":207,"countryCode":"ES","countryName":"Spain","latitude":"36.27719000","longitude":"-6.08850000","wikiDataId":"Q832984"},{"id":34115,"name":"Espera","stateId":5096,"stateCode":"CA","stateName":"Cádiz","countryId":207,"countryCode":"ES","countryName":"Spain","latitude":"36.87446000","longitude":"-5.80600000","wikiDataId":"Q1448444"},{"id":151363,"name":"Gastor El","stateId":5096,"stateCode":"CA","stateName":"Cádiz","countryId":207,"countryCode":"ES","countryName":"Spain","latitude":"0.00000000","longitude":"0.00000000","wikiDataId":null},{"id":34507,"name":"Grazalema","stateId":5096,"stateCode":"CA","stateName":"Cádiz","countryId":207,"countryCode":"ES","countryName":"Spain","latitude":"36.76018000","longitude":"-5.36839000","wikiDataId":"Q832949"},{"id":34812,"name":"Jerez de la Frontera","stateId":5096,"stateCode":"CA","stateName":"Cádiz","countryId":207,"countryCode":"ES","countryName":"Spain","latitude":"36.68645000","longitude":"-6.13606000","wikiDataId":"Q12303"},{"id":34817,"name":"Jimena de la Frontera","stateId":5096,"stateCode":"CA","stateName":"Cádiz","countryId":207,"countryCode":"ES","countryName":"Spain","latitude":"36.43517000","longitude":"-5.45387000","wikiDataId":"Q916664"},{"id":151364,"name":"Línea de la Concepción La","stateId":5096,"stateCode":"CA","stateName":"Cádiz","countryId":207,"countryCode":"ES","countryName":"Spain","latitude":"0.00000000","longitude":"0.00000000","wikiDataId":null},{"id":151365,"name":"Medina-Sidonia","stateId":5096,"stateCode":"CA","stateName":"Cádiz","countryId":207,"countryCode":"ES","countryName":"Spain","latitude":"0.00000000","longitude":"0.00000000","wikiDataId":null},{"id":35917,"name":"Olvera","stateId":5096,"stateCode":"CA","stateName":"Cádiz","countryId":207,"countryCode":"ES","countryName":"Spain","latitude":"36.93418000","longitude":"-5.26678000","wikiDataId":"Q623685"},{"id":36078,"name":"Paterna de Rivera","stateId":5096,"stateCode":"CA","stateName":"Cádiz","countryId":207,"countryCode":"ES","countryName":"Spain","latitude":"36.52246000","longitude":"-5.86578000","wikiDataId":"Q1631804"},{"id":36346,"name":"Prado del Rey","stateId":5096,"stateCode":"CA","stateName":"Cádiz","countryId":207,"countryCode":"ES","countryName":"Spain","latitude":"36.78756000","longitude":"-5.55589000","wikiDataId":"Q1448460"},{"id":151366,"name":"Puerto de Santa María El","stateId":5096,"stateCode":"CA","stateName":"Cádiz","countryId":207,"countryCode":"ES","countryName":"Spain","latitude":"0.00000000","longitude":"0.00000000","wikiDataId":null},{"id":36447,"name":"Puerto Real","stateId":5096,"stateCode":"CA","stateName":"Cádiz","countryId":207,"countryCode":"ES","countryName":"Spain","latitude":"36.52819000","longitude":"-6.19011000","wikiDataId":"Q846159"},{"id":36450,"name":"Puerto Serrano","stateId":5096,"stateCode":"CA","stateName":"Cádiz","countryId":207,"countryCode":"ES","countryName":"Spain","latitude":"36.92209000","longitude":"-5.54304000","wikiDataId":"Q1630881"},{"id":36680,"name":"Rota","stateId":5096,"stateCode":"CA","stateName":"Cádiz","countryId":207,"countryCode":"ES","countryName":"Spain","latitude":"36.62545000","longitude":"-6.36220000","wikiDataId":"Q15907"},{"id":36835,"name":"San Fernando","stateId":5096,"stateCode":"CA","stateName":"Cádiz","countryId":207,"countryCode":"ES","countryName":"Spain","latitude":"36.47590000","longitude":"-6.19817000","wikiDataId":"Q741765"},{"id":36842,"name":"San José del Valle","stateId":5096,"stateCode":"CA","stateName":"Cádiz","countryId":207,"countryCode":"ES","countryName":"Spain","latitude":"36.60554000","longitude":"-5.79895000","wikiDataId":"Q1750939"},{"id":36919,"name":"San Roque","stateId":5096,"stateCode":"CA","stateName":"Cádiz","countryId":207,"countryCode":"ES","countryName":"Spain","latitude":"36.21067000","longitude":"-5.38415000","wikiDataId":"Q1906480"},{"id":36947,"name":"Sanlúcar de Barrameda","stateId":5096,"stateCode":"CA","stateName":"Cádiz","countryId":207,"countryCode":"ES","countryName":"Spain","latitude":"36.77808000","longitude":"-6.35150000","wikiDataId":"Q210887"},{"id":37236,"name":"Setenil de las Bodegas","stateId":5096,"stateCode":"CA","stateName":"Cádiz","countryId":207,"countryCode":"ES","countryName":"Spain","latitude":"36.86397000","longitude":"-5.18177000","wikiDataId":"Q918623"},{"id":37381,"name":"Tarifa","stateId":5096,"stateCode":"CA","stateName":"Cádiz","countryId":207,"countryCode":"ES","countryName":"Spain","latitude":"36.01393000","longitude":"-5.60695000","wikiDataId":"Q222702"},{"id":37487,"name":"Torre Alháquime","stateId":5096,"stateCode":"CA","stateName":"Cádiz","countryId":207,"countryCode":"ES","countryName":"Spain","latitude":"36.91588000","longitude":"-5.23381000","wikiDataId":"Q918626"},{"id":37625,"name":"Trebujena","stateId":5096,"stateCode":"CA","stateName":"Cádiz","countryId":207,"countryCode":"ES","countryName":"Spain","latitude":"36.87075000","longitude":"-6.17586000","wikiDataId":"Q1610648"},{"id":37670,"name":"Ubrique","stateId":5096,"stateCode":"CA","stateName":"Cádiz","countryId":207,"countryCode":"ES","countryName":"Spain","latitude":"36.67777000","longitude":"-5.44600000","wikiDataId":"Q1092146"},{"id":37921,"name":"Vejer de la Frontera","stateId":5096,"stateCode":"CA","stateName":"Cádiz","countryId":207,"countryCode":"ES","countryName":"Spain","latitude":"36.25213000","longitude":"-5.96717000","wikiDataId":"Q827393"},{"id":38124,"name":"Villaluenga del Rosario","stateId":5096,"stateCode":"CA","stateName":"Cádiz","countryId":207,"countryCode":"ES","countryName":"Spain","latitude":"36.69644000","longitude":"-5.38601000","wikiDataId":"Q650598"},{"id":38136,"name":"Villamartín","stateId":5096,"stateCode":"CA","stateName":"Cádiz","countryId":207,"countryCode":"ES","countryName":"Spain","latitude":"36.85979000","longitude":"-5.64485000","wikiDataId":"Q1442451"},{"id":38454,"name":"Zahara","stateId":5096,"stateCode":"CA","stateName":"Cádiz","countryId":207,"countryCode":"ES","countryName":"Spain","latitude":"36.84055000","longitude":"-5.39128000","wikiDataId":"Q619236"}]