[{"id":89905,"name":"Aita Mare","stateId":4754,"stateCode":"CV","stateName":"Covasna County","countryId":181,"countryCode":"RO","countryName":"Romania","latitude":"45.96667000","longitude":"25.55000000","wikiDataId":"Q1092889"},{"id":89976,"name":"Araci","stateId":4754,"stateCode":"CV","stateName":"Covasna County","countryId":181,"countryCode":"RO","countryName":"Romania","latitude":"45.81187000","longitude":"25.65482000","wikiDataId":"Q302194"},{"id":89981,"name":"Arcuș","stateId":4754,"stateCode":"CV","stateName":"Covasna County","countryId":181,"countryCode":"RO","countryName":"Romania","latitude":"45.90077000","longitude":"25.77673000","wikiDataId":"Q1048484"},{"id":90058,"name":"Baraolt","stateId":4754,"stateCode":"CV","stateName":"Covasna County","countryId":181,"countryCode":"RO","countryName":"Romania","latitude":"46.07514000","longitude":"25.60029000","wikiDataId":"Q16898226"},{"id":90060,"name":"Barcani","stateId":4754,"stateCode":"CV","stateName":"Covasna County","countryId":181,"countryCode":"RO","countryName":"Romania","latitude":"45.70000000","longitude":"26.08333000","wikiDataId":"Q1096779"},{"id":90556,"name":"Băţanii Mari","stateId":4754,"stateCode":"CV","stateName":"Covasna County","countryId":181,"countryCode":"RO","countryName":"Romania","latitude":"46.08333000","longitude":"25.68333000","wikiDataId":"Q10623333"},{"id":90087,"name":"Belin","stateId":4754,"stateCode":"CV","stateName":"Covasna County","countryId":181,"countryCode":"RO","countryName":"Romania","latitude":"45.93333000","longitude":"25.56667000","wikiDataId":"Q1071428"},{"id":90088,"name":"Belin-Vale","stateId":4754,"stateCode":"CV","stateName":"Covasna County","countryId":181,"countryCode":"RO","countryName":"Romania","latitude":"45.93237000","longitude":"25.60878000","wikiDataId":"Q278749"},{"id":90155,"name":"Bixad","stateId":4754,"stateCode":"CV","stateName":"Covasna County","countryId":181,"countryCode":"RO","countryName":"Romania","latitude":"46.10000000","longitude":"25.86667000","wikiDataId":"Q583332"},{"id":90183,"name":"Bodoc","stateId":4754,"stateCode":"CV","stateName":"Covasna County","countryId":181,"countryCode":"RO","countryName":"Romania","latitude":"45.95000000","longitude":"25.85000000","wikiDataId":"Q1091912"},{"id":90233,"name":"Boroşneu Mare","stateId":4754,"stateCode":"CV","stateName":"Covasna County","countryId":181,"countryCode":"RO","countryName":"Romania","latitude":"45.81667000","longitude":"26.00000000","wikiDataId":"Q1097085"},{"id":90327,"name":"Brăduţ","stateId":4754,"stateCode":"CV","stateName":"Covasna County","countryId":181,"countryCode":"RO","countryName":"Romania","latitude":"46.13333000","longitude":"25.61667000","wikiDataId":"Q790399"},{"id":90276,"name":"Brateş","stateId":4754,"stateCode":"CV","stateName":"Covasna County","countryId":181,"countryCode":"RO","countryName":"Romania","latitude":"45.83333000","longitude":"26.06667000","wikiDataId":"Q2924083"},{"id":90304,"name":"Breţcu","stateId":4754,"stateCode":"CV","stateName":"Covasna County","countryId":181,"countryCode":"RO","countryName":"Romania","latitude":"46.05000000","longitude":"26.30000000","wikiDataId":"Q2924828"},{"id":93857,"name":"Căpeni","stateId":4754,"stateCode":"CV","stateName":"Covasna County","countryId":181,"countryCode":"RO","countryName":"Romania","latitude":"46.04111000","longitude":"25.57858000","wikiDataId":"Q714014"},{"id":90587,"name":"Catalina","stateId":4754,"stateCode":"CV","stateName":"Covasna County","countryId":181,"countryCode":"RO","countryName":"Romania","latitude":"45.96667000","longitude":"26.15000000","wikiDataId":"Q1077241"},{"id":90629,"name":"Cernat","stateId":4754,"stateCode":"CV","stateName":"Covasna County","countryId":181,"countryCode":"RO","countryName":"Romania","latitude":"45.95000000","longitude":"26.03333000","wikiDataId":"Q13583705"},{"id":90663,"name":"Chichiş","stateId":4754,"stateCode":"CV","stateName":"Covasna County","countryId":181,"countryCode":"RO","countryName":"Romania","latitude":"45.78333000","longitude":"25.80000000","wikiDataId":"Q1093119"},{"id":90809,"name":"Comandău","stateId":4754,"stateCode":"CV","stateName":"Covasna County","countryId":181,"countryCode":"RO","countryName":"Romania","latitude":"45.76667000","longitude":"26.26667000","wikiDataId":"Q430691"},{"id":90835,"name":"Comuna Aita Mare","stateId":4754,"stateCode":"CV","stateName":"Covasna County","countryId":181,"countryCode":"RO","countryName":"Romania","latitude":"45.97126000","longitude":"25.58824000","wikiDataId":"Q16439527"},{"id":90885,"name":"Comuna Arcuş","stateId":4754,"stateCode":"CV","stateName":"Covasna County","countryId":181,"countryCode":"RO","countryName":"Romania","latitude":"45.90077000","longitude":"25.77673000","wikiDataId":"Q12682832"},{"id":90936,"name":"Comuna Barcani","stateId":4754,"stateCode":"CV","stateName":"Covasna County","countryId":181,"countryCode":"RO","countryName":"Romania","latitude":"45.70483000","longitude":"26.06393000","wikiDataId":"Q16426282"},{"id":91249,"name":"Comuna Băţani","stateId":4754,"stateCode":"CV","stateName":"Covasna County","countryId":181,"countryCode":"RO","countryName":"Romania","latitude":"46.09167000","longitude":"25.71930000","wikiDataId":"Q934590"},{"id":90952,"name":"Comuna Belin","stateId":4754,"stateCode":"CV","stateName":"Covasna County","countryId":181,"countryCode":"RO","countryName":"Romania","latitude":"45.93361000","longitude":"25.59126000","wikiDataId":"Q16426285"},{"id":91001,"name":"Comuna Bixad","stateId":4754,"stateCode":"CV","stateName":"Covasna County","countryId":181,"countryCode":"RO","countryName":"Romania","latitude":"46.10225000","longitude":"25.86344000","wikiDataId":"Q16426289"},{"id":91019,"name":"Comuna Bodoc","stateId":4754,"stateCode":"CV","stateName":"Covasna County","countryId":181,"countryCode":"RO","countryName":"Romania","latitude":"45.96190000","longitude":"25.84149000","wikiDataId":"Q5058820"},{"id":91053,"name":"Comuna Boroşneu Mare","stateId":4754,"stateCode":"CV","stateName":"Covasna County","countryId":181,"countryCode":"RO","countryName":"Romania","latitude":"45.81010000","longitude":"26.01568000","wikiDataId":"Q2911326"},{"id":91116,"name":"Comuna Brăduţ","stateId":4754,"stateCode":"CV","stateName":"Covasna County","countryId":181,"countryCode":"RO","countryName":"Romania","latitude":"46.12574000","longitude":"25.60329000","wikiDataId":"Q16426293"},{"id":91084,"name":"Comuna Brateş","stateId":4754,"stateCode":"CV","stateName":"Covasna County","countryId":181,"countryCode":"RO","countryName":"Romania","latitude":"45.83992000","longitude":"26.07887000","wikiDataId":"Q1096961"},{"id":91100,"name":"Comuna Breţcu","stateId":4754,"stateCode":"CV","stateName":"Covasna County","countryId":181,"countryCode":"RO","countryName":"Romania","latitude":"46.04444000","longitude":"26.32887000","wikiDataId":"Q1096181"},{"id":91266,"name":"Comuna Catalina","stateId":4754,"stateCode":"CV","stateName":"Covasna County","countryId":181,"countryCode":"RO","countryName":"Romania","latitude":"45.93736000","longitude":"26.12250000","wikiDataId":"Q16426297"},{"id":93581,"name":"Comună Cernat","stateId":4754,"stateCode":"CV","stateName":"Covasna County","countryId":181,"countryCode":"RO","countryName":"Romania","latitude":"45.96650000","longitude":"26.01955000","wikiDataId":"Q872413"},{"id":91312,"name":"Comuna Chichiş","stateId":4754,"stateCode":"CV","stateName":"Covasna County","countryId":181,"countryCode":"RO","countryName":"Romania","latitude":"45.76781000","longitude":"25.81378000","wikiDataId":"Q12685050"},{"id":91406,"name":"Comuna Comandău","stateId":4754,"stateCode":"CV","stateName":"Covasna County","countryId":181,"countryCode":"RO","countryName":"Romania","latitude":"45.76179000","longitude":"26.27776000","wikiDataId":"Q16426303"},{"id":91603,"name":"Comuna Dalnic","stateId":4754,"stateCode":"CV","stateName":"Covasna County","countryId":181,"countryCode":"RO","countryName":"Romania","latitude":"45.92242000","longitude":"25.98741000","wikiDataId":"Q912315"},{"id":91647,"name":"Comuna Dobârlău","stateId":4754,"stateCode":"CV","stateName":"Covasna County","countryId":181,"countryCode":"RO","countryName":"Romania","latitude":"45.73410000","longitude":"25.88112000","wikiDataId":"Q16426308"},{"id":91750,"name":"Comuna Estelnic","stateId":4754,"stateCode":"CV","stateName":"Covasna County","countryId":181,"countryCode":"RO","countryName":"Romania","latitude":"46.12537000","longitude":"26.20544000","wikiDataId":"Q16426311"},{"id":91841,"name":"Comuna Ghelinţa","stateId":4754,"stateCode":"CV","stateName":"Covasna County","countryId":181,"countryCode":"RO","countryName":"Romania","latitude":"45.93491000","longitude":"26.22068000","wikiDataId":"Q12724800"},{"id":91851,"name":"Comuna Ghidfalău","stateId":4754,"stateCode":"CV","stateName":"Covasna County","countryId":181,"countryCode":"RO","countryName":"Romania","latitude":"45.89956000","longitude":"25.86399000","wikiDataId":"Q5064436"},{"id":92036,"name":"Comuna Hăghig","stateId":4754,"stateCode":"CV","stateName":"Covasna County","countryId":181,"countryCode":"RO","countryName":"Romania","latitude":"45.85362000","longitude":"25.59501000","wikiDataId":"Q16426315"},{"id":92071,"name":"Comuna Ilieni","stateId":4754,"stateCode":"CV","stateName":"Covasna County","countryId":181,"countryCode":"RO","countryName":"Romania","latitude":"45.80054000","longitude":"25.76436000","wikiDataId":"Q5058967"},{"id":92149,"name":"Comuna Lemnia","stateId":4754,"stateCode":"CV","stateName":"Covasna County","countryId":181,"countryCode":"RO","countryName":"Romania","latitude":"46.07078000","longitude":"26.27277000","wikiDataId":"Q16426319"},{"id":92233,"name":"Comuna Malnaş","stateId":4754,"stateCode":"CV","stateName":"Covasna County","countryId":181,"countryCode":"RO","countryName":"Romania","latitude":"46.01995000","longitude":"25.82705000","wikiDataId":"Q24710"},{"id":92256,"name":"Comuna Mereni","stateId":4754,"stateCode":"CV","stateName":"Covasna County","countryId":181,"countryCode":"RO","countryName":"Romania","latitude":"46.08496000","longitude":"26.23460000","wikiDataId":"Q5058879"},{"id":92266,"name":"Comuna Micfalău","stateId":4754,"stateCode":"CV","stateName":"Covasna County","countryId":181,"countryCode":"RO","countryName":"Romania","latitude":"46.05342000","longitude":"25.83737000","wikiDataId":"Q16426323"},{"id":92311,"name":"Comuna Moacşa","stateId":4754,"stateCode":"CV","stateName":"Covasna County","countryId":181,"countryCode":"RO","countryName":"Romania","latitude":"45.87883000","longitude":"25.95270000","wikiDataId":"Q1097245"},{"id":92491,"name":"Comuna Ojdula","stateId":4754,"stateCode":"CV","stateName":"Covasna County","countryId":181,"countryCode":"RO","countryName":"Romania","latitude":"45.97871000","longitude":"26.24773000","wikiDataId":"Q5059285"},{"id":92523,"name":"Comuna Ozun","stateId":4754,"stateCode":"CV","stateName":"Covasna County","countryId":181,"countryCode":"RO","countryName":"Romania","latitude":"45.78331000","longitude":"25.88260000","wikiDataId":"Q16426328"},{"id":92621,"name":"Comuna Poian","stateId":4754,"stateCode":"CV","stateName":"Covasna County","countryId":181,"countryCode":"RO","countryName":"Romania","latitude":"46.07731000","longitude":"26.17423000","wikiDataId":"Q16426331"},{"id":92757,"name":"Comuna Reci","stateId":4754,"stateCode":"CV","stateName":"Covasna County","countryId":181,"countryCode":"RO","countryName":"Romania","latitude":"45.81913000","longitude":"25.95552000","wikiDataId":"Q732894"},{"id":93070,"name":"Comuna Sânzieni","stateId":4754,"stateCode":"CV","stateName":"Covasna County","countryId":181,"countryCode":"RO","countryName":"Romania","latitude":"46.06458000","longitude":"26.11790000","wikiDataId":"Q16426334"},{"id":92946,"name":"Comuna Sita Buzăului","stateId":4754,"stateCode":"CV","stateName":"Covasna County","countryId":181,"countryCode":"RO","countryName":"Romania","latitude":"45.61959000","longitude":"26.10621000","wikiDataId":"Q5064539"},{"id":93214,"name":"Comuna Turia","stateId":4754,"stateCode":"CV","stateName":"Covasna County","countryId":181,"countryCode":"RO","countryName":"Romania","latitude":"46.02927000","longitude":"26.03953000","wikiDataId":"Q16426337"},{"id":93426,"name":"Comuna Vâlcele","stateId":4754,"stateCode":"CV","stateName":"Covasna County","countryId":181,"countryCode":"RO","countryName":"Romania","latitude":"45.81736000","longitude":"25.67925000","wikiDataId":"Q12100947"},{"id":93301,"name":"Comuna Valea Crişului","stateId":4754,"stateCode":"CV","stateName":"Covasna County","countryId":181,"countryCode":"RO","countryName":"Romania","latitude":"45.92372000","longitude":"25.78483000","wikiDataId":"Q3553531"},{"id":93311,"name":"Comuna Valea Mare","stateId":4754,"stateCode":"CV","stateName":"Covasna County","countryId":181,"countryCode":"RO","countryName":"Romania","latitude":"45.76389000","longitude":"26.01435000","wikiDataId":"Q16426341"},{"id":93442,"name":"Comuna Vârghiş","stateId":4754,"stateCode":"CV","stateName":"Covasna County","countryId":181,"countryCode":"RO","countryName":"Romania","latitude":"46.12737000","longitude":"25.55901000","wikiDataId":"Q74698"},{"id":93483,"name":"Comuna Zăbala","stateId":4754,"stateCode":"CV","stateName":"Covasna County","countryId":181,"countryCode":"RO","countryName":"Romania","latitude":"45.89141000","longitude":"26.13251000","wikiDataId":"Q16426348"},{"id":93468,"name":"Comuna Zagon","stateId":4754,"stateCode":"CV","stateName":"Covasna County","countryId":181,"countryCode":"RO","countryName":"Romania","latitude":"45.77961000","longitude":"26.12897000","wikiDataId":"Q16426345"},{"id":93680,"name":"Covasna","stateId":4754,"stateCode":"CV","stateName":"Covasna County","countryId":181,"countryCode":"RO","countryName":"Romania","latitude":"45.85000000","longitude":"26.18333000","wikiDataId":"Q12111045"},{"id":93891,"name":"Dalnic","stateId":4754,"stateCode":"CV","stateName":"Covasna County","countryId":181,"countryCode":"RO","countryName":"Romania","latitude":"45.92242000","longitude":"25.98741000","wikiDataId":"Q13583785"},{"id":93973,"name":"Dobârlău","stateId":4754,"stateCode":"CV","stateName":"Covasna County","countryId":181,"countryCode":"RO","countryName":"Romania","latitude":"45.73333000","longitude":"25.88333000","wikiDataId":"Q907153"},{"id":93945,"name":"Doboșeni","stateId":4754,"stateCode":"CV","stateName":"Covasna County","countryId":181,"countryCode":"RO","countryName":"Romania","latitude":"46.12431000","longitude":"25.59347000","wikiDataId":"Q714334"},{"id":94145,"name":"Estelnic","stateId":4754,"stateCode":"CV","stateName":"Covasna County","countryId":181,"countryCode":"RO","countryName":"Romania","latitude":"46.10445000","longitude":"26.21262000","wikiDataId":"Q991762"},{"id":94170,"name":"Filia","stateId":4754,"stateCode":"CV","stateName":"Covasna County","countryId":181,"countryCode":"RO","countryName":"Romania","latitude":"46.14409000","longitude":"25.62140000","wikiDataId":"Q713350"},{"id":94190,"name":"Floroaia","stateId":4754,"stateCode":"CV","stateName":"Covasna County","countryId":181,"countryCode":"RO","countryName":"Romania","latitude":"45.69497000","longitude":"26.01563000","wikiDataId":"Q262890"},{"id":94299,"name":"Ghelinţa","stateId":4754,"stateCode":"CV","stateName":"Covasna County","countryId":181,"countryCode":"RO","countryName":"Romania","latitude":"45.95000000","longitude":"26.23333000","wikiDataId":"Q1008918"},{"id":94316,"name":"Ghidfalău","stateId":4754,"stateCode":"CV","stateName":"Covasna County","countryId":181,"countryCode":"RO","countryName":"Romania","latitude":"45.90000000","longitude":"25.85000000","wikiDataId":"Q1010410"},{"id":94597,"name":"Hăghig","stateId":4754,"stateCode":"CV","stateName":"Covasna County","countryId":181,"countryCode":"RO","countryName":"Romania","latitude":"45.83333000","longitude":"25.58333000","wikiDataId":"Q19025"},{"id":94530,"name":"Herculian","stateId":4754,"stateCode":"CV","stateName":"Covasna County","countryId":181,"countryCode":"RO","countryName":"Romania","latitude":"46.13402000","longitude":"25.70977000","wikiDataId":"Q713958"},{"id":94657,"name":"Ilieni","stateId":4754,"stateCode":"CV","stateName":"Covasna County","countryId":181,"countryCode":"RO","countryName":"Romania","latitude":"45.80000000","longitude":"25.76667000","wikiDataId":"Q1096328"},{"id":97026,"name":"Întorsura Buzăului","stateId":4754,"stateCode":"CV","stateName":"Covasna County","countryId":181,"countryCode":"RO","countryName":"Romania","latitude":"45.68333000","longitude":"26.03333000","wikiDataId":"Q2606836"},{"id":94776,"name":"Lemnia","stateId":4754,"stateCode":"CV","stateName":"Covasna County","countryId":181,"countryCode":"RO","countryName":"Romania","latitude":"46.05000000","longitude":"26.26667000","wikiDataId":"Q19416"},{"id":94879,"name":"Lunga","stateId":4754,"stateCode":"CV","stateName":"Covasna County","countryId":181,"countryCode":"RO","countryName":"Romania","latitude":"46.01822000","longitude":"26.21208000","wikiDataId":"Q714128"},{"id":94913,"name":"Malnaş","stateId":4754,"stateCode":"CV","stateName":"Covasna County","countryId":181,"countryCode":"RO","countryName":"Romania","latitude":"46.01667000","longitude":"25.83333000","wikiDataId":"Q3282268"},{"id":94951,"name":"Mereni","stateId":4754,"stateCode":"CV","stateName":"Covasna County","countryId":181,"countryCode":"RO","countryName":"Romania","latitude":"46.07924000","longitude":"26.23597000","wikiDataId":"Q32523"},{"id":94968,"name":"Micfalău","stateId":4754,"stateCode":"CV","stateName":"Covasna County","countryId":181,"countryCode":"RO","countryName":"Romania","latitude":"46.05342000","longitude":"25.83737000","wikiDataId":"Q45706"},{"id":95038,"name":"Moacşa","stateId":4754,"stateCode":"CV","stateName":"Covasna County","countryId":181,"countryCode":"RO","countryName":"Romania","latitude":"45.86667000","longitude":"25.96667000","wikiDataId":"Q3317558"},{"id":95180,"name":"Municipiul Sfântu Gheorghe","stateId":4754,"stateCode":"CV","stateName":"Covasna County","countryId":181,"countryCode":"RO","countryName":"Romania","latitude":"45.83806000","longitude":"25.79730000","wikiDataId":"Q202362"},{"id":95193,"name":"Municipiul Târgu Secuiesc","stateId":4754,"stateCode":"CV","stateName":"Covasna County","countryId":181,"countryCode":"RO","countryName":"Romania","latitude":"46.00589000","longitude":"26.17155000","wikiDataId":"Q338066"},{"id":95421,"name":"Ojdula","stateId":4754,"stateCode":"CV","stateName":"Covasna County","countryId":181,"countryCode":"RO","countryName":"Romania","latitude":"45.98333000","longitude":"26.25000000","wikiDataId":"Q1092880"},{"id":95458,"name":"Oraş Baraolt","stateId":4754,"stateCode":"CV","stateName":"Covasna County","countryId":181,"countryCode":"RO","countryName":"Romania","latitude":"46.06250000","longitude":"25.60505000","wikiDataId":"Q533078"},{"id":95499,"name":"Oraş Covasna","stateId":4754,"stateCode":"CV","stateName":"Covasna County","countryId":181,"countryCode":"RO","countryName":"Romania","latitude":"45.83527000","longitude":"26.16637000","wikiDataId":"Q837157"},{"id":95628,"name":"Oraş Întorsura Buzãului","stateId":4754,"stateCode":"CV","stateName":"Covasna County","countryId":181,"countryCode":"RO","countryName":"Romania","latitude":"45.68539000","longitude":"26.01260000","wikiDataId":"Q292769"},{"id":95687,"name":"Ozun","stateId":4754,"stateCode":"CV","stateName":"Covasna County","countryId":181,"countryCode":"RO","countryName":"Romania","latitude":"45.80000000","longitude":"25.85000000","wikiDataId":"Q1096772"},{"id":96019,"name":"Păpăuți","stateId":4754,"stateCode":"CV","stateName":"Covasna County","countryId":181,"countryCode":"RO","countryName":"Romania","latitude":"45.78333000","longitude":"26.13333000","wikiDataId":"Q714004"},{"id":95859,"name":"Poian","stateId":4754,"stateCode":"CV","stateName":"Covasna County","countryId":181,"countryCode":"RO","countryName":"Romania","latitude":"46.06667000","longitude":"26.15000000","wikiDataId":"Q1094523"},{"id":96073,"name":"Reci","stateId":4754,"stateCode":"CV","stateName":"Covasna County","countryId":181,"countryCode":"RO","countryName":"Romania","latitude":"45.85000000","longitude":"25.93333000","wikiDataId":"Q14253317"},{"id":105982,"name":"Sânzieni","stateId":4754,"stateCode":"CV","stateName":"Covasna County","countryId":181,"countryCode":"RO","countryName":"Romania","latitude":"46.05000000","longitude":"26.13333000","wikiDataId":"Q1021475"},{"id":96330,"name":"Sfântu Gheorghe","stateId":4754,"stateCode":"CV","stateName":"Covasna County","countryId":181,"countryCode":"RO","countryName":"Romania","latitude":"45.86667000","longitude":"25.78333000","wikiDataId":"Q13360897"},{"id":96360,"name":"Sita Buzăului","stateId":4754,"stateCode":"CV","stateName":"Covasna County","countryId":181,"countryCode":"RO","countryName":"Romania","latitude":"45.65000000","longitude":"26.06667000","wikiDataId":"Q1092588"},{"id":96588,"name":"Târgu Secuiesc","stateId":4754,"stateCode":"CV","stateName":"Covasna County","countryId":181,"countryCode":"RO","countryName":"Romania","latitude":"46.00000000","longitude":"26.13333000","wikiDataId":"Q16898396"},{"id":96562,"name":"Turia","stateId":4754,"stateCode":"CV","stateName":"Covasna County","countryId":181,"countryCode":"RO","countryName":"Romania","latitude":"46.03333000","longitude":"26.05000000","wikiDataId":"Q1093353"},{"id":96918,"name":"Vâlcele","stateId":4754,"stateCode":"CV","stateName":"Covasna County","countryId":181,"countryCode":"RO","countryName":"Romania","latitude":"45.85000000","longitude":"25.68333000","wikiDataId":"Q10832330"},{"id":96717,"name":"Valea Crişului","stateId":4754,"stateCode":"CV","stateName":"Covasna County","countryId":181,"countryCode":"RO","countryName":"Romania","latitude":"45.91667000","longitude":"25.76667000","wikiDataId":"Q1096174"},{"id":96735,"name":"Valea Mare","stateId":4754,"stateCode":"CV","stateName":"Covasna County","countryId":181,"countryCode":"RO","countryName":"Romania","latitude":"45.76667000","longitude":"26.00000000","wikiDataId":"Q64163"},{"id":96941,"name":"Vârghiş","stateId":4754,"stateCode":"CV","stateName":"Covasna County","countryId":181,"countryCode":"RO","countryName":"Romania","latitude":"46.13333000","longitude":"25.53333000","wikiDataId":"Q3563934"},{"id":97008,"name":"Zăbala","stateId":4754,"stateCode":"CV","stateName":"Covasna County","countryId":181,"countryCode":"RO","countryName":"Romania","latitude":"45.90000000","longitude":"26.18333000","wikiDataId":"Q1070545"},{"id":96979,"name":"Zagon","stateId":4754,"stateCode":"CV","stateName":"Covasna County","countryId":181,"countryCode":"RO","countryName":"Romania","latitude":"45.76667000","longitude":"26.11667000","wikiDataId":"Q82557"}]