[{"id":23577,"name":"Alt Tucheband","stateId":3013,"stateCode":"BB","stateName":"Brandenburg","countryId":82,"countryCode":"DE","countryName":"Germany","latitude":"52.53732000","longitude":"14.51225000","wikiDataId":"Q31876682"},{"id":23585,"name":"Altdöbern","stateId":3013,"stateCode":"BB","stateName":"Brandenburg","countryId":82,"countryCode":"DE","countryName":"Germany","latitude":"51.65000000","longitude":"14.03333000","wikiDataId":"Q435325"},{"id":23626,"name":"Altlandsberg","stateId":3013,"stateCode":"BB","stateName":"Brandenburg","countryId":82,"countryCode":"DE","countryName":"Germany","latitude":"52.56503000","longitude":"13.72815000","wikiDataId":"Q442339"},{"id":23655,"name":"Angermünde","stateId":3013,"stateCode":"BB","stateName":"Brandenburg","countryId":82,"countryCode":"DE","countryName":"Germany","latitude":"53.01499000","longitude":"13.99924000","wikiDataId":"Q490066"},{"id":23764,"name":"Bad Belzig","stateId":3013,"stateCode":"BB","stateName":"Brandenburg","countryId":82,"countryCode":"DE","countryName":"Germany","latitude":"52.14184000","longitude":"12.59272000","wikiDataId":"Q61630"},{"id":23798,"name":"Bad Freienwalde","stateId":3013,"stateCode":"BB","stateName":"Brandenburg","countryId":82,"countryCode":"DE","countryName":"Germany","latitude":"52.78730000","longitude":"14.03040000","wikiDataId":"Q427655"},{"id":23829,"name":"Bad Liebenwerda","stateId":3013,"stateCode":"BB","stateName":"Brandenburg","countryId":82,"countryCode":"DE","countryName":"Germany","latitude":"51.51826000","longitude":"13.39459000","wikiDataId":"Q589277"},{"id":23853,"name":"Bad Saarow","stateId":3013,"stateCode":"BB","stateName":"Brandenburg","countryId":82,"countryCode":"DE","countryName":"Germany","latitude":"52.28333000","longitude":"14.06667000","wikiDataId":"Q49421"},{"id":23885,"name":"Bad Wilsnack","stateId":3013,"stateCode":"BB","stateName":"Brandenburg","countryId":82,"countryCode":"DE","countryName":"Germany","latitude":"52.95607000","longitude":"11.94903000","wikiDataId":"Q570108"},{"id":23947,"name":"Baruth","stateId":3013,"stateCode":"BB","stateName":"Brandenburg","countryId":82,"countryCode":"DE","countryName":"Germany","latitude":"52.04468000","longitude":"13.50270000","wikiDataId":"Q311543"},{"id":23983,"name":"Beelitz","stateId":3013,"stateCode":"BB","stateName":"Brandenburg","countryId":82,"countryCode":"DE","countryName":"Germany","latitude":"52.23812000","longitude":"12.97140000","wikiDataId":"Q544439"},{"id":23987,"name":"Beeskow","stateId":3013,"stateCode":"BB","stateName":"Brandenburg","countryId":82,"countryCode":"DE","countryName":"Germany","latitude":"52.17291000","longitude":"14.24597000","wikiDataId":"Q572615"},{"id":24017,"name":"Bensdorf","stateId":3013,"stateCode":"BB","stateName":"Brandenburg","countryId":82,"countryCode":"DE","countryName":"Germany","latitude":"52.41667000","longitude":"12.33333000","wikiDataId":"Q695574"},{"id":24050,"name":"Berkenbrück","stateId":3013,"stateCode":"BB","stateName":"Brandenburg","countryId":82,"countryCode":"DE","countryName":"Germany","latitude":"52.35000000","longitude":"14.15000000","wikiDataId":"Q633869"},{"id":24061,"name":"Bernau bei Berlin","stateId":3013,"stateCode":"BB","stateName":"Brandenburg","countryId":82,"countryCode":"DE","countryName":"Germany","latitude":"52.67982000","longitude":"13.58708000","wikiDataId":"Q9300"},{"id":24079,"name":"Bestensee","stateId":3013,"stateCode":"BB","stateName":"Brandenburg","countryId":82,"countryCode":"DE","countryName":"Germany","latitude":"52.23978000","longitude":"13.63732000","wikiDataId":"Q582789"},{"id":24112,"name":"Biesenthal","stateId":3013,"stateCode":"BB","stateName":"Brandenburg","countryId":82,"countryCode":"DE","countryName":"Germany","latitude":"52.76616000","longitude":"13.64416000","wikiDataId":"Q541642"},{"id":24138,"name":"Birkenwerder","stateId":3013,"stateCode":"BB","stateName":"Brandenburg","countryId":82,"countryCode":"DE","countryName":"Germany","latitude":"52.68333000","longitude":"13.28333000","wikiDataId":"Q587077"},{"id":24181,"name":"Bliesdorf","stateId":3013,"stateCode":"BB","stateName":"Brandenburg","countryId":82,"countryCode":"DE","countryName":"Germany","latitude":"52.69298000","longitude":"14.15949000","wikiDataId":"Q589608"},{"id":24246,"name":"Borkheide","stateId":3013,"stateCode":"BB","stateName":"Brandenburg","countryId":82,"countryCode":"DE","countryName":"Germany","latitude":"52.21667000","longitude":"12.85000000","wikiDataId":"Q624241"},{"id":24248,"name":"Borkwalde","stateId":3013,"stateCode":"BB","stateName":"Brandenburg","countryId":82,"countryCode":"DE","countryName":"Germany","latitude":"52.25000000","longitude":"12.83333000","wikiDataId":"Q623947"},{"id":24280,"name":"Brandenburg an der Havel","stateId":3013,"stateCode":"BB","stateName":"Brandenburg","countryId":82,"countryCode":"DE","countryName":"Germany","latitude":"52.41667000","longitude":"12.55000000","wikiDataId":"Q3931"},{"id":24293,"name":"Breddin","stateId":3013,"stateCode":"BB","stateName":"Brandenburg","countryId":82,"countryCode":"DE","countryName":"Germany","latitude":"52.88560000","longitude":"12.22366000","wikiDataId":"Q625070"},{"id":24297,"name":"Breese","stateId":3013,"stateCode":"BB","stateName":"Brandenburg","countryId":82,"countryCode":"DE","countryName":"Germany","latitude":"53.00000000","longitude":"11.80000000","wikiDataId":"Q20753"},{"id":24331,"name":"Brieselang","stateId":3013,"stateCode":"BB","stateName":"Brandenburg","countryId":82,"countryCode":"DE","countryName":"Germany","latitude":"52.58333000","longitude":"13.00000000","wikiDataId":"Q582671"},{"id":24332,"name":"Briesen","stateId":3013,"stateCode":"BB","stateName":"Brandenburg","countryId":82,"countryCode":"DE","countryName":"Germany","latitude":"52.34383000","longitude":"14.27804000","wikiDataId":"Q31921717"},{"id":24333,"name":"Brieskow-Finkenheerd","stateId":3013,"stateCode":"BB","stateName":"Brandenburg","countryId":82,"countryCode":"DE","countryName":"Germany","latitude":"52.25387000","longitude":"14.57285000","wikiDataId":"Q627799"},{"id":24337,"name":"Britz","stateId":3013,"stateCode":"BB","stateName":"Brandenburg","countryId":82,"countryCode":"DE","countryName":"Germany","latitude":"52.88726000","longitude":"13.81119000","wikiDataId":"Q31921832"},{"id":24365,"name":"Brück","stateId":3013,"stateCode":"BB","stateName":"Brandenburg","countryId":82,"countryCode":"DE","countryName":"Germany","latitude":"52.19766000","longitude":"12.76868000","wikiDataId":"Q81779"},{"id":24374,"name":"Brüssow","stateId":3013,"stateCode":"BB","stateName":"Brandenburg","countryId":82,"countryCode":"DE","countryName":"Germany","latitude":"53.39971000","longitude":"14.12533000","wikiDataId":"Q537852"},{"id":24396,"name":"Buckow","stateId":3013,"stateCode":"BB","stateName":"Brandenburg","countryId":82,"countryCode":"DE","countryName":"Germany","latitude":"52.56610000","longitude":"14.07429000","wikiDataId":"Q999609"},{"id":24406,"name":"Burg","stateId":3013,"stateCode":"BB","stateName":"Brandenburg","countryId":82,"countryCode":"DE","countryName":"Germany","latitude":"51.83448000","longitude":"14.14856000","wikiDataId":"Q31925602"},{"id":24513,"name":"Calau","stateId":3013,"stateCode":"BB","stateName":"Brandenburg","countryId":82,"countryCode":"DE","countryName":"Germany","latitude":"51.74402000","longitude":"13.95329000","wikiDataId":"Q532803"},{"id":24525,"name":"Casekow","stateId":3013,"stateCode":"BB","stateName":"Brandenburg","countryId":82,"countryCode":"DE","countryName":"Germany","latitude":"53.21117000","longitude":"14.20824000","wikiDataId":"Q624127"},{"id":24535,"name":"Chorin","stateId":3013,"stateCode":"BB","stateName":"Brandenburg","countryId":82,"countryCode":"DE","countryName":"Germany","latitude":"52.90197000","longitude":"13.87153000","wikiDataId":"Q586072"},{"id":24556,"name":"Cottbus","stateId":3013,"stateCode":"BB","stateName":"Brandenburg","countryId":82,"countryCode":"DE","countryName":"Germany","latitude":"51.75769000","longitude":"14.32888000","wikiDataId":"Q31939660"},{"id":24564,"name":"Crinitz","stateId":3013,"stateCode":"BB","stateName":"Brandenburg","countryId":82,"countryCode":"DE","countryName":"Germany","latitude":"51.73333000","longitude":"13.76667000","wikiDataId":"Q582057"},{"id":24583,"name":"Dahme","stateId":3013,"stateCode":"BB","stateName":"Brandenburg","countryId":82,"countryCode":"DE","countryName":"Germany","latitude":"51.87008000","longitude":"13.42743000","wikiDataId":"Q622572"},{"id":24587,"name":"Dallgow-Döberitz","stateId":3013,"stateCode":"BB","stateName":"Brandenburg","countryId":82,"countryCode":"DE","countryName":"Germany","latitude":"52.54269000","longitude":"13.05837000","wikiDataId":"Q583555"},{"id":24713,"name":"Doberlug-Kirchhain","stateId":3013,"stateCode":"BB","stateName":"Brandenburg","countryId":82,"countryCode":"DE","countryName":"Germany","latitude":"51.62578000","longitude":"13.56232000","wikiDataId":"Q371098"},{"id":24758,"name":"Drebkau","stateId":3013,"stateCode":"BB","stateName":"Brandenburg","countryId":82,"countryCode":"DE","countryName":"Germany","latitude":"51.65412000","longitude":"14.22316000","wikiDataId":"Q572518"},{"id":24759,"name":"Dreetz","stateId":3013,"stateCode":"BB","stateName":"Brandenburg","countryId":82,"countryCode":"DE","countryName":"Germany","latitude":"52.80297000","longitude":"12.45961000","wikiDataId":"Q572518"},{"id":24839,"name":"Eberswalde","stateId":3013,"stateCode":"BB","stateName":"Brandenburg","countryId":82,"countryCode":"DE","countryName":"Germany","latitude":"52.83492000","longitude":"13.81951000","wikiDataId":"Q9306"},{"id":24907,"name":"Eichwalde","stateId":3013,"stateCode":"BB","stateName":"Brandenburg","countryId":82,"countryCode":"DE","countryName":"Germany","latitude":"52.36667000","longitude":"13.61667000","wikiDataId":"Q583542"},{"id":24929,"name":"Eisenhüttenstadt","stateId":3013,"stateCode":"BB","stateName":"Brandenburg","countryId":82,"countryCode":"DE","countryName":"Germany","latitude":"52.15000000","longitude":"14.65000000","wikiDataId":"Q16106"},{"id":24972,"name":"Elsterwerda","stateId":3013,"stateCode":"BB","stateName":"Brandenburg","countryId":82,"countryCode":"DE","countryName":"Germany","latitude":"51.46043000","longitude":"13.52001000","wikiDataId":"Q584473"},{"id":25049,"name":"Erkner","stateId":3013,"stateCode":"BB","stateName":"Brandenburg","countryId":82,"countryCode":"DE","countryName":"Germany","latitude":"52.42000000","longitude":"13.75437000","wikiDataId":"Q572392"},{"id":25133,"name":"Falkenberg","stateId":3013,"stateCode":"BB","stateName":"Brandenburg","countryId":82,"countryCode":"DE","countryName":"Germany","latitude":"51.58557000","longitude":"13.24347000","wikiDataId":"Q32000922"},{"id":25138,"name":"Falkensee","stateId":3013,"stateCode":"BB","stateName":"Brandenburg","countryId":82,"countryCode":"DE","countryName":"Germany","latitude":"52.56014000","longitude":"13.09270000","wikiDataId":"Q14842"},{"id":25149,"name":"Fehrbellin","stateId":3013,"stateCode":"BB","stateName":"Brandenburg","countryId":82,"countryCode":"DE","countryName":"Germany","latitude":"52.81350000","longitude":"12.76440000","wikiDataId":"Q626792"},{"id":25169,"name":"Fichtenwalde","stateId":3013,"stateCode":"BB","stateName":"Brandenburg","countryId":82,"countryCode":"DE","countryName":"Germany","latitude":"52.28038000","longitude":"12.88349000","wikiDataId":"Q502418"},{"id":25176,"name":"Finsterwalde","stateId":3013,"stateCode":"BB","stateName":"Brandenburg","countryId":82,"countryCode":"DE","countryName":"Germany","latitude":"51.63388000","longitude":"13.70662000","wikiDataId":"Q588905"},{"id":25207,"name":"Forst","stateId":3013,"stateCode":"BB","stateName":"Brandenburg","countryId":82,"countryCode":"DE","countryName":"Germany","latitude":"51.73544000","longitude":"14.63971000","wikiDataId":"Q572545"},{"id":25221,"name":"Frankfurt (Oder)","stateId":3013,"stateCode":"BB","stateName":"Brandenburg","countryId":82,"countryCode":"DE","countryName":"Germany","latitude":"52.34714000","longitude":"14.55062000","wikiDataId":"Q4024"},{"id":25282,"name":"Friedland","stateId":3013,"stateCode":"BB","stateName":"Brandenburg","countryId":82,"countryCode":"DE","countryName":"Germany","latitude":"52.10493000","longitude":"14.26399000","wikiDataId":"Q32018367"},{"id":25297,"name":"Friesack","stateId":3013,"stateCode":"BB","stateName":"Brandenburg","countryId":82,"countryCode":"DE","countryName":"Germany","latitude":"52.73764000","longitude":"12.57969000","wikiDataId":"Q585632"},{"id":25328,"name":"Fürstenberg","stateId":3013,"stateCode":"BB","stateName":"Brandenburg","countryId":82,"countryCode":"DE","countryName":"Germany","latitude":"53.18427000","longitude":"13.14442000","wikiDataId":"Q564247"},{"id":25334,"name":"Fürstenwalde","stateId":3013,"stateCode":"BB","stateName":"Brandenburg","countryId":82,"countryCode":"DE","countryName":"Germany","latitude":"52.36067000","longitude":"14.06185000","wikiDataId":"Q509768"},{"id":25373,"name":"Gartz","stateId":3013,"stateCode":"BB","stateName":"Brandenburg","countryId":82,"countryCode":"DE","countryName":"Germany","latitude":"53.20829000","longitude":"14.39226000","wikiDataId":"Q571998"},{"id":25465,"name":"Gerswalde","stateId":3013,"stateCode":"BB","stateName":"Brandenburg","countryId":82,"countryCode":"DE","countryName":"Germany","latitude":"53.16988000","longitude":"13.74853000","wikiDataId":"Q625872"},{"id":25512,"name":"Glienicke","stateId":3013,"stateCode":"BB","stateName":"Brandenburg","countryId":82,"countryCode":"DE","countryName":"Germany","latitude":"52.63353000","longitude":"13.32564000","wikiDataId":"Q649102"},{"id":25536,"name":"Golßen","stateId":3013,"stateCode":"BB","stateName":"Brandenburg","countryId":82,"countryCode":"DE","countryName":"Germany","latitude":"51.97204000","longitude":"13.60115000","wikiDataId":"Q544892"},{"id":25535,"name":"Golzow","stateId":3013,"stateCode":"BB","stateName":"Brandenburg","countryId":82,"countryCode":"DE","countryName":"Germany","latitude":"52.27617000","longitude":"12.60052000","wikiDataId":"Q550977"},{"id":25786,"name":"Görzke","stateId":3013,"stateCode":"BB","stateName":"Brandenburg","countryId":82,"countryCode":"DE","countryName":"Germany","latitude":"52.17179000","longitude":"12.37506000","wikiDataId":"Q625844"},{"id":25575,"name":"Gramzow","stateId":3013,"stateCode":"BB","stateName":"Brandenburg","countryId":82,"countryCode":"DE","countryName":"Germany","latitude":"53.21246000","longitude":"14.00748000","wikiDataId":"Q636566"},{"id":25577,"name":"Gransee","stateId":3013,"stateCode":"BB","stateName":"Brandenburg","countryId":82,"countryCode":"DE","countryName":"Germany","latitude":"53.00704000","longitude":"13.15750000","wikiDataId":"Q585627"},{"id":25730,"name":"Gröden","stateId":3013,"stateCode":"BB","stateName":"Brandenburg","countryId":82,"countryCode":"DE","countryName":"Germany","latitude":"51.40000000","longitude":"13.56667000","wikiDataId":"Q705627"},{"id":25627,"name":"Groß Köris","stateId":3013,"stateCode":"BB","stateName":"Brandenburg","countryId":82,"countryCode":"DE","countryName":"Germany","latitude":"52.16587000","longitude":"13.65935000","wikiDataId":"Q548429"},{"id":25625,"name":"Groß Kreutz","stateId":3013,"stateCode":"BB","stateName":"Brandenburg","countryId":82,"countryCode":"DE","countryName":"Germany","latitude":"52.40281000","longitude":"12.77940000","wikiDataId":"Q33440552"},{"id":25629,"name":"Groß Lindow","stateId":3013,"stateCode":"BB","stateName":"Brandenburg","countryId":82,"countryCode":"DE","countryName":"Germany","latitude":"52.23333000","longitude":"14.53333000","wikiDataId":"Q624110"},{"id":25634,"name":"Groß Pankow","stateId":3013,"stateCode":"BB","stateName":"Brandenburg","countryId":82,"countryCode":"DE","countryName":"Germany","latitude":"53.11952000","longitude":"12.04975000","wikiDataId":"Q370074"},{"id":25653,"name":"Großbeeren","stateId":3013,"stateCode":"BB","stateName":"Brandenburg","countryId":82,"countryCode":"DE","countryName":"Germany","latitude":"52.35862000","longitude":"13.30994000","wikiDataId":"Q628528"},{"id":25684,"name":"Großkmehlen","stateId":3013,"stateCode":"BB","stateName":"Brandenburg","countryId":82,"countryCode":"DE","countryName":"Germany","latitude":"51.37901000","longitude":"13.72501000","wikiDataId":"Q585221"},{"id":25703,"name":"Großräschen","stateId":3013,"stateCode":"BB","stateName":"Brandenburg","countryId":82,"countryCode":"DE","countryName":"Germany","latitude":"51.58760000","longitude":"14.01093000","wikiDataId":"Q588844"},{"id":25710,"name":"Großthiemig","stateId":3013,"stateCode":"BB","stateName":"Brandenburg","countryId":82,"countryCode":"DE","countryName":"Germany","latitude":"51.38333000","longitude":"13.66667000","wikiDataId":"Q551468"},{"id":25714,"name":"Großwoltersdorf","stateId":3013,"stateCode":"BB","stateName":"Brandenburg","countryId":82,"countryCode":"DE","countryName":"Germany","latitude":"53.06667000","longitude":"13.10000000","wikiDataId":"Q671788"},{"id":25741,"name":"Grünheide","stateId":3013,"stateCode":"BB","stateName":"Brandenburg","countryId":82,"countryCode":"DE","countryName":"Germany","latitude":"52.42343000","longitude":"13.81324000","wikiDataId":"Q622449"},{"id":25748,"name":"Guben","stateId":3013,"stateCode":"BB","stateName":"Brandenburg","countryId":82,"countryCode":"DE","countryName":"Germany","latitude":"51.94987000","longitude":"14.71447000","wikiDataId":"Q494747"},{"id":25753,"name":"Gumtow","stateId":3013,"stateCode":"BB","stateName":"Brandenburg","countryId":82,"countryCode":"DE","countryName":"Germany","latitude":"52.98333000","longitude":"12.25000000","wikiDataId":"Q628142"},{"id":25842,"name":"Halbe","stateId":3013,"stateCode":"BB","stateName":"Brandenburg","countryId":82,"countryCode":"DE","countryName":"Germany","latitude":"52.11667000","longitude":"13.70000000","wikiDataId":"Q531652"},{"id":25996,"name":"Heiligengrabe","stateId":3013,"stateCode":"BB","stateName":"Brandenburg","countryId":82,"countryCode":"DE","countryName":"Germany","latitude":"53.14461000","longitude":"12.36254000","wikiDataId":"Q520280"},{"id":26051,"name":"Hennigsdorf","stateId":3013,"stateCode":"BB","stateName":"Brandenburg","countryId":82,"countryCode":"DE","countryName":"Germany","latitude":"52.63598000","longitude":"13.20419000","wikiDataId":"Q583462"},{"id":26098,"name":"Herzberg","stateId":3013,"stateCode":"BB","stateName":"Brandenburg","countryId":82,"countryCode":"DE","countryName":"Germany","latitude":"51.68692000","longitude":"13.22016000","wikiDataId":"Q544699"},{"id":26166,"name":"Hirschfeld","stateId":3013,"stateCode":"BB","stateName":"Brandenburg","countryId":82,"countryCode":"DE","countryName":"Germany","latitude":"51.38333000","longitude":"13.61667000","wikiDataId":"Q502960"},{"id":26195,"name":"Hohen Neuendorf","stateId":3013,"stateCode":"BB","stateName":"Brandenburg","countryId":82,"countryCode":"DE","countryName":"Germany","latitude":"52.67631000","longitude":"13.27775000","wikiDataId":"Q545340"},{"id":26199,"name":"Hohenbocka","stateId":3013,"stateCode":"BB","stateName":"Brandenburg","countryId":82,"countryCode":"DE","countryName":"Germany","latitude":"51.43099000","longitude":"14.00982000","wikiDataId":"Q177052"},{"id":26208,"name":"Hohenleipisch","stateId":3013,"stateCode":"BB","stateName":"Brandenburg","countryId":82,"countryCode":"DE","countryName":"Germany","latitude":"51.50000000","longitude":"13.55000000","wikiDataId":"Q551451"},{"id":26424,"name":"Jacobsdorf","stateId":3013,"stateCode":"BB","stateName":"Brandenburg","countryId":82,"countryCode":"DE","countryName":"Germany","latitude":"52.33333000","longitude":"14.35000000","wikiDataId":"Q636991"},{"id":26464,"name":"Jänschwalde","stateId":3013,"stateCode":"BB","stateName":"Brandenburg","countryId":82,"countryCode":"DE","countryName":"Germany","latitude":"51.86066000","longitude":"14.49813000","wikiDataId":"Q572540"},{"id":26452,"name":"Joachimsthal","stateId":3013,"stateCode":"BB","stateName":"Brandenburg","countryId":82,"countryCode":"DE","countryName":"Germany","latitude":"52.97945000","longitude":"13.74493000","wikiDataId":"Q535551"},{"id":26476,"name":"Jüterbog","stateId":3013,"stateCode":"BB","stateName":"Brandenburg","countryId":82,"countryCode":"DE","countryName":"Germany","latitude":"51.99607000","longitude":"13.07979000","wikiDataId":"Q486541"},{"id":26526,"name":"Karstädt","stateId":3013,"stateCode":"BB","stateName":"Brandenburg","countryId":82,"countryCode":"DE","countryName":"Germany","latitude":"53.16215000","longitude":"11.74242000","wikiDataId":"Q627161"},{"id":26579,"name":"Ketzin","stateId":3013,"stateCode":"BB","stateName":"Brandenburg","countryId":82,"countryCode":"DE","countryName":"Germany","latitude":"52.47809000","longitude":"12.84530000","wikiDataId":"Q583450"},{"id":26675,"name":"Kleinmachnow","stateId":3013,"stateCode":"BB","stateName":"Brandenburg","countryId":82,"countryCode":"DE","countryName":"Germany","latitude":"52.40786000","longitude":"13.22514000","wikiDataId":"Q104192"},{"id":26693,"name":"Kloster Lehnin","stateId":3013,"stateCode":"BB","stateName":"Brandenburg","countryId":82,"countryCode":"DE","countryName":"Germany","latitude":"52.32039000","longitude":"12.74320000","wikiDataId":"Q703135"},{"id":26713,"name":"Kolkwitz","stateId":3013,"stateCode":"BB","stateName":"Brandenburg","countryId":82,"countryCode":"DE","countryName":"Germany","latitude":"51.75000000","longitude":"14.25000000","wikiDataId":"Q32066528"},{"id":26822,"name":"Königs Wusterhausen","stateId":3013,"stateCode":"BB","stateName":"Brandenburg","countryId":82,"countryCode":"DE","countryName":"Germany","latitude":"52.30141000","longitude":"13.63300000","wikiDataId":"Q16013"},{"id":26749,"name":"Kremmen","stateId":3013,"stateCode":"BB","stateName":"Brandenburg","countryId":82,"countryCode":"DE","countryName":"Germany","latitude":"52.76216000","longitude":"13.02515000","wikiDataId":"Q587094"},{"id":26811,"name":"Kyritz","stateId":3013,"stateCode":"BB","stateName":"Brandenburg","countryId":82,"countryCode":"DE","countryName":"Germany","latitude":"52.94212000","longitude":"12.39704000","wikiDataId":"Q505160"},{"id":26959,"name":"Lauchhammer","stateId":3013,"stateCode":"BB","stateName":"Brandenburg","countryId":82,"countryCode":"DE","countryName":"Germany","latitude":"51.48813000","longitude":"13.76623000","wikiDataId":"Q589247"},{"id":26995,"name":"Lebus","stateId":3013,"stateCode":"BB","stateName":"Brandenburg","countryId":82,"countryCode":"DE","countryName":"Germany","latitude":"52.42719000","longitude":"14.53235000","wikiDataId":"Q26362"},{"id":26998,"name":"Leegebruch","stateId":3013,"stateCode":"BB","stateName":"Brandenburg","countryId":82,"countryCode":"DE","countryName":"Germany","latitude":"52.72340000","longitude":"13.19304000","wikiDataId":"Q531735"},{"id":27050,"name":"Lenzen","stateId":3013,"stateCode":"BB","stateName":"Brandenburg","countryId":82,"countryCode":"DE","countryName":"Germany","latitude":"53.09176000","longitude":"11.47453000","wikiDataId":"Q625768"},{"id":27055,"name":"Letschin","stateId":3013,"stateCode":"BB","stateName":"Brandenburg","countryId":82,"countryCode":"DE","countryName":"Germany","latitude":"52.64379000","longitude":"14.36007000","wikiDataId":"Q585206"},{"id":27089,"name":"Liebenwalde","stateId":3013,"stateCode":"BB","stateName":"Brandenburg","countryId":82,"countryCode":"DE","countryName":"Germany","latitude":"52.87125000","longitude":"13.39465000","wikiDataId":"Q583458"},{"id":27090,"name":"Lieberose","stateId":3013,"stateCode":"BB","stateName":"Brandenburg","countryId":82,"countryCode":"DE","countryName":"Germany","latitude":"51.98491000","longitude":"14.29987000","wikiDataId":"Q584485"},{"id":27112,"name":"Lindow","stateId":3013,"stateCode":"BB","stateName":"Brandenburg","countryId":82,"countryCode":"DE","countryName":"Germany","latitude":"52.96689000","longitude":"12.98498000","wikiDataId":"Q625741"},{"id":27203,"name":"Lübben","stateId":3013,"stateCode":"BB","stateName":"Brandenburg","countryId":82,"countryCode":"DE","countryName":"Germany","latitude":"51.93814000","longitude":"13.88826000","wikiDataId":"Q584815"},{"id":27204,"name":"Lübbenau","stateId":3013,"stateCode":"BB","stateName":"Brandenburg","countryId":82,"countryCode":"DE","countryName":"Germany","latitude":"51.86217000","longitude":"13.95168000","wikiDataId":"Q147895"},{"id":27160,"name":"Luckau","stateId":3013,"stateCode":"BB","stateName":"Brandenburg","countryId":82,"countryCode":"DE","countryName":"Germany","latitude":"51.85245000","longitude":"13.70735000","wikiDataId":"Q539288"},{"id":27161,"name":"Luckenwalde","stateId":3013,"stateCode":"BB","stateName":"Brandenburg","countryId":82,"countryCode":"DE","countryName":"Germany","latitude":"52.09029000","longitude":"13.16772000","wikiDataId":"Q574146"},{"id":27164,"name":"Ludwigsfelde","stateId":3013,"stateCode":"BB","stateName":"Brandenburg","countryId":82,"countryCode":"DE","countryName":"Germany","latitude":"52.30322000","longitude":"13.25405000","wikiDataId":"Q574170"},{"id":27182,"name":"Lychen","stateId":3013,"stateCode":"BB","stateName":"Brandenburg","countryId":82,"countryCode":"DE","countryName":"Germany","latitude":"53.21242000","longitude":"13.31483000","wikiDataId":"Q635901"},{"id":27266,"name":"Manschnow","stateId":3013,"stateCode":"BB","stateName":"Brandenburg","countryId":82,"countryCode":"DE","countryName":"Germany","latitude":"52.54990000","longitude":"14.55332000","wikiDataId":"Q1769078"},{"id":27281,"name":"Marienwerder","stateId":3013,"stateCode":"BB","stateName":"Brandenburg","countryId":82,"countryCode":"DE","countryName":"Germany","latitude":"52.84208000","longitude":"13.59927000","wikiDataId":"Q326582"},{"id":27391,"name":"Melchow","stateId":3013,"stateCode":"BB","stateName":"Brandenburg","countryId":82,"countryCode":"DE","countryName":"Germany","latitude":"52.77613000","longitude":"13.70647000","wikiDataId":"Q665881"},{"id":27448,"name":"Meyenburg","stateId":3013,"stateCode":"BB","stateName":"Brandenburg","countryId":82,"countryCode":"DE","countryName":"Germany","latitude":"53.04524000","longitude":"14.23691000","wikiDataId":"Q518356"},{"id":27456,"name":"Michendorf","stateId":3013,"stateCode":"BB","stateName":"Brandenburg","countryId":82,"countryCode":"DE","countryName":"Germany","latitude":"52.31352000","longitude":"13.02996000","wikiDataId":"Q612992"},{"id":27467,"name":"Milmersdorf","stateId":3013,"stateCode":"BB","stateName":"Brandenburg","countryId":82,"countryCode":"DE","countryName":"Germany","latitude":"53.11185000","longitude":"13.64150000","wikiDataId":"Q623967"},{"id":27489,"name":"Mittenwalde","stateId":3013,"stateCode":"BB","stateName":"Brandenburg","countryId":82,"countryCode":"DE","countryName":"Germany","latitude":"52.26007000","longitude":"13.53945000","wikiDataId":"Q574811"},{"id":27495,"name":"Mixdorf","stateId":3013,"stateCode":"BB","stateName":"Brandenburg","countryId":82,"countryCode":"DE","countryName":"Germany","latitude":"52.20000000","longitude":"14.40000000","wikiDataId":"Q506228"},{"id":27592,"name":"Mühlberg","stateId":3013,"stateCode":"BB","stateName":"Brandenburg","countryId":82,"countryCode":"DE","countryName":"Germany","latitude":"51.43453000","longitude":"13.22177000","wikiDataId":"Q170301"},{"id":27607,"name":"Müllrose","stateId":3013,"stateCode":"BB","stateName":"Brandenburg","countryId":82,"countryCode":"DE","countryName":"Germany","latitude":"52.24736000","longitude":"14.41794000","wikiDataId":"Q638607"},{"id":27610,"name":"Müncheberg","stateId":3013,"stateCode":"BB","stateName":"Brandenburg","countryId":82,"countryCode":"DE","countryName":"Germany","latitude":"52.50704000","longitude":"14.13716000","wikiDataId":"Q202498"},{"id":27647,"name":"Nauen","stateId":3013,"stateCode":"BB","stateName":"Brandenburg","countryId":82,"countryCode":"DE","countryName":"Germany","latitude":"52.60701000","longitude":"12.87374000","wikiDataId":"Q581994"},{"id":27673,"name":"Nennhausen","stateId":3013,"stateCode":"BB","stateName":"Brandenburg","countryId":82,"countryCode":"DE","countryName":"Germany","latitude":"52.60000000","longitude":"12.50000000","wikiDataId":"Q585364"},{"id":27691,"name":"Neu Zauche","stateId":3013,"stateCode":"BB","stateName":"Brandenburg","countryId":82,"countryCode":"DE","countryName":"Germany","latitude":"51.92757000","longitude":"14.08812000","wikiDataId":"Q673683"},{"id":27720,"name":"Neuenhagen","stateId":3013,"stateCode":"BB","stateName":"Brandenburg","countryId":82,"countryCode":"DE","countryName":"Germany","latitude":"52.52985000","longitude":"13.68914000","wikiDataId":"Q582690"},{"id":27737,"name":"Neuhardenberg","stateId":3013,"stateCode":"BB","stateName":"Brandenburg","countryId":82,"countryCode":"DE","countryName":"Germany","latitude":"52.59601000","longitude":"14.23768000","wikiDataId":"Q582614"},{"id":27767,"name":"Neulewin","stateId":3013,"stateCode":"BB","stateName":"Brandenburg","countryId":82,"countryCode":"DE","countryName":"Germany","latitude":"52.72434000","longitude":"14.27922000","wikiDataId":"Q585188"},{"id":27787,"name":"Neuruppin","stateId":3013,"stateCode":"BB","stateName":"Brandenburg","countryId":82,"countryCode":"DE","countryName":"Germany","latitude":"52.92815000","longitude":"12.80311000","wikiDataId":"Q16085"},{"id":27812,"name":"Neutrebbin","stateId":3013,"stateCode":"BB","stateName":"Brandenburg","countryId":82,"countryCode":"DE","countryName":"Germany","latitude":"52.66482000","longitude":"14.22802000","wikiDataId":"Q583048"},{"id":27816,"name":"Neuzelle","stateId":3013,"stateCode":"BB","stateName":"Brandenburg","countryId":82,"countryCode":"DE","countryName":"Germany","latitude":"52.09016000","longitude":"14.64804000","wikiDataId":"Q635531"},{"id":27849,"name":"Niedergörsdorf","stateId":3013,"stateCode":"BB","stateName":"Brandenburg","countryId":82,"countryCode":"DE","countryName":"Germany","latitude":"51.97943000","longitude":"12.98541000","wikiDataId":"Q634423"},{"id":27891,"name":"Niemegk","stateId":3013,"stateCode":"BB","stateName":"Brandenburg","countryId":82,"countryCode":"DE","countryName":"Germany","latitude":"52.07388000","longitude":"12.68947000","wikiDataId":"Q635620"},{"id":28070,"name":"Oderberg","stateId":3013,"stateCode":"BB","stateName":"Brandenburg","countryId":82,"countryCode":"DE","countryName":"Germany","latitude":"52.86571000","longitude":"14.04508000","wikiDataId":"Q553202"},{"id":28124,"name":"Oranienburg","stateId":3013,"stateCode":"BB","stateName":"Brandenburg","countryId":82,"countryCode":"DE","countryName":"Germany","latitude":"52.75577000","longitude":"13.24197000","wikiDataId":"Q14808"},{"id":28133,"name":"Ortrand","stateId":3013,"stateCode":"BB","stateName":"Brandenburg","countryId":82,"countryCode":"DE","countryName":"Germany","latitude":"51.37505000","longitude":"13.75982000","wikiDataId":"Q572503"},{"id":28235,"name":"Paulinenaue","stateId":3013,"stateCode":"BB","stateName":"Brandenburg","countryId":82,"countryCode":"DE","countryName":"Germany","latitude":"52.67701000","longitude":"12.71067000","wikiDataId":"Q585355"},{"id":28244,"name":"Peitz","stateId":3013,"stateCode":"BB","stateName":"Brandenburg","countryId":82,"countryCode":"DE","countryName":"Germany","latitude":"51.85841000","longitude":"14.41138000","wikiDataId":"Q574791"},{"id":28260,"name":"Perleberg","stateId":3013,"stateCode":"BB","stateName":"Brandenburg","countryId":82,"countryCode":"DE","countryName":"Germany","latitude":"53.07583000","longitude":"11.85739000","wikiDataId":"Q498540"},{"id":28265,"name":"Petershagen","stateId":3013,"stateCode":"BB","stateName":"Brandenburg","countryId":82,"countryCode":"DE","countryName":"Germany","latitude":"52.52078000","longitude":"13.78748000","wikiDataId":"Q32221799"},{"id":28315,"name":"Plattenburg","stateId":3013,"stateCode":"BB","stateName":"Brandenburg","countryId":82,"countryCode":"DE","countryName":"Germany","latitude":"52.95919000","longitude":"12.02951000","wikiDataId":"Q637036"},{"id":28323,"name":"Plessa","stateId":3013,"stateCode":"BB","stateName":"Brandenburg","countryId":82,"countryCode":"DE","countryName":"Germany","latitude":"51.46667000","longitude":"13.61667000","wikiDataId":"Q551522"},{"id":28339,"name":"Podelzig","stateId":3013,"stateCode":"BB","stateName":"Brandenburg","countryId":82,"countryCode":"DE","countryName":"Germany","latitude":"52.47175000","longitude":"14.53465000","wikiDataId":"Q585269"},{"id":28362,"name":"Potsdam","stateId":3013,"stateCode":"BB","stateName":"Brandenburg","countryId":82,"countryCode":"DE","countryName":"Germany","latitude":"52.39886000","longitude":"13.06566000","wikiDataId":"Q1711"},{"id":28373,"name":"Premnitz","stateId":3013,"stateCode":"BB","stateName":"Brandenburg","countryId":82,"countryCode":"DE","countryName":"Germany","latitude":"52.53184000","longitude":"12.34845000","wikiDataId":"Q585620"},{"id":28374,"name":"Prenzlau","stateId":3013,"stateCode":"BB","stateName":"Brandenburg","countryId":82,"countryCode":"DE","countryName":"Germany","latitude":"53.31625000","longitude":"13.86261000","wikiDataId":"Q537214"},{"id":28392,"name":"Pritzwalk","stateId":3013,"stateCode":"BB","stateName":"Brandenburg","countryId":82,"countryCode":"DE","countryName":"Germany","latitude":"53.14945000","longitude":"12.17405000","wikiDataId":"Q509952"},{"id":28399,"name":"Prötzel","stateId":3013,"stateCode":"BB","stateName":"Brandenburg","countryId":82,"countryCode":"DE","countryName":"Germany","latitude":"52.63723000","longitude":"13.98783000","wikiDataId":"Q632427"},{"id":28409,"name":"Putlitz","stateId":3013,"stateCode":"BB","stateName":"Brandenburg","countryId":82,"countryCode":"DE","countryName":"Germany","latitude":"53.24899000","longitude":"12.04179000","wikiDataId":"Q565732"},{"id":28471,"name":"Rangsdorf","stateId":3013,"stateCode":"BB","stateName":"Brandenburg","countryId":82,"countryCode":"DE","countryName":"Germany","latitude":"52.29126000","longitude":"13.41946000","wikiDataId":"Q32246357"},{"id":28485,"name":"Rathenow","stateId":3013,"stateCode":"BB","stateName":"Brandenburg","countryId":82,"countryCode":"DE","countryName":"Germany","latitude":"52.60659000","longitude":"12.33696000","wikiDataId":"Q525425"},{"id":28494,"name":"Rauen","stateId":3013,"stateCode":"BB","stateName":"Brandenburg","countryId":82,"countryCode":"DE","countryName":"Germany","latitude":"52.33227000","longitude":"14.02797000","wikiDataId":"Q622505"},{"id":28532,"name":"Rehfelde","stateId":3013,"stateCode":"BB","stateName":"Brandenburg","countryId":82,"countryCode":"DE","countryName":"Germany","latitude":"52.53417000","longitude":"13.90884000","wikiDataId":"Q589571"},{"id":28546,"name":"Reichenwalde","stateId":3013,"stateCode":"BB","stateName":"Brandenburg","countryId":82,"countryCode":"DE","countryName":"Germany","latitude":"52.26667000","longitude":"14.00000000","wikiDataId":"Q621478"},{"id":28612,"name":"Rheinsberg","stateId":3013,"stateCode":"BB","stateName":"Brandenburg","countryId":82,"countryCode":"DE","countryName":"Germany","latitude":"53.09972000","longitude":"12.89885000","wikiDataId":"Q537268"},{"id":28617,"name":"Rhinow","stateId":3013,"stateCode":"BB","stateName":"Brandenburg","countryId":82,"countryCode":"DE","countryName":"Germany","latitude":"52.75094000","longitude":"12.34194000","wikiDataId":"Q532037"},{"id":28654,"name":"Rietz Neuendorf","stateId":3013,"stateCode":"BB","stateName":"Brandenburg","countryId":82,"countryCode":"DE","countryName":"Germany","latitude":"52.22758000","longitude":"14.17463000","wikiDataId":"Q502512"},{"id":28712,"name":"Roskow","stateId":3013,"stateCode":"BB","stateName":"Brandenburg","countryId":82,"countryCode":"DE","countryName":"Germany","latitude":"52.47237000","longitude":"12.71886000","wikiDataId":"Q34093"},{"id":28799,"name":"Rückersdorf","stateId":3013,"stateCode":"BB","stateName":"Brandenburg","countryId":82,"countryCode":"DE","countryName":"Germany","latitude":"51.56955000","longitude":"13.57226000","wikiDataId":"Q679561"},{"id":28802,"name":"Rüdnitz","stateId":3013,"stateCode":"BB","stateName":"Brandenburg","countryId":82,"countryCode":"DE","countryName":"Germany","latitude":"52.72137000","longitude":"13.62502000","wikiDataId":"Q628118"},{"id":28756,"name":"Ruhland","stateId":3013,"stateCode":"BB","stateName":"Brandenburg","countryId":82,"countryCode":"DE","countryName":"Germany","latitude":"51.45755000","longitude":"13.86643000","wikiDataId":"Q572601"},{"id":28835,"name":"Sallgast","stateId":3013,"stateCode":"BB","stateName":"Brandenburg","countryId":82,"countryCode":"DE","countryName":"Germany","latitude":"51.58870000","longitude":"13.84861000","wikiDataId":"Q528850"},{"id":28929,"name":"Schenkendöbern","stateId":3013,"stateCode":"BB","stateName":"Brandenburg","countryId":82,"countryCode":"DE","countryName":"Germany","latitude":"51.95723000","longitude":"14.63541000","wikiDataId":"Q636094"},{"id":28951,"name":"Schipkau","stateId":3013,"stateCode":"BB","stateName":"Brandenburg","countryId":82,"countryCode":"DE","countryName":"Germany","latitude":"51.51766000","longitude":"13.89738000","wikiDataId":"Q574443"},{"id":28975,"name":"Schlieben","stateId":3013,"stateCode":"BB","stateName":"Brandenburg","countryId":82,"countryCode":"DE","countryName":"Germany","latitude":"51.72379000","longitude":"13.38304000","wikiDataId":"Q507017"},{"id":29113,"name":"Schönborn","stateId":3013,"stateCode":"BB","stateName":"Brandenburg","countryId":82,"countryCode":"DE","countryName":"Germany","latitude":"51.60016000","longitude":"13.48967000","wikiDataId":"Q17129"},{"id":29119,"name":"Schönefeld","stateId":3013,"stateCode":"BB","stateName":"Brandenburg","countryId":82,"countryCode":"DE","countryName":"Germany","latitude":"52.38897000","longitude":"13.50374000","wikiDataId":"Q521475"},{"id":29120,"name":"Schöneiche","stateId":3013,"stateCode":"BB","stateName":"Brandenburg","countryId":82,"countryCode":"DE","countryName":"Germany","latitude":"52.47286000","longitude":"13.69226000","wikiDataId":"Q33482829"},{"id":29122,"name":"Schönewalde","stateId":3013,"stateCode":"BB","stateName":"Brandenburg","countryId":82,"countryCode":"DE","countryName":"Germany","latitude":"51.67901000","longitude":"13.60247000","wikiDataId":"Q678360"},{"id":29035,"name":"Schulzendorf","stateId":3013,"stateCode":"BB","stateName":"Brandenburg","countryId":82,"countryCode":"DE","countryName":"Germany","latitude":"52.35818000","longitude":"13.59842000","wikiDataId":"Q581119"},{"id":29074,"name":"Schwarzheide","stateId":3013,"stateCode":"BB","stateName":"Brandenburg","countryId":82,"countryCode":"DE","countryName":"Germany","latitude":"51.47671000","longitude":"13.85559000","wikiDataId":"Q584474"},{"id":29078,"name":"Schwedt (Oder)","stateId":3013,"stateCode":"BB","stateName":"Brandenburg","countryId":82,"countryCode":"DE","countryName":"Germany","latitude":"53.05963000","longitude":"14.28154000","wikiDataId":"Q16008"},{"id":29160,"name":"Seelow","stateId":3013,"stateCode":"BB","stateName":"Brandenburg","countryId":82,"countryCode":"DE","countryName":"Germany","latitude":"52.53392000","longitude":"14.38128000","wikiDataId":"Q587069"},{"id":29191,"name":"Senftenberg","stateId":3013,"stateCode":"BB","stateName":"Brandenburg","countryId":82,"countryCode":"DE","countryName":"Germany","latitude":"51.52517000","longitude":"14.00164000","wikiDataId":"Q491754"},{"id":29274,"name":"Sonnewalde","stateId":3013,"stateCode":"BB","stateName":"Brandenburg","countryId":82,"countryCode":"DE","countryName":"Germany","latitude":"51.69223000","longitude":"13.64730000","wikiDataId":"Q544969"},{"id":29297,"name":"Sperenberg","stateId":3013,"stateCode":"BB","stateName":"Brandenburg","countryId":82,"countryCode":"DE","countryName":"Germany","latitude":"52.14113000","longitude":"13.36500000","wikiDataId":"Q882100"},{"id":29307,"name":"Spreenhagen","stateId":3013,"stateCode":"BB","stateName":"Brandenburg","countryId":82,"countryCode":"DE","countryName":"Germany","latitude":"52.34325000","longitude":"13.87663000","wikiDataId":"Q624106"},{"id":29333,"name":"Stahnsdorf","stateId":3013,"stateCode":"BB","stateName":"Brandenburg","countryId":82,"countryCode":"DE","countryName":"Germany","latitude":"52.38333000","longitude":"13.21667000","wikiDataId":"Q640426"},{"id":29384,"name":"Steinhöfel","stateId":3013,"stateCode":"BB","stateName":"Brandenburg","countryId":82,"countryCode":"DE","countryName":"Germany","latitude":"52.40000000","longitude":"14.16667000","wikiDataId":"Q624100"},{"id":29421,"name":"Storkow","stateId":3013,"stateCode":"BB","stateName":"Brandenburg","countryId":82,"countryCode":"DE","countryName":"Germany","latitude":"52.25662000","longitude":"13.93337000","wikiDataId":"Q33496389"},{"id":29429,"name":"Straupitz","stateId":3013,"stateCode":"BB","stateName":"Brandenburg","countryId":82,"countryCode":"DE","countryName":"Germany","latitude":"51.91357000","longitude":"14.12275000","wikiDataId":"Q572581"},{"id":29430,"name":"Strausberg","stateId":3013,"stateCode":"BB","stateName":"Brandenburg","countryId":82,"countryCode":"DE","countryName":"Germany","latitude":"52.57859000","longitude":"13.88741000","wikiDataId":"Q490521"},{"id":29535,"name":"Tauche","stateId":3013,"stateCode":"BB","stateName":"Brandenburg","countryId":82,"countryCode":"DE","countryName":"Germany","latitude":"52.15000000","longitude":"14.16667000","wikiDataId":"Q627082"},{"id":29554,"name":"Teltow","stateId":3013,"stateCode":"BB","stateName":"Brandenburg","countryId":82,"countryCode":"DE","countryName":"Germany","latitude":"52.40310000","longitude":"13.26014000","wikiDataId":"Q572512"},{"id":29556,"name":"Templin","stateId":3013,"stateCode":"BB","stateName":"Brandenburg","countryId":82,"countryCode":"DE","countryName":"Germany","latitude":"53.11865000","longitude":"13.50220000","wikiDataId":"Q519157"},{"id":29571,"name":"Teupitz","stateId":3013,"stateCode":"BB","stateName":"Brandenburg","countryId":82,"countryCode":"DE","countryName":"Germany","latitude":"52.12967000","longitude":"13.61960000","wikiDataId":"Q569554"},{"id":29648,"name":"Trebbin","stateId":3013,"stateCode":"BB","stateName":"Brandenburg","countryId":82,"countryCode":"DE","countryName":"Germany","latitude":"52.21675000","longitude":"13.22496000","wikiDataId":"Q570114"},{"id":29663,"name":"Treuenbrietzen","stateId":3013,"stateCode":"BB","stateName":"Brandenburg","countryId":82,"countryCode":"DE","countryName":"Germany","latitude":"52.09754000","longitude":"12.87258000","wikiDataId":"Q625078"},{"id":29687,"name":"Tschernitz","stateId":3013,"stateCode":"BB","stateName":"Brandenburg","countryId":82,"countryCode":"DE","countryName":"Germany","latitude":"51.58333000","longitude":"14.61667000","wikiDataId":"Q633598"},{"id":29718,"name":"Uebigau","stateId":3013,"stateCode":"BB","stateName":"Brandenburg","countryId":82,"countryCode":"DE","countryName":"Germany","latitude":"51.59415000","longitude":"13.29983000","wikiDataId":"Q552793"},{"id":29831,"name":"Velten","stateId":3013,"stateCode":"BB","stateName":"Brandenburg","countryId":82,"countryCode":"DE","countryName":"Germany","latitude":"52.69149000","longitude":"13.17533000","wikiDataId":"Q585613"},{"id":29839,"name":"Vetschau","stateId":3013,"stateCode":"BB","stateName":"Brandenburg","countryId":82,"countryCode":"DE","countryName":"Germany","latitude":"51.78638000","longitude":"14.07941000","wikiDataId":"Q147633"},{"id":29964,"name":"Waldsieversdorf","stateId":3013,"stateCode":"BB","stateName":"Brandenburg","countryId":82,"countryCode":"DE","countryName":"Germany","latitude":"52.54221000","longitude":"14.07022000","wikiDataId":"Q585255"},{"id":29999,"name":"Wandlitz","stateId":3013,"stateCode":"BB","stateName":"Brandenburg","countryId":82,"countryCode":"DE","countryName":"Germany","latitude":"52.74196000","longitude":"13.45799000","wikiDataId":"Q525555"},{"id":30107,"name":"Weisen","stateId":3013,"stateCode":"BB","stateName":"Brandenburg","countryId":82,"countryCode":"DE","countryName":"Germany","latitude":"53.02518000","longitude":"11.78710000","wikiDataId":"Q46816"},{"id":30150,"name":"Welzow","stateId":3013,"stateCode":"BB","stateName":"Brandenburg","countryId":82,"countryCode":"DE","countryName":"Germany","latitude":"51.58381000","longitude":"14.17082000","wikiDataId":"Q572607"},{"id":30157,"name":"Wendisch Rietz","stateId":3013,"stateCode":"BB","stateName":"Brandenburg","countryId":82,"countryCode":"DE","countryName":"Germany","latitude":"52.21613000","longitude":"14.00845000","wikiDataId":"Q622866"},{"id":30167,"name":"Werben","stateId":3013,"stateCode":"BB","stateName":"Brandenburg","countryId":82,"countryCode":"DE","countryName":"Germany","latitude":"51.81667000","longitude":"14.18333000","wikiDataId":"Q574768"},{"id":30170,"name":"Werder","stateId":3013,"stateCode":"BB","stateName":"Brandenburg","countryId":82,"countryCode":"DE","countryName":"Germany","latitude":"52.37874000","longitude":"12.93400000","wikiDataId":"Q525686"},{"id":30173,"name":"Werftpfuhl","stateId":3013,"stateCode":"BB","stateName":"Brandenburg","countryId":82,"countryCode":"DE","countryName":"Germany","latitude":"52.66014000","longitude":"13.79351000","wikiDataId":"Q5575"},{"id":30183,"name":"Werneuchen","stateId":3013,"stateCode":"BB","stateName":"Brandenburg","countryId":82,"countryCode":"DE","countryName":"Germany","latitude":"52.63275000","longitude":"13.73437000","wikiDataId":"Q502855"},{"id":30256,"name":"Wiesenau","stateId":3013,"stateCode":"BB","stateName":"Brandenburg","countryId":82,"countryCode":"DE","countryName":"Germany","latitude":"52.23071000","longitude":"14.59107000","wikiDataId":"Q622451"},{"id":30258,"name":"Wiesenburg","stateId":3013,"stateCode":"BB","stateName":"Brandenburg","countryId":82,"countryCode":"DE","countryName":"Germany","latitude":"52.11456000","longitude":"12.45534000","wikiDataId":"Q623510"},{"id":30352,"name":"Wittenberge","stateId":3013,"stateCode":"BB","stateName":"Brandenburg","countryId":82,"countryCode":"DE","countryName":"Germany","latitude":"53.00543000","longitude":"11.75032000","wikiDataId":"Q541956"},{"id":30366,"name":"Wittstock","stateId":3013,"stateCode":"BB","stateName":"Brandenburg","countryId":82,"countryCode":"DE","countryName":"Germany","latitude":"53.16118000","longitude":"12.48287000","wikiDataId":"Q159572"},{"id":30400,"name":"Woltersdorf","stateId":3013,"stateCode":"BB","stateName":"Brandenburg","countryId":82,"countryCode":"DE","countryName":"Germany","latitude":"52.45554000","longitude":"13.74986000","wikiDataId":"Q473710"},{"id":30411,"name":"Wriezen","stateId":3013,"stateCode":"BB","stateName":"Brandenburg","countryId":82,"countryCode":"DE","countryName":"Germany","latitude":"52.72091000","longitude":"14.13425000","wikiDataId":"Q588598"},{"id":30427,"name":"Wusterhausen","stateId":3013,"stateCode":"BB","stateName":"Brandenburg","countryId":82,"countryCode":"DE","countryName":"Germany","latitude":"52.89120000","longitude":"12.46021000","wikiDataId":"Q623516"},{"id":30429,"name":"Wustermark","stateId":3013,"stateCode":"BB","stateName":"Brandenburg","countryId":82,"countryCode":"DE","countryName":"Germany","latitude":"52.55000000","longitude":"12.95000000","wikiDataId":"Q581938"},{"id":30430,"name":"Wusterwitz","stateId":3013,"stateCode":"BB","stateName":"Brandenburg","countryId":82,"countryCode":"DE","countryName":"Germany","latitude":"52.36666000","longitude":"12.38488000","wikiDataId":"Q625379"},{"id":30474,"name":"Zehdenick","stateId":3013,"stateCode":"BB","stateName":"Brandenburg","countryId":82,"countryCode":"DE","countryName":"Germany","latitude":"52.97852000","longitude":"13.33165000","wikiDataId":"Q184481"},{"id":30499,"name":"Zeuthen","stateId":3013,"stateCode":"BB","stateName":"Brandenburg","countryId":82,"countryCode":"DE","countryName":"Germany","latitude":"52.34803000","longitude":"13.62174000","wikiDataId":"Q180898"},{"id":30505,"name":"Ziesar","stateId":3013,"stateCode":"BB","stateName":"Brandenburg","countryId":82,"countryCode":"DE","countryName":"Germany","latitude":"52.26616000","longitude":"12.28997000","wikiDataId":"Q199233"},{"id":30507,"name":"Ziltendorf","stateId":3013,"stateCode":"BB","stateName":"Brandenburg","countryId":82,"countryCode":"DE","countryName":"Germany","latitude":"52.20608000","longitude":"14.62411000","wikiDataId":"Q203347"},{"id":30517,"name":"Zossen","stateId":3013,"stateCode":"BB","stateName":"Brandenburg","countryId":82,"countryCode":"DE","countryName":"Germany","latitude":"52.21600000","longitude":"13.44909000","wikiDataId":"Q226884"}]