[{"id":66739,"name":"Bissen","stateId":1522,"stateCode":"ME","stateName":"Canton of Mersch","countryId":127,"countryCode":"LU","countryName":"Luxembourg","latitude":"49.78733000","longitude":"6.06540000","wikiDataId":"Q22284"},{"id":66741,"name":"Boevange-sur-Attert","stateId":1522,"stateCode":"ME","stateName":"Canton of Mersch","countryId":127,"countryCode":"LU","countryName":"Luxembourg","latitude":"49.77256000","longitude":"6.01532000","wikiDataId":"Q22284"},{"id":66750,"name":"Colmar","stateId":1522,"stateCode":"ME","stateName":"Canton of Mersch","countryId":127,"countryCode":"LU","countryName":"Luxembourg","latitude":"49.81028000","longitude":"6.09722000","wikiDataId":"Q20969306"},{"id":66770,"name":"Fischbach","stateId":1522,"stateCode":"ME","stateName":"Canton of Mersch","countryId":127,"countryCode":"LU","countryName":"Luxembourg","latitude":"49.74600000","longitude":"6.18702000","wikiDataId":"Q20966342"},{"id":66779,"name":"Heffingen","stateId":1522,"stateCode":"ME","stateName":"Canton of Mersch","countryId":127,"countryCode":"LU","countryName":"Luxembourg","latitude":"49.76907000","longitude":"6.24049000","wikiDataId":"Q2675610"},{"id":66796,"name":"Larochette","stateId":1522,"stateCode":"ME","stateName":"Canton of Mersch","countryId":127,"countryCode":"LU","countryName":"Luxembourg","latitude":"49.78362000","longitude":"6.21891000","wikiDataId":"Q20969440"},{"id":66799,"name":"Lintgen","stateId":1522,"stateCode":"ME","stateName":"Canton of Mersch","countryId":127,"countryCode":"LU","countryName":"Luxembourg","latitude":"49.72243000","longitude":"6.13016000","wikiDataId":"Q20969448"},{"id":66800,"name":"Lorentzweiler","stateId":1522,"stateCode":"ME","stateName":"Canton of Mersch","countryId":127,"countryCode":"LU","countryName":"Luxembourg","latitude":"49.70131000","longitude":"6.14234000","wikiDataId":"Q3917028"},{"id":66805,"name":"Mersch","stateId":1522,"stateCode":"ME","stateName":"Canton of Mersch","countryId":127,"countryCode":"LU","countryName":"Luxembourg","latitude":"49.74889000","longitude":"6.10611000","wikiDataId":"Q23903049"},{"id":66816,"name":"Nommern","stateId":1522,"stateCode":"ME","stateName":"Canton of Mersch","countryId":127,"countryCode":"LU","countryName":"Luxembourg","latitude":"49.78694000","longitude":"6.17472000","wikiDataId":"Q3112408"},{"id":66830,"name":"Rollingen","stateId":1522,"stateCode":"ME","stateName":"Canton of Mersch","countryId":127,"countryCode":"LU","countryName":"Luxembourg","latitude":"49.74167000","longitude":"6.11444000","wikiDataId":"Q2640199"},{"id":66850,"name":"Tuntange","stateId":1522,"stateCode":"ME","stateName":"Canton of Mersch","countryId":127,"countryCode":"LU","countryName":"Luxembourg","latitude":"49.71778000","longitude":"6.01028000","wikiDataId":"Q3917054"}]