[{"id":130074,"name":"Ejido","stateId":2053,"stateCode":"L","stateName":"Mérida","countryId":239,"countryCode":"VE","countryName":"Venezuela","latitude":"8.54665000","longitude":"-71.24087000","wikiDataId":"Q770309"},{"id":130080,"name":"El Vigía","stateId":2053,"stateCode":"L","stateName":"Mérida","countryId":239,"countryCode":"VE","countryName":"Venezuela","latitude":"8.61350000","longitude":"-71.65702000","wikiDataId":"Q1324653"},{"id":130124,"name":"Mérida","stateId":2053,"stateCode":"L","stateName":"Mérida","countryId":239,"countryCode":"VE","countryName":"Venezuela","latitude":"8.58972000","longitude":"-71.15611000","wikiDataId":"Q23551"},{"id":130109,"name":"Mucumpiz","stateId":2053,"stateCode":"L","stateName":"Mérida","countryId":239,"countryCode":"VE","countryName":"Venezuela","latitude":"8.41667000","longitude":"-71.13333000","wikiDataId":"Q31960357"},{"id":130115,"name":"Municipio Libertador","stateId":2053,"stateCode":"L","stateName":"Mérida","countryId":239,"countryCode":"VE","countryName":"Venezuela","latitude":"8.33333000","longitude":"-71.11667000","wikiDataId":"Q2207830"}]