[{"id":31493,"name":"Cantón San Fernando","stateId":2923,"stateCode":"A","stateName":"Azuay","countryId":64,"countryCode":"EC","countryName":"Ecuador","latitude":"-3.13349000","longitude":"-79.26893000","wikiDataId":"Q2449055"},{"id":31501,"name":"Cuenca","stateId":2923,"stateCode":"A","stateName":"Azuay","countryId":64,"countryCode":"EC","countryName":"Ecuador","latitude":"-2.90055000","longitude":"-79.00453000","wikiDataId":"Q1014957"},{"id":31507,"name":"Gualaceo","stateId":2923,"stateCode":"A","stateName":"Azuay","countryId":64,"countryCode":"EC","countryName":"Ecuador","latitude":"-2.89264000","longitude":"-78.77814000","wikiDataId":"Q1992935"},{"id":31519,"name":"La Unión","stateId":2923,"stateCode":"A","stateName":"Azuay","countryId":64,"countryCode":"EC","countryName":"Ecuador","latitude":"-2.85000000","longitude":"-78.78333000","wikiDataId":"Q6465577"},{"id":31521,"name":"Llacao","stateId":2923,"stateCode":"A","stateName":"Azuay","countryId":64,"countryCode":"EC","countryName":"Ecuador","latitude":"-2.86667000","longitude":"-78.88333000","wikiDataId":"Q379338"},{"id":31535,"name":"Nulti","stateId":2923,"stateCode":"A","stateName":"Azuay","countryId":64,"countryCode":"EC","countryName":"Ecuador","latitude":"-2.91667000","longitude":"-78.85000000","wikiDataId":"Q683938"},{"id":31510,"name":"Guaranda","stateId":2920,"stateCode":"B","stateName":"Bolívar","countryId":64,"countryCode":"EC","countryName":"Ecuador","latitude":"-1.59263000","longitude":"-79.00098000","wikiDataId":"Q264464"},{"id":31569,"name":"San Miguel","stateId":2920,"stateCode":"B","stateName":"Bolívar","countryId":64,"countryCode":"EC","countryName":"Ecuador","latitude":"-1.70884000","longitude":"-79.04311000","wikiDataId":"Q7414937"},{"id":31484,"name":"Azogues","stateId":2917,"stateCode":"F","stateName":"Cañar","countryId":64,"countryCode":"EC","countryName":"Ecuador","latitude":"-2.73969000","longitude":"-78.84860000","wikiDataId":"Q786758"},{"id":31496,"name":"Cañar","stateId":2917,"stateCode":"F","stateName":"Cañar","countryId":64,"countryCode":"EC","countryName":"Ecuador","latitude":"-2.56062000","longitude":"-78.93940000","wikiDataId":"Q23885206"},{"id":31518,"name":"La Troncal","stateId":2917,"stateCode":"F","stateName":"Cañar","countryId":64,"countryCode":"EC","countryName":"Ecuador","latitude":"-2.42355000","longitude":"-79.33977000","wikiDataId":"Q6465543"},{"id":31503,"name":"El Ángel","stateId":2915,"stateCode":"C","stateName":"Carchi","countryId":64,"countryCode":"EC","countryName":"Ecuador","latitude":"0.62279000","longitude":"-77.94003000","wikiDataId":"Q19017191"},{"id":31567,"name":"San Gabriel","stateId":2915,"stateCode":"C","stateName":"Carchi","countryId":64,"countryCode":"EC","countryName":"Ecuador","latitude":"0.59318000","longitude":"-77.83078000","wikiDataId":"Q4405656"},{"id":31583,"name":"Tulcán","stateId":2915,"stateCode":"C","stateName":"Carchi","countryId":64,"countryCode":"EC","countryName":"Ecuador","latitude":"0.81187000","longitude":"-77.71727000","wikiDataId":"Q752113"},{"id":31479,"name":"Alausí","stateId":2925,"stateCode":"H","stateName":"Chimborazo","countryId":64,"countryCode":"EC","countryName":"Ecuador","latitude":"-2.20329000","longitude":"-78.84714000","wikiDataId":"Q2640072"},{"id":31509,"name":"Guano","stateId":2925,"stateCode":"H","stateName":"Chimborazo","countryId":64,"countryCode":"EC","countryName":"Ecuador","latitude":"-1.60789000","longitude":"-78.63105000","wikiDataId":"Q5613774"},{"id":31562,"name":"Riobamba","stateId":2925,"stateCode":"H","stateName":"Chimborazo","countryId":64,"countryCode":"EC","countryName":"Ecuador","latitude":"-1.67098000","longitude":"-78.64712000","wikiDataId":"Q478675"},{"id":31517,"name":"La Maná","stateId":2921,"stateCode":"X","stateName":"Cotopaxi","countryId":64,"countryCode":"EC","countryName":"Ecuador","latitude":"-0.94094000","longitude":"-79.22506000","wikiDataId":"Q2523409"},{"id":31520,"name":"Latacunga","stateId":2921,"stateCode":"X","stateName":"Cotopaxi","countryId":64,"countryCode":"EC","countryName":"Ecuador","latitude":"-0.93521000","longitude":"-78.61554000","wikiDataId":"Q379338"},{"id":31556,"name":"Pujilí","stateId":2921,"stateCode":"X","stateName":"Cotopaxi","countryId":64,"countryCode":"EC","countryName":"Ecuador","latitude":"-0.95759000","longitude":"-78.69636000","wikiDataId":"Q2117685"},{"id":31570,"name":"San Miguel de Salcedo","stateId":2921,"stateCode":"X","stateName":"Cotopaxi","countryId":64,"countryCode":"EC","countryName":"Ecuador","latitude":"-1.04547000","longitude":"-78.59063000","wikiDataId":"Q2198509"},{"id":31578,"name":"Saquisilí","stateId":2921,"stateCode":"X","stateName":"Cotopaxi","countryId":64,"countryCode":"EC","countryName":"Ecuador","latitude":"-0.83990000","longitude":"-78.66700000","wikiDataId":"Q2621005"},{"id":31512,"name":"Huaquillas","stateId":2924,"stateCode":"O","stateName":"El Oro","countryId":64,"countryCode":"EC","countryName":"Ecuador","latitude":"-3.47523000","longitude":"-80.23084000","wikiDataId":"Q3322678"},{"id":31526,"name":"Machala","stateId":2924,"stateCode":"O","stateName":"El Oro","countryId":64,"countryCode":"EC","countryName":"Ecuador","latitude":"-3.25861000","longitude":"-79.96053000","wikiDataId":"Q215080"},{"id":31542,"name":"Pasaje","stateId":2924,"stateCode":"O","stateName":"El Oro","countryId":64,"countryCode":"EC","countryName":"Ecuador","latitude":"-3.32561000","longitude":"-79.80697000","wikiDataId":"Q3367230"},{"id":31547,"name":"Piñas","stateId":2924,"stateCode":"O","stateName":"El Oro","countryId":64,"countryCode":"EC","countryName":"Ecuador","latitude":"-3.68107000","longitude":"-79.68083000","wikiDataId":"Q7883868"},{"id":31549,"name":"Portovelo","stateId":2924,"stateCode":"O","stateName":"El Oro","countryId":64,"countryCode":"EC","countryName":"Ecuador","latitude":"-3.72145000","longitude":"-79.62187000","wikiDataId":"Q7232216"},{"id":31553,"name":"Puerto Bolívar","stateId":2924,"stateCode":"O","stateName":"El Oro","countryId":64,"countryCode":"EC","countryName":"Ecuador","latitude":"-3.26649000","longitude":"-79.99749000","wikiDataId":"Q1026239"},{"id":31576,"name":"Santa Rosa","stateId":2924,"stateCode":"O","stateName":"El Oro","countryId":64,"countryCode":"EC","countryName":"Ecuador","latitude":"-3.44882000","longitude":"-79.95952000","wikiDataId":"Q7419863"},{"id":31592,"name":"Zaruma","stateId":2924,"stateCode":"O","stateName":"El Oro","countryId":64,"countryCode":"EC","countryName":"Ecuador","latitude":"-3.69132000","longitude":"-79.61174000","wikiDataId":"Q148121"},{"id":31505,"name":"Esmeraldas","stateId":2922,"stateCode":"E","stateName":"Esmeraldas","countryId":64,"countryCode":"EC","countryName":"Ecuador","latitude":"0.95920000","longitude":"-79.65397000","wikiDataId":"Q149955"},{"id":31531,"name":"Muisne","stateId":2922,"stateCode":"E","stateName":"Esmeraldas","countryId":64,"countryCode":"EC","countryName":"Ecuador","latitude":"0.61129000","longitude":"-80.01863000","wikiDataId":"Q6933279"},{"id":31541,"name":"Pampanal de Bolívar","stateId":2922,"stateCode":"E","stateName":"Esmeraldas","countryId":64,"countryCode":"EC","countryName":"Ecuador","latitude":"1.35251000","longitude":"-78.89360000","wikiDataId":"Q10949718"},{"id":31561,"name":"Rio Verde","stateId":2922,"stateCode":"E","stateName":"Esmeraldas","countryId":64,"countryCode":"EC","countryName":"Ecuador","latitude":"1.06235000","longitude":"-79.39939000","wikiDataId":"Q2900"},{"id":31564,"name":"Rosa Zarate","stateId":2922,"stateCode":"E","stateName":"Esmeraldas","countryId":64,"countryCode":"EC","countryName":"Ecuador","latitude":"0.32779000","longitude":"-79.47407000","wikiDataId":"Q7846193"},{"id":31568,"name":"San Lorenzo de Esmeraldas","stateId":2922,"stateCode":"E","stateName":"Esmeraldas","countryId":64,"countryCode":"EC","countryName":"Ecuador","latitude":"1.28626000","longitude":"-78.83514000","wikiDataId":"Q7414682"},{"id":31585,"name":"Valdez","stateId":2922,"stateCode":"E","stateName":"Esmeraldas","countryId":64,"countryCode":"EC","countryName":"Ecuador","latitude":"1.24917000","longitude":"-78.98306000","wikiDataId":"Q7909405"},{"id":31551,"name":"Puerto Ayora","stateId":2905,"stateCode":"W","stateName":"Galápagos","countryId":64,"countryCode":"EC","countryName":"Ecuador","latitude":"-0.74018000","longitude":"-90.31380000","wikiDataId":"Q1013526"},{"id":31552,"name":"Puerto Baquerizo Moreno","stateId":2905,"stateCode":"W","stateName":"Galápagos","countryId":64,"countryCode":"EC","countryName":"Ecuador","latitude":"-0.90172000","longitude":"-89.61021000","wikiDataId":"Q694109"},{"id":31555,"name":"Puerto Villamil","stateId":2905,"stateCode":"W","stateName":"Galápagos","countryId":64,"countryCode":"EC","countryName":"Ecuador","latitude":"-0.95542000","longitude":"-90.96654000","wikiDataId":"Q1208152"},{"id":31480,"name":"Alfredo Baquerizo Moreno","stateId":2914,"stateCode":"G","stateName":"Guayas","countryId":64,"countryCode":"EC","countryName":"Ecuador","latitude":"-1.91667000","longitude":"-79.51667000","wikiDataId":"Q4723711"},{"id":31488,"name":"Baláo","stateId":2914,"stateCode":"G","stateName":"Guayas","countryId":64,"countryCode":"EC","countryName":"Ecuador","latitude":"-2.91100000","longitude":"-79.81441000","wikiDataId":"Q4850064"},{"id":31487,"name":"Balzar","stateId":2914,"stateCode":"G","stateName":"Guayas","countryId":64,"countryCode":"EC","countryName":"Ecuador","latitude":"-1.36501000","longitude":"-79.90494000","wikiDataId":"Q4853169"},{"id":31498,"name":"Colimes","stateId":2914,"stateCode":"G","stateName":"Guayas","countryId":64,"countryCode":"EC","countryName":"Ecuador","latitude":"-1.54553000","longitude":"-80.01165000","wikiDataId":"Q5144832"},{"id":31499,"name":"Coronel Marcelino Maridueña","stateId":2914,"stateCode":"G","stateName":"Guayas","countryId":64,"countryCode":"EC","countryName":"Ecuador","latitude":"-2.20924000","longitude":"-79.43248000","wikiDataId":"Q642543"},{"id":31502,"name":"El Triunfo","stateId":2914,"stateCode":"G","stateName":"Guayas","countryId":64,"countryCode":"EC","countryName":"Ecuador","latitude":"-1.93333000","longitude":"-79.96667000","wikiDataId":"Q5352286"},{"id":31504,"name":"Eloy Alfaro","stateId":2914,"stateCode":"G","stateName":"Guayas","countryId":64,"countryCode":"EC","countryName":"Ecuador","latitude":"-2.17579000","longitude":"-79.85519000","wikiDataId":"Q1120810"},{"id":31511,"name":"Guayaquil","stateId":2914,"stateCode":"G","stateName":"Guayas","countryId":64,"countryCode":"EC","countryName":"Ecuador","latitude":"-2.19616000","longitude":"-79.88621000","wikiDataId":"Q43509"},{"id":31522,"name":"Lomas de Sargentillo","stateId":2914,"stateCode":"G","stateName":"Guayas","countryId":64,"countryCode":"EC","countryName":"Ecuador","latitude":"-1.88333000","longitude":"-80.08333000","wikiDataId":"Q6669164"},{"id":31528,"name":"Milagro","stateId":2914,"stateCode":"G","stateName":"Guayas","countryId":64,"countryCode":"EC","countryName":"Ecuador","latitude":"-2.13404000","longitude":"-79.59415000","wikiDataId":"Q773238"},{"id":31532,"name":"Naranjal","stateId":2914,"stateCode":"G","stateName":"Guayas","countryId":64,"countryCode":"EC","countryName":"Ecuador","latitude":"-2.67364000","longitude":"-79.61830000","wikiDataId":"Q6965358"},{"id":31533,"name":"Naranjito","stateId":2914,"stateCode":"G","stateName":"Guayas","countryId":64,"countryCode":"EC","countryName":"Ecuador","latitude":"-2.16671000","longitude":"-79.46540000","wikiDataId":"Q962774"},{"id":31539,"name":"Palestina","stateId":2914,"stateCode":"G","stateName":"Guayas","countryId":64,"countryCode":"EC","countryName":"Ecuador","latitude":"-1.93709000","longitude":"-79.71396000","wikiDataId":"Q7127272"},{"id":31544,"name":"Pedro Carbo","stateId":2914,"stateCode":"G","stateName":"Guayas","countryId":64,"countryCode":"EC","countryName":"Ecuador","latitude":"-1.81563000","longitude":"-80.23309000","wikiDataId":"Q11004410"},{"id":31548,"name":"Playas","stateId":2914,"stateCode":"G","stateName":"Guayas","countryId":64,"countryCode":"EC","countryName":"Ecuador","latitude":"-2.63199000","longitude":"-80.38808000","wikiDataId":"Q3123278"},{"id":31566,"name":"Samborondón","stateId":2914,"stateCode":"G","stateName":"Guayas","countryId":64,"countryCode":"EC","countryName":"Ecuador","latitude":"-1.96276000","longitude":"-79.72402000","wikiDataId":"Q368320"},{"id":31575,"name":"Santa Lucía","stateId":2914,"stateCode":"G","stateName":"Guayas","countryId":64,"countryCode":"EC","countryName":"Ecuador","latitude":"-2.18333000","longitude":"-80.00000000","wikiDataId":"Q13190708"},{"id":31586,"name":"Velasco Ibarra","stateId":2914,"stateCode":"G","stateName":"Guayas","countryId":64,"countryCode":"EC","countryName":"Ecuador","latitude":"-1.04376000","longitude":"-79.63837000","wikiDataId":"Q5351224"},{"id":31589,"name":"Yaguachi Nuevo","stateId":2914,"stateCode":"G","stateName":"Guayas","countryId":64,"countryCode":"EC","countryName":"Ecuador","latitude":"-2.09680000","longitude":"-79.69485000","wikiDataId":"Q3816731"},{"id":31483,"name":"Atuntaqui","stateId":2911,"stateCode":"I","stateName":"Imbabura","countryId":64,"countryCode":"EC","countryName":"Ecuador","latitude":"0.33247000","longitude":"-78.21371000","wikiDataId":"Q4741622"},{"id":31500,"name":"Cotacachi","stateId":2911,"stateCode":"I","stateName":"Imbabura","countryId":64,"countryCode":"EC","countryName":"Ecuador","latitude":"0.30107000","longitude":"-78.26428000","wikiDataId":"Q1001959"},{"id":31513,"name":"Ibarra","stateId":2911,"stateCode":"I","stateName":"Imbabura","countryId":64,"countryCode":"EC","countryName":"Ecuador","latitude":"0.35171000","longitude":"-78.12233000","wikiDataId":"Q3322678"},{"id":31536,"name":"Otavalo","stateId":2911,"stateCode":"I","stateName":"Imbabura","countryId":64,"countryCode":"EC","countryName":"Ecuador","latitude":"0.23457000","longitude":"-78.26248000","wikiDataId":"Q1020794"},{"id":31546,"name":"Pimampiro","stateId":2911,"stateCode":"I","stateName":"Imbabura","countryId":64,"countryCode":"EC","countryName":"Ecuador","latitude":"0.39116000","longitude":"-77.94068000","wikiDataId":"Q4746020"},{"id":149262,"name":"Loja","stateId":5068,"stateCode":"L","stateName":"Loja","countryId":64,"countryCode":"EC","countryName":"Ecuador","latitude":"-3.99313000","longitude":"-79.20422000","wikiDataId":"Q944697"},{"id":31485,"name":"Babahoyo","stateId":2910,"stateCode":"R","stateName":"Los Ríos","countryId":64,"countryCode":"EC","countryName":"Ecuador","latitude":"-1.80217000","longitude":"-79.53443000","wikiDataId":"Q797568"},{"id":31494,"name":"Catarama","stateId":2910,"stateCode":"R","stateName":"Los Ríos","countryId":64,"countryCode":"EC","countryName":"Ecuador","latitude":"-1.57504000","longitude":"-79.45998000","wikiDataId":"Q5051473"},{"id":31529,"name":"Montalvo","stateId":2910,"stateCode":"R","stateName":"Los Ríos","countryId":64,"countryCode":"EC","countryName":"Ecuador","latitude":"-1.79008000","longitude":"-79.28759000","wikiDataId":"Q23877370"},{"id":31538,"name":"Palenque","stateId":2910,"stateCode":"R","stateName":"Los Ríos","countryId":64,"countryCode":"EC","countryName":"Ecuador","latitude":"-1.43795000","longitude":"-79.75647000","wikiDataId":"Q23875490"},{"id":31559,"name":"Quevedo","stateId":2910,"stateCode":"R","stateName":"Los Ríos","countryId":64,"countryCode":"EC","countryName":"Ecuador","latitude":"-1.02863000","longitude":"-79.46352000","wikiDataId":"Q773225"},{"id":31587,"name":"Ventanas","stateId":2910,"stateCode":"R","stateName":"Los Ríos","countryId":64,"countryCode":"EC","countryName":"Ecuador","latitude":"-1.44158000","longitude":"-79.45943000","wikiDataId":"Q931224"},{"id":31588,"name":"Vinces","stateId":2910,"stateCode":"R","stateName":"Los Ríos","countryId":64,"countryCode":"EC","countryName":"Ecuador","latitude":"-1.55611000","longitude":"-79.75191000","wikiDataId":"Q5762368"},{"id":31486,"name":"Bahía de Caráquez","stateId":2913,"stateCode":"M","stateName":"Manabí","countryId":64,"countryCode":"EC","countryName":"Ecuador","latitude":"-0.59792000","longitude":"-80.42367000","wikiDataId":"Q2749246"},{"id":31491,"name":"Calceta","stateId":2913,"stateCode":"M","stateName":"Manabí","countryId":64,"countryCode":"EC","countryName":"Ecuador","latitude":"-0.84582000","longitude":"-80.16389000","wikiDataId":"Q5018764"},{"id":31492,"name":"Cantón Portoviejo","stateId":2913,"stateCode":"M","stateName":"Manabí","countryId":64,"countryCode":"EC","countryName":"Ecuador","latitude":"-1.05000000","longitude":"-80.45000000","wikiDataId":"Q617905"},{"id":31497,"name":"Chone","stateId":2913,"stateCode":"M","stateName":"Manabí","countryId":64,"countryCode":"EC","countryName":"Ecuador","latitude":"-0.69819000","longitude":"-80.09361000","wikiDataId":"Q2756591"},{"id":31514,"name":"Jipijapa","stateId":2913,"stateCode":"M","stateName":"Manabí","countryId":64,"countryCode":"EC","countryName":"Ecuador","latitude":"-1.34872000","longitude":"-80.57875000","wikiDataId":"Q11249733"},{"id":31515,"name":"Junín","stateId":2913,"stateCode":"M","stateName":"Manabí","countryId":64,"countryCode":"EC","countryName":"Ecuador","latitude":"-0.92777000","longitude":"-80.20583000","wikiDataId":"Q13189564"},{"id":31527,"name":"Manta","stateId":2913,"stateCode":"M","stateName":"Manabí","countryId":64,"countryCode":"EC","countryName":"Ecuador","latitude":"-0.96212000","longitude":"-80.71271000","wikiDataId":"Q990738"},{"id":31530,"name":"Montecristi","stateId":2913,"stateCode":"M","stateName":"Manabí","countryId":64,"countryCode":"EC","countryName":"Ecuador","latitude":"-1.04576000","longitude":"-80.65889000","wikiDataId":"Q1014493"},{"id":31537,"name":"Paján","stateId":2913,"stateCode":"M","stateName":"Manabí","countryId":64,"countryCode":"EC","countryName":"Ecuador","latitude":"-1.55238000","longitude":"-80.42958000","wikiDataId":"Q7125333"},{"id":31543,"name":"Pedernales","stateId":2913,"stateCode":"M","stateName":"Manabí","countryId":64,"countryCode":"EC","countryName":"Ecuador","latitude":"0.07167000","longitude":"-80.05250000","wikiDataId":"Q23858165"},{"id":31550,"name":"Portoviejo","stateId":2913,"stateCode":"M","stateName":"Manabí","countryId":64,"countryCode":"EC","countryName":"Ecuador","latitude":"-1.05458000","longitude":"-80.45445000","wikiDataId":"Q990716"},{"id":31563,"name":"Rocafuerte","stateId":2913,"stateCode":"M","stateName":"Manabí","countryId":64,"countryCode":"EC","countryName":"Ecuador","latitude":"-0.92360000","longitude":"-80.44946000","wikiDataId":"Q7846193"},{"id":31571,"name":"San Vicente","stateId":2913,"stateCode":"M","stateName":"Manabí","countryId":64,"countryCode":"EC","countryName":"Ecuador","latitude":"-0.60435000","longitude":"-80.40267000","wikiDataId":"Q2198509"},{"id":31573,"name":"Santa Ana","stateId":2913,"stateCode":"M","stateName":"Manabí","countryId":64,"countryCode":"EC","countryName":"Ecuador","latitude":"-1.20726000","longitude":"-80.37132000","wikiDataId":"Q23871398"},{"id":31579,"name":"Sucre","stateId":2913,"stateCode":"M","stateName":"Manabí","countryId":64,"countryCode":"EC","countryName":"Ecuador","latitude":"-1.27974000","longitude":"-80.41885000","wikiDataId":"Q7633158"},{"id":31582,"name":"Tosagua","stateId":2913,"stateCode":"M","stateName":"Manabí","countryId":64,"countryCode":"EC","countryName":"Ecuador","latitude":"-0.78679000","longitude":"-80.23473000","wikiDataId":"Q5835883"},{"id":31508,"name":"Gualaquiza","stateId":2918,"stateCode":"S","stateName":"Morona-Santiago","countryId":64,"countryCode":"EC","countryName":"Ecuador","latitude":"-3.40359000","longitude":"-78.58166000","wikiDataId":"Q5613370"},{"id":31524,"name":"Macas","stateId":2918,"stateCode":"S","stateName":"Morona-Santiago","countryId":64,"countryCode":"EC","countryName":"Ecuador","latitude":"-2.30868000","longitude":"-78.11135000","wikiDataId":"Q1014554"},{"id":31540,"name":"Palora","stateId":2918,"stateCode":"S","stateName":"Morona-Santiago","countryId":64,"countryCode":"EC","countryName":"Ecuador","latitude":"-1.70131000","longitude":"-77.96516000","wikiDataId":"Q10949718"},{"id":31580,"name":"Sucúa","stateId":2918,"stateCode":"S","stateName":"Morona-Santiago","countryId":64,"countryCode":"EC","countryName":"Ecuador","latitude":"-2.45866000","longitude":"-78.17171000","wikiDataId":"Q11041865"},{"id":31482,"name":"Archidona","stateId":2916,"stateCode":"N","stateName":"Napo","countryId":64,"countryCode":"EC","countryName":"Ecuador","latitude":"-0.90950000","longitude":"-77.80772000","wikiDataId":"Q4786593"},{"id":31581,"name":"Tena","stateId":2916,"stateCode":"N","stateName":"Napo","countryId":64,"countryCode":"EC","countryName":"Ecuador","latitude":"-0.99380000","longitude":"-77.81286000","wikiDataId":"Q994312"},{"id":31490,"name":"Boca Suno","stateId":2926,"stateCode":"D","stateName":"Orellana","countryId":64,"countryCode":"EC","countryName":"Ecuador","latitude":"-0.69832000","longitude":"-77.14083000","wikiDataId":"Q23885707"},{"id":31506,"name":"Francisco de Orellana Canton","stateId":2926,"stateCode":"D","stateName":"Orellana","countryId":64,"countryCode":"EC","countryName":"Ecuador","latitude":"-0.46667000","longitude":"-76.96667000","wikiDataId":"Q1992935"},{"id":31523,"name":"Loreto Canton","stateId":2926,"stateCode":"D","stateName":"Orellana","countryId":64,"countryCode":"EC","countryName":"Ecuador","latitude":"-0.69487000","longitude":"-77.30255000","wikiDataId":"Q6669164"},{"id":31554,"name":"Puerto Francisco de Orellana","stateId":2926,"stateCode":"D","stateName":"Orellana","countryId":64,"countryCode":"EC","countryName":"Ecuador","latitude":"-0.46645000","longitude":"-76.98719000","wikiDataId":"Q1014564"},{"id":31557,"name":"Puyo","stateId":2907,"stateCode":"Y","stateName":"Pastaza","countryId":64,"countryCode":"EC","countryName":"Ecuador","latitude":"-1.48369000","longitude":"-78.00257000","wikiDataId":"Q676931"},{"id":31495,"name":"Cayambe","stateId":2927,"stateCode":"P","stateName":"Pichincha","countryId":64,"countryCode":"EC","countryName":"Ecuador","latitude":"0.04084000","longitude":"-78.14524000","wikiDataId":"Q1051957"},{"id":31525,"name":"Machachi","stateId":2927,"stateCode":"P","stateName":"Pichincha","countryId":64,"countryCode":"EC","countryName":"Ecuador","latitude":"-0.51011000","longitude":"-78.56712000","wikiDataId":"Q6723341"},{"id":31560,"name":"Quito","stateId":2927,"stateCode":"P","stateName":"Pichincha","countryId":64,"countryCode":"EC","countryName":"Ecuador","latitude":"-0.22985000","longitude":"-78.52495000","wikiDataId":"Q2900"},{"id":31572,"name":"Sangolquí","stateId":2927,"stateCode":"P","stateName":"Pichincha","countryId":64,"countryCode":"EC","countryName":"Ecuador","latitude":"-0.33405000","longitude":"-78.45217000","wikiDataId":"Q2361658"},{"id":31584,"name":"Tutamandahostel","stateId":2927,"stateCode":"P","stateName":"Pichincha","countryId":64,"countryCode":"EC","countryName":"Ecuador","latitude":"-0.19727000","longitude":"-78.49750000","wikiDataId":"Q752113"},{"id":31516,"name":"La Libertad","stateId":2912,"stateCode":"SE","stateName":"Santa Elena","countryId":64,"countryCode":"EC","countryName":"Ecuador","latitude":"-2.23300000","longitude":"-80.91039000","wikiDataId":"Q1798895"},{"id":31565,"name":"Salinas","stateId":2912,"stateCode":"SE","stateName":"Santa Elena","countryId":64,"countryCode":"EC","countryName":"Ecuador","latitude":"-2.21452000","longitude":"-80.95151000","wikiDataId":"Q1026284"},{"id":31574,"name":"Santa Elena","stateId":2912,"stateCode":"SE","stateName":"Santa Elena","countryId":64,"countryCode":"EC","countryName":"Ecuador","latitude":"-2.22622000","longitude":"-80.85873000","wikiDataId":"Q135864"},{"id":31577,"name":"Santo Domingo de los Colorados","stateId":2919,"stateCode":"SD","stateName":"Santo Domingo de los Tsáchilas","countryId":64,"countryCode":"EC","countryName":"Ecuador","latitude":"-0.25305000","longitude":"-79.17536000","wikiDataId":"Q1015654"},{"id":31534,"name":"Nueva Loja","stateId":2906,"stateCode":"U","stateName":"Sucumbíos","countryId":64,"countryCode":"EC","countryName":"Ecuador","latitude":"0.08600000","longitude":"-76.89528000","wikiDataId":"Q683938"},{"id":31481,"name":"Ambato","stateId":2908,"stateCode":"T","stateName":"Tungurahua","countryId":64,"countryCode":"EC","countryName":"Ecuador","latitude":"-1.24908000","longitude":"-78.61675000","wikiDataId":"Q210161"},{"id":31489,"name":"Baños","stateId":2908,"stateCode":"T","stateName":"Tungurahua","countryId":64,"countryCode":"EC","countryName":"Ecuador","latitude":"-1.39699000","longitude":"-78.42289000","wikiDataId":"Q23885609"},{"id":31545,"name":"Pelileo","stateId":2908,"stateCode":"T","stateName":"Tungurahua","countryId":64,"countryCode":"EC","countryName":"Ecuador","latitude":"-1.32990000","longitude":"-78.54341000","wikiDataId":"Q3773723"},{"id":31558,"name":"Píllaro","stateId":2908,"stateCode":"T","stateName":"Tungurahua","countryId":64,"countryCode":"EC","countryName":"Ecuador","latitude":"-1.17414000","longitude":"-78.54676000","wikiDataId":"Q8215260"},{"id":31590,"name":"Yantzaza","stateId":2909,"stateCode":"Z","stateName":"Zamora Chinchipe","countryId":64,"countryCode":"EC","countryName":"Ecuador","latitude":"-3.83261000","longitude":"-78.76076000","wikiDataId":"Q5763412"},{"id":31591,"name":"Zamora","stateId":2909,"stateCode":"Z","stateName":"Zamora Chinchipe","countryId":64,"countryCode":"EC","countryName":"Ecuador","latitude":"-4.06685000","longitude":"-78.95488000","wikiDataId":"Q2283736"}]