[{"id":9265,"name":"Bansko","stateId":4699,"stateCode":"01","stateName":"Blagoevgrad Province","countryId":34,"countryCode":"BG","countryName":"Bulgaria","latitude":"41.83830000","longitude":"23.48851000","wikiDataId":"Q391159"},{"id":9270,"name":"Belitsa","stateId":4699,"stateCode":"01","stateName":"Blagoevgrad Province","countryId":34,"countryCode":"BG","countryName":"Bulgaria","latitude":"41.95694000","longitude":"23.57250000","wikiDataId":"Q406631"},{"id":9275,"name":"Blagoevgrad","stateId":4699,"stateCode":"01","stateName":"Blagoevgrad Province","countryId":34,"countryCode":"BG","countryName":"Bulgaria","latitude":"42.01667000","longitude":"23.10000000","wikiDataId":"Q173277"},{"id":9329,"name":"Garmen","stateId":4699,"stateCode":"01","stateName":"Blagoevgrad Province","countryId":34,"countryCode":"BG","countryName":"Bulgaria","latitude":"41.60000000","longitude":"23.81667000","wikiDataId":"Q2332319"},{"id":9335,"name":"Gotse Delchev","stateId":4699,"stateCode":"01","stateName":"Blagoevgrad Province","countryId":34,"countryCode":"BG","countryName":"Bulgaria","latitude":"41.56667000","longitude":"23.73333000","wikiDataId":"Q457141"},{"id":9341,"name":"Hadzhidimovo","stateId":4699,"stateCode":"01","stateName":"Blagoevgrad Province","countryId":34,"countryCode":"BG","countryName":"Bulgaria","latitude":"41.52222000","longitude":"23.86861000","wikiDataId":"Q406426"},{"id":9368,"name":"Kolarovo","stateId":4699,"stateCode":"01","stateName":"Blagoevgrad Province","countryId":34,"countryCode":"BG","countryName":"Bulgaria","latitude":"41.36385000","longitude":"23.10669000","wikiDataId":"Q407307"},{"id":9374,"name":"Kresna","stateId":4699,"stateCode":"01","stateName":"Blagoevgrad Province","countryId":34,"countryCode":"BG","countryName":"Bulgaria","latitude":"41.73333000","longitude":"23.15000000","wikiDataId":"Q406476"},{"id":9422,"name":"Obshtina Bansko","stateId":4699,"stateCode":"01","stateName":"Blagoevgrad Province","countryId":34,"countryCode":"BG","countryName":"Bulgaria","latitude":"41.80000000","longitude":"23.60000000","wikiDataId":"Q2085163"},{"id":9425,"name":"Obshtina Belitsa","stateId":4699,"stateCode":"01","stateName":"Blagoevgrad Province","countryId":34,"countryCode":"BG","countryName":"Bulgaria","latitude":"42.01667000","longitude":"23.58333000","wikiDataId":"Q2281436"},{"id":9429,"name":"Obshtina Blagoevgrad","stateId":4699,"stateCode":"01","stateName":"Blagoevgrad Province","countryId":34,"countryCode":"BG","countryName":"Bulgaria","latitude":"42.01667000","longitude":"23.16667000","wikiDataId":"Q628050"},{"id":9476,"name":"Obshtina Garmen","stateId":4699,"stateCode":"01","stateName":"Blagoevgrad Province","countryId":34,"countryCode":"BG","countryName":"Bulgaria","latitude":"41.70000000","longitude":"23.85000000","wikiDataId":"Q2452337"},{"id":9482,"name":"Obshtina Gotse Delchev","stateId":4699,"stateCode":"01","stateName":"Blagoevgrad Province","countryId":34,"countryCode":"BG","countryName":"Bulgaria","latitude":"41.63333000","longitude":"23.68333000","wikiDataId":"Q2557228"},{"id":9511,"name":"Obshtina Kresna","stateId":4699,"stateCode":"01","stateName":"Blagoevgrad Province","countryId":34,"countryCode":"BG","countryName":"Bulgaria","latitude":"41.76667000","longitude":"23.23333000","wikiDataId":"Q2662531"},{"id":9555,"name":"Obshtina Petrich","stateId":4699,"stateCode":"01","stateName":"Blagoevgrad Province","countryId":34,"countryCode":"BG","countryName":"Bulgaria","latitude":"41.45000000","longitude":"23.16667000","wikiDataId":"Q2653369"},{"id":9571,"name":"Obshtina Razlog","stateId":4699,"stateCode":"01","stateName":"Blagoevgrad Province","countryId":34,"countryCode":"BG","countryName":"Bulgaria","latitude":"41.95000000","longitude":"23.46667000","wikiDataId":"Q1570650"},{"id":9582,"name":"Obshtina Sandanski","stateId":4699,"stateCode":"01","stateName":"Blagoevgrad Province","countryId":34,"countryCode":"BG","countryName":"Bulgaria","latitude":"41.56667000","longitude":"23.45000000","wikiDataId":"Q2653376"},{"id":9584,"name":"Obshtina Satovcha","stateId":4699,"stateCode":"01","stateName":"Blagoevgrad Province","countryId":34,"countryCode":"BG","countryName":"Bulgaria","latitude":"41.59848000","longitude":"24.00781000","wikiDataId":"Q2997839"},{"id":9589,"name":"Obshtina Simitli","stateId":4699,"stateCode":"01","stateName":"Blagoevgrad Province","countryId":34,"countryCode":"BG","countryName":"Bulgaria","latitude":"41.88333000","longitude":"23.16667000","wikiDataId":"Q2722835"},{"id":9603,"name":"Obshtina Strumyani","stateId":4699,"stateCode":"01","stateName":"Blagoevgrad Province","countryId":34,"countryCode":"BG","countryName":"Bulgaria","latitude":"41.63333000","longitude":"23.20000000","wikiDataId":"Q2722846"},{"id":9633,"name":"Obshtina Yakoruda","stateId":4699,"stateCode":"01","stateName":"Blagoevgrad Province","countryId":34,"countryCode":"BG","countryName":"Bulgaria","latitude":"42.08333000","longitude":"23.70000000","wikiDataId":"Q775710"},{"id":9653,"name":"Petrich","stateId":4699,"stateCode":"01","stateName":"Blagoevgrad Province","countryId":34,"countryCode":"BG","countryName":"Bulgaria","latitude":"41.39846000","longitude":"23.20702000","wikiDataId":"Q191099"},{"id":9670,"name":"Razlog","stateId":4699,"stateCode":"01","stateName":"Blagoevgrad Province","countryId":34,"countryCode":"BG","countryName":"Bulgaria","latitude":"41.88630000","longitude":"23.46714000","wikiDataId":"Q929605"},{"id":9681,"name":"Sandanski","stateId":4699,"stateCode":"01","stateName":"Blagoevgrad Province","countryId":34,"countryCode":"BG","countryName":"Bulgaria","latitude":"41.56667000","longitude":"23.28333000","wikiDataId":"Q331566"},{"id":9686,"name":"Satovcha","stateId":4699,"stateCode":"01","stateName":"Blagoevgrad Province","countryId":34,"countryCode":"BG","countryName":"Bulgaria","latitude":"41.61667000","longitude":"23.98333000","wikiDataId":"Q2043469"},{"id":9694,"name":"Simitli","stateId":4699,"stateCode":"01","stateName":"Blagoevgrad Province","countryId":34,"countryCode":"BG","countryName":"Bulgaria","latitude":"41.88333000","longitude":"23.11667000","wikiDataId":"Q1897942"},{"id":9705,"name":"Stara Kresna","stateId":4699,"stateCode":"01","stateName":"Blagoevgrad Province","countryId":34,"countryCode":"BG","countryName":"Bulgaria","latitude":"41.80000000","longitude":"23.18333000","wikiDataId":"Q2598096"},{"id":9711,"name":"Strumyani","stateId":4699,"stateCode":"01","stateName":"Blagoevgrad Province","countryId":34,"countryCode":"BG","countryName":"Bulgaria","latitude":"41.63333000","longitude":"23.20000000","wikiDataId":"Q2046578"},{"id":9745,"name":"Yakoruda","stateId":4699,"stateCode":"01","stateName":"Blagoevgrad Province","countryId":34,"countryCode":"BG","countryName":"Bulgaria","latitude":"42.02528000","longitude":"23.68417000","wikiDataId":"Q406493"}]