[{"id":67734,"name":"Tsetserleg","stateId":1973,"stateCode":"073","stateName":"Arkhangai Province","countryId":146,"countryCode":"MN","countryName":"Mongolia","latitude":"47.47500000","longitude":"101.45417000","wikiDataId":"Q529834"},{"id":67706,"name":"Altay","stateId":1969,"stateCode":"071","stateName":"Bayan-Ölgii Province","countryId":146,"countryCode":"MN","countryName":"Mongolia","latitude":"48.29359000","longitude":"89.51488000","wikiDataId":"Q2593952"},{"id":67740,"name":"Ölgii","stateId":1969,"stateCode":"071","stateName":"Bayan-Ölgii Province","countryId":146,"countryCode":"MN","countryName":"Mongolia","latitude":"48.96833000","longitude":"89.96250000","wikiDataId":"Q297060"},{"id":67733,"name":"Tsengel","stateId":1969,"stateCode":"071","stateName":"Bayan-Ölgii Province","countryId":146,"countryCode":"MN","countryName":"Mongolia","latitude":"48.94314000","longitude":"89.14358000","wikiDataId":"Q46319"},{"id":67709,"name":"Bayanhongor","stateId":1976,"stateCode":"069","stateName":"Bayankhongor Province","countryId":146,"countryCode":"MN","countryName":"Mongolia","latitude":"46.19444000","longitude":"100.71806000","wikiDataId":"Q804117"},{"id":67710,"name":"Bulgan","stateId":1961,"stateCode":"067","stateName":"Bulgan Province","countryId":146,"countryCode":"MN","countryName":"Mongolia","latitude":"48.81250000","longitude":"103.53472000","wikiDataId":"Q945055"},{"id":67714,"name":"Darhan","stateId":1962,"stateCode":"037","stateName":"Darkhan-Uul Province","countryId":146,"countryCode":"MN","countryName":"Mongolia","latitude":"49.48667000","longitude":"105.92278000","wikiDataId":"Q235571"},{"id":67711,"name":"Choibalsan","stateId":1963,"stateCode":"061","stateName":"Dornod Province","countryId":146,"countryCode":"MN","countryName":"Mongolia","latitude":"48.07257000","longitude":"114.53264000","wikiDataId":"Q318245"},{"id":67718,"name":"Ereencav","stateId":1963,"stateCode":"061","stateName":"Dornod Province","countryId":146,"countryCode":"MN","countryName":"Mongolia","latitude":"49.88070000","longitude":"115.72526000","wikiDataId":"Q230628"},{"id":67725,"name":"Mandalgovi","stateId":1970,"stateCode":"059","stateName":"Dundgovi Province","countryId":146,"countryCode":"MN","countryName":"Mongolia","latitude":"45.76250000","longitude":"106.27083000","wikiDataId":"Q1000373"},{"id":67705,"name":"Altai","stateId":1972,"stateCode":"065","stateName":"Govi-Altai Province","countryId":146,"countryCode":"MN","countryName":"Mongolia","latitude":"46.37222000","longitude":"96.25833000","wikiDataId":"Q433861"},{"id":67712,"name":"Choyr","stateId":1978,"stateCode":"064","stateName":"Govisümber Province","countryId":146,"countryCode":"MN","countryName":"Mongolia","latitude":"46.36111000","longitude":"108.36111000","wikiDataId":"Q642346"},{"id":67739,"name":"Undurkhaan","stateId":1974,"stateCode":"039","stateName":"Khentii Province","countryId":146,"countryCode":"MN","countryName":"Mongolia","latitude":"47.31944000","longitude":"110.65556000","wikiDataId":"Q297632"},{"id":67724,"name":"Khovd","stateId":1964,"stateCode":"043","stateName":"Khovd Province","countryId":146,"countryCode":"MN","countryName":"Mongolia","latitude":"48.00556000","longitude":"91.64194000","wikiDataId":"Q731256"},{"id":67728,"name":"Möst","stateId":1964,"stateCode":"043","stateName":"Khovd Province","countryId":146,"countryCode":"MN","countryName":"Mongolia","latitude":"46.67712000","longitude":"92.78521000","wikiDataId":"Q10950043"},{"id":67741,"name":"Üyönch","stateId":1964,"stateCode":"043","stateName":"Khovd Province","countryId":146,"countryCode":"MN","countryName":"Mongolia","latitude":"46.04786000","longitude":"92.02612000","wikiDataId":"Q3404181"},{"id":67719,"name":"Hanh","stateId":1975,"stateCode":"041","stateName":"Khövsgöl Province","countryId":146,"countryCode":"MN","countryName":"Mongolia","latitude":"51.50265000","longitude":"100.66395000","wikiDataId":"Q2607700"},{"id":67726,"name":"Murun-kuren","stateId":1975,"stateCode":"041","stateName":"Khövsgöl Province","countryId":146,"countryCode":"MN","countryName":"Mongolia","latitude":"49.63417000","longitude":"100.16250000","wikiDataId":"Q1000373"},{"id":67732,"name":"Tsengel","stateId":1975,"stateCode":"041","stateName":"Khövsgöl Province","countryId":146,"countryCode":"MN","countryName":"Mongolia","latitude":"49.47833000","longitude":"100.88944000","wikiDataId":"Q46319"},{"id":67735,"name":"Turt","stateId":1975,"stateCode":"041","stateName":"Khövsgöl Province","countryId":146,"countryCode":"MN","countryName":"Mongolia","latitude":"51.50725000","longitude":"100.66257000","wikiDataId":"Q529834"},{"id":67713,"name":"Dalandzadgad","stateId":1967,"stateCode":"053","stateName":"Ömnögovi Province","countryId":146,"countryCode":"MN","countryName":"Mongolia","latitude":"43.57083000","longitude":"104.42500000","wikiDataId":"Q822808"},{"id":67720,"name":"Hanhongor","stateId":1967,"stateCode":"053","stateName":"Ömnögovi Province","countryId":146,"countryCode":"MN","countryName":"Mongolia","latitude":"43.77345000","longitude":"104.47998000","wikiDataId":"Q3402358"},{"id":67730,"name":"Nomgon Sum","stateId":1967,"stateCode":"053","stateName":"Ömnögovi Province","countryId":146,"countryCode":"MN","countryName":"Mongolia","latitude":"42.41462000","longitude":"105.05640000","wikiDataId":"Q3402154"},{"id":67717,"name":"Erdenet","stateId":1966,"stateCode":"035","stateName":"Orkhon Province","countryId":146,"countryCode":"MN","countryName":"Mongolia","latitude":"49.03333000","longitude":"104.08333000","wikiDataId":"Q230628"},{"id":67707,"name":"Arvayheer","stateId":1965,"stateCode":"055","stateName":"Övörkhangai Province","countryId":146,"countryCode":"MN","countryName":"Mongolia","latitude":"46.26389000","longitude":"102.77500000","wikiDataId":"Q717684"},{"id":67721,"name":"Harhorin","stateId":1965,"stateCode":"055","stateName":"Övörkhangai Province","countryId":146,"countryCode":"MN","countryName":"Mongolia","latitude":"47.19753000","longitude":"102.82379000","wikiDataId":"Q3402358"},{"id":67722,"name":"Hovd","stateId":1965,"stateCode":"055","stateName":"Övörkhangai Province","countryId":146,"countryCode":"MN","countryName":"Mongolia","latitude":"44.67024000","longitude":"102.17491000","wikiDataId":"Q3402358"},{"id":67723,"name":"Kharkhorin","stateId":1965,"stateCode":"055","stateName":"Övörkhangai Province","countryId":146,"countryCode":"MN","countryName":"Mongolia","latitude":"47.19245000","longitude":"102.81349000","wikiDataId":"Q3402358"},{"id":67729,"name":"Nariynteel","stateId":1965,"stateCode":"055","stateName":"Övörkhangai Province","countryId":146,"countryCode":"MN","countryName":"Mongolia","latitude":"45.95950000","longitude":"101.45977000","wikiDataId":"Q3402273"},{"id":67716,"name":"Dzüünharaa","stateId":1980,"stateCode":"049","stateName":"Selenge Province","countryId":146,"countryCode":"MN","countryName":"Mongolia","latitude":"48.85229000","longitude":"106.45786000","wikiDataId":"Q917690"},{"id":67731,"name":"Sühbaatar","stateId":1980,"stateCode":"049","stateName":"Selenge Province","countryId":146,"countryCode":"MN","countryName":"Mongolia","latitude":"50.23139000","longitude":"106.20778000","wikiDataId":"Q46319"},{"id":67708,"name":"Baruun-Urt","stateId":1977,"stateCode":"051","stateName":"Sükhbaatar Province","countryId":146,"countryCode":"MN","countryName":"Mongolia","latitude":"46.68056000","longitude":"113.27917000","wikiDataId":"Q809657"},{"id":67715,"name":"Dzuunmod","stateId":1968,"stateCode":"047","stateName":"Töv Province","countryId":146,"countryCode":"MN","countryName":"Mongolia","latitude":"47.70694000","longitude":"106.95278000","wikiDataId":"Q917690"},{"id":67727,"name":"Möngönmorĭt","stateId":1968,"stateCode":"047","stateName":"Töv Province","countryId":146,"countryCode":"MN","countryName":"Mongolia","latitude":"48.19504000","longitude":"108.48295000","wikiDataId":"Q3403761"},{"id":67737,"name":"Ulaanhudag","stateId":1968,"stateCode":"047","stateName":"Töv Province","countryId":146,"countryCode":"MN","countryName":"Mongolia","latitude":"47.33333000","longitude":"104.50000000","wikiDataId":"Q822815"},{"id":67742,"name":"Зуунмод","stateId":1968,"stateCode":"047","stateName":"Töv Province","countryId":146,"countryCode":"MN","countryName":"Mongolia","latitude":"47.70693000","longitude":"106.95276000","wikiDataId":"Q3404181"},{"id":67736,"name":"Ulaangom","stateId":1971,"stateCode":"046","stateName":"Uvs Province","countryId":146,"countryCode":"MN","countryName":"Mongolia","latitude":"49.98111000","longitude":"92.06667000","wikiDataId":"Q822815"},{"id":67738,"name":"Uliastay","stateId":1979,"stateCode":"057","stateName":"Zavkhan Province","countryId":146,"countryCode":"MN","countryName":"Mongolia","latitude":"47.74167000","longitude":"96.84444000","wikiDataId":"Q943374"}]