[{"id":22107,"name":"Adamov","stateId":4602,"stateCode":"64","stateName":"Jihomoravský kraj","countryId":58,"countryCode":"CZ","countryName":"Czech Republic","latitude":"49.30162000","longitude":"16.65253000","wikiDataId":"Q158242"},{"id":22196,"name":"Bílovice nad Svitavou","stateId":4602,"stateCode":"64","stateName":"Jihomoravský kraj","countryId":58,"countryCode":"CZ","countryName":"Czech Republic","latitude":"49.24708000","longitude":"16.67247000","wikiDataId":"Q389988"},{"id":22129,"name":"Blansko","stateId":4602,"stateCode":"64","stateName":"Jihomoravský kraj","countryId":58,"countryCode":"CZ","countryName":"Czech Republic","latitude":"49.36304000","longitude":"16.64446000","wikiDataId":"Q850676"},{"id":22131,"name":"Blažovice","stateId":4602,"stateCode":"64","stateName":"Jihomoravský kraj","countryId":58,"countryCode":"CZ","countryName":"Czech Republic","latitude":"49.16569000","longitude":"16.78611000","wikiDataId":"Q883280"},{"id":22136,"name":"Blížkovice","stateId":4602,"stateCode":"64","stateName":"Jihomoravský kraj","countryId":58,"countryCode":"CZ","countryName":"Czech Republic","latitude":"48.99976000","longitude":"15.83482000","wikiDataId":"Q2626377"},{"id":22134,"name":"Blučina","stateId":4602,"stateCode":"64","stateName":"Jihomoravský kraj","countryId":58,"countryCode":"CZ","countryName":"Czech Republic","latitude":"49.05497000","longitude":"16.64450000","wikiDataId":"Q301595"},{"id":22154,"name":"Bořetice","stateId":4602,"stateCode":"64","stateName":"Jihomoravský kraj","countryId":58,"countryCode":"CZ","countryName":"Czech Republic","latitude":"48.91302000","longitude":"16.85306000","wikiDataId":"Q896281"},{"id":22155,"name":"Bořitov","stateId":4602,"stateCode":"64","stateName":"Jihomoravský kraj","countryId":58,"countryCode":"CZ","countryName":"Czech Republic","latitude":"49.42504000","longitude":"16.59119000","wikiDataId":"Q896292"},{"id":22152,"name":"Boskovice","stateId":4602,"stateCode":"64","stateName":"Jihomoravský kraj","countryId":58,"countryCode":"CZ","countryName":"Czech Republic","latitude":"49.48751000","longitude":"16.65997000","wikiDataId":"Q894440"},{"id":22156,"name":"Bošovice","stateId":4602,"stateCode":"64","stateName":"Jihomoravský kraj","countryId":58,"countryCode":"CZ","countryName":"Czech Republic","latitude":"49.05351000","longitude":"16.83676000","wikiDataId":"Q896329"},{"id":22157,"name":"Božice","stateId":4602,"stateCode":"64","stateName":"Jihomoravský kraj","countryId":58,"countryCode":"CZ","countryName":"Czech Republic","latitude":"48.83687000","longitude":"16.28875000","wikiDataId":"Q896384"},{"id":22204,"name":"Břeclav","stateId":4602,"stateCode":"64","stateName":"Jihomoravský kraj","countryId":58,"countryCode":"CZ","countryName":"Czech Republic","latitude":"48.75897000","longitude":"16.88203000","wikiDataId":"Q581478"},{"id":22213,"name":"Březí","stateId":4602,"stateCode":"64","stateName":"Jihomoravský kraj","countryId":58,"countryCode":"CZ","countryName":"Czech Republic","latitude":"48.81928000","longitude":"16.56748000","wikiDataId":"Q1019834"},{"id":22166,"name":"Brno","stateId":4602,"stateCode":"64","stateName":"Jihomoravský kraj","countryId":58,"countryCode":"CZ","countryName":"Czech Republic","latitude":"49.19522000","longitude":"16.60796000","wikiDataId":"Q14960"},{"id":22180,"name":"Bučovice","stateId":4602,"stateCode":"64","stateName":"Jihomoravský kraj","countryId":58,"countryCode":"CZ","countryName":"Czech Republic","latitude":"49.14896000","longitude":"17.00191000","wikiDataId":"Q776426"},{"id":22190,"name":"Bzenec","stateId":4602,"stateCode":"64","stateName":"Jihomoravský kraj","countryId":58,"countryCode":"CZ","countryName":"Czech Republic","latitude":"48.97336000","longitude":"17.26685000","wikiDataId":"Q1018795"},{"id":23363,"name":"Čebín","stateId":4602,"stateCode":"64","stateName":"Jihomoravský kraj","countryId":58,"countryCode":"CZ","countryName":"Czech Republic","latitude":"49.31324000","longitude":"16.47791000","wikiDataId":"Q338029"},{"id":23366,"name":"Čejč","stateId":4602,"stateCode":"64","stateName":"Jihomoravský kraj","countryId":58,"countryCode":"CZ","countryName":"Czech Republic","latitude":"48.94653000","longitude":"16.96511000","wikiDataId":"Q2641539"},{"id":23365,"name":"Čejkovice","stateId":4602,"stateCode":"64","stateName":"Jihomoravský kraj","countryId":58,"countryCode":"CZ","countryName":"Czech Republic","latitude":"48.90592000","longitude":"16.94230000","wikiDataId":"Q2060542"},{"id":23375,"name":"Černá Hora","stateId":4602,"stateCode":"64","stateName":"Jihomoravský kraj","countryId":58,"countryCode":"CZ","countryName":"Czech Republic","latitude":"49.41361000","longitude":"16.58140000","wikiDataId":"Q339213"},{"id":22249,"name":"Dambořice","stateId":4602,"stateCode":"64","stateName":"Jihomoravský kraj","countryId":58,"countryCode":"CZ","countryName":"Czech Republic","latitude":"49.03828000","longitude":"16.91757000","wikiDataId":"Q1158317"},{"id":22267,"name":"Dobšice","stateId":4602,"stateCode":"64","stateName":"Jihomoravský kraj","countryId":58,"countryCode":"CZ","countryName":"Czech Republic","latitude":"48.84834000","longitude":"16.08218000","wikiDataId":"Q929919"},{"id":22275,"name":"Dolní Bojanovice","stateId":4602,"stateCode":"64","stateName":"Jihomoravský kraj","countryId":58,"countryCode":"CZ","countryName":"Czech Republic","latitude":"48.85861000","longitude":"17.02859000","wikiDataId":"Q1948549"},{"id":22281,"name":"Dolní Dunajovice","stateId":4602,"stateCode":"64","stateName":"Jihomoravský kraj","countryId":58,"countryCode":"CZ","countryName":"Czech Republic","latitude":"48.85447000","longitude":"16.59283000","wikiDataId":"Q1023844"},{"id":22283,"name":"Dolní Kounice","stateId":4602,"stateCode":"64","stateName":"Jihomoravský kraj","countryId":58,"countryCode":"CZ","countryName":"Czech Republic","latitude":"49.07011000","longitude":"16.46492000","wikiDataId":"Q1023466"},{"id":22285,"name":"Dolní Loućky","stateId":4602,"stateCode":"64","stateName":"Jihomoravský kraj","countryId":58,"countryCode":"CZ","countryName":"Czech Republic","latitude":"49.36099000","longitude":"16.35871000","wikiDataId":"Q1236134"},{"id":22302,"name":"Domanín","stateId":4602,"stateCode":"64","stateName":"Jihomoravský kraj","countryId":58,"countryCode":"CZ","countryName":"Czech Republic","latitude":"49.00167000","longitude":"17.28476000","wikiDataId":"Q1236817"},{"id":22305,"name":"Doubravice nad Svitavou","stateId":4602,"stateCode":"64","stateName":"Jihomoravský kraj","countryId":58,"countryCode":"CZ","countryName":"Czech Republic","latitude":"49.43664000","longitude":"16.62937000","wikiDataId":"Q1251587"},{"id":22310,"name":"Drásov","stateId":4602,"stateCode":"64","stateName":"Jihomoravský kraj","countryId":58,"countryCode":"CZ","countryName":"Czech Republic","latitude":"49.33183000","longitude":"16.47798000","wikiDataId":"Q1261674"},{"id":22308,"name":"Drnholec","stateId":4602,"stateCode":"64","stateName":"Jihomoravský kraj","countryId":58,"countryCode":"CZ","countryName":"Czech Republic","latitude":"48.85746000","longitude":"16.48586000","wikiDataId":"Q1023882"},{"id":22309,"name":"Drnovice","stateId":4602,"stateCode":"64","stateName":"Jihomoravský kraj","countryId":58,"countryCode":"CZ","countryName":"Czech Republic","latitude":"49.27630000","longitude":"16.95146000","wikiDataId":"Q1259475"},{"id":22316,"name":"Dubňany","stateId":4602,"stateCode":"64","stateName":"Jihomoravský kraj","countryId":58,"countryCode":"CZ","countryName":"Czech Republic","latitude":"48.91694000","longitude":"17.09004000","wikiDataId":"Q579957"},{"id":22350,"name":"Hevlín","stateId":4602,"stateCode":"64","stateName":"Jihomoravský kraj","countryId":58,"countryCode":"CZ","countryName":"Czech Republic","latitude":"48.75209000","longitude":"16.38131000","wikiDataId":"Q954345"},{"id":22354,"name":"Hlohovec","stateId":4602,"stateCode":"64","stateName":"Jihomoravský kraj","countryId":58,"countryCode":"CZ","countryName":"Czech Republic","latitude":"48.77399000","longitude":"16.76230000","wikiDataId":"Q1017034"},{"id":22364,"name":"Hodonice","stateId":4602,"stateCode":"64","stateName":"Jihomoravský kraj","countryId":58,"countryCode":"CZ","countryName":"Czech Republic","latitude":"48.83680000","longitude":"16.16337000","wikiDataId":"Q1622736"},{"id":22365,"name":"Hodonín","stateId":4602,"stateCode":"64","stateName":"Jihomoravský kraj","countryId":58,"countryCode":"CZ","countryName":"Czech Republic","latitude":"48.84893000","longitude":"17.13244000","wikiDataId":"Q321778"},{"id":22403,"name":"Hostěradice","stateId":4602,"stateCode":"64","stateName":"Jihomoravský kraj","countryId":58,"countryCode":"CZ","countryName":"Czech Republic","latitude":"48.95006000","longitude":"16.25931000","wikiDataId":"Q1630651"},{"id":22404,"name":"Hovorany","stateId":4602,"stateCode":"64","stateName":"Jihomoravský kraj","countryId":58,"countryCode":"CZ","countryName":"Czech Republic","latitude":"48.95493000","longitude":"16.99346000","wikiDataId":"Q2623794"},{"id":22424,"name":"Hroznová Lhota","stateId":4602,"stateCode":"64","stateName":"Jihomoravský kraj","countryId":58,"countryCode":"CZ","countryName":"Czech Republic","latitude":"48.90784000","longitude":"17.41697000","wikiDataId":"Q1632460"},{"id":22426,"name":"Hrušky","stateId":4602,"stateCode":"64","stateName":"Jihomoravský kraj","countryId":58,"countryCode":"CZ","countryName":"Czech Republic","latitude":"48.79272000","longitude":"16.97404000","wikiDataId":"Q1022315"},{"id":22427,"name":"Hrušovany nad Jevišovkou","stateId":4602,"stateCode":"64","stateName":"Jihomoravský kraj","countryId":58,"countryCode":"CZ","countryName":"Czech Republic","latitude":"48.82991000","longitude":"16.40271000","wikiDataId":"Q1632522"},{"id":22428,"name":"Hrušovany u Brna","stateId":4602,"stateCode":"64","stateName":"Jihomoravský kraj","countryId":58,"countryCode":"CZ","countryName":"Czech Republic","latitude":"49.03863000","longitude":"16.59429000","wikiDataId":"Q1632517"},{"id":22437,"name":"Hustopeče","stateId":4602,"stateCode":"64","stateName":"Jihomoravský kraj","countryId":58,"countryCode":"CZ","countryName":"Czech Republic","latitude":"48.94085000","longitude":"16.73762000","wikiDataId":"Q1023875"},{"id":22444,"name":"Ivančice","stateId":4602,"stateCode":"64","stateName":"Jihomoravský kraj","countryId":58,"countryCode":"CZ","countryName":"Czech Republic","latitude":"49.10144000","longitude":"16.37752000","wikiDataId":"Q1008686"},{"id":22443,"name":"Ivanovice na Hané","stateId":4602,"stateCode":"64","stateName":"Jihomoravský kraj","countryId":58,"countryCode":"CZ","countryName":"Czech Republic","latitude":"49.30542000","longitude":"17.09343000","wikiDataId":"Q163881"},{"id":22459,"name":"Jaroslavice","stateId":4602,"stateCode":"64","stateName":"Jihomoravský kraj","countryId":58,"countryCode":"CZ","countryName":"Czech Republic","latitude":"48.75657000","longitude":"16.23351000","wikiDataId":"Q787877"},{"id":22463,"name":"Jedovnice","stateId":4602,"stateCode":"64","stateName":"Jihomoravský kraj","countryId":58,"countryCode":"CZ","countryName":"Czech Republic","latitude":"49.34453000","longitude":"16.75595000","wikiDataId":"Q1686189"},{"id":22469,"name":"Jevišovice","stateId":4602,"stateCode":"64","stateName":"Jihomoravský kraj","countryId":58,"countryCode":"CZ","countryName":"Czech Republic","latitude":"48.98736000","longitude":"15.98992000","wikiDataId":"Q1641793"},{"id":22516,"name":"Klobouky","stateId":4602,"stateCode":"64","stateName":"Jihomoravský kraj","countryId":58,"countryCode":"CZ","countryName":"Czech Republic","latitude":"48.99609000","longitude":"16.86298000","wikiDataId":"Q1023810"},{"id":22520,"name":"Kněždub","stateId":4602,"stateCode":"64","stateName":"Jihomoravský kraj","countryId":58,"countryCode":"CZ","countryName":"Czech Republic","latitude":"48.88666000","longitude":"17.39546000","wikiDataId":"Q2613554"},{"id":22525,"name":"Kobylí","stateId":4602,"stateCode":"64","stateName":"Jihomoravský kraj","countryId":58,"countryCode":"CZ","countryName":"Czech Republic","latitude":"48.93286000","longitude":"16.89159000","wikiDataId":"Q1023865"},{"id":22542,"name":"Kostice","stateId":4602,"stateCode":"64","stateName":"Jihomoravský kraj","countryId":58,"countryCode":"CZ","countryName":"Czech Republic","latitude":"48.74685000","longitude":"16.97869000","wikiDataId":"Q591708"},{"id":22584,"name":"Křenovice","stateId":4602,"stateCode":"64","stateName":"Jihomoravský kraj","countryId":58,"countryCode":"CZ","countryName":"Czech Republic","latitude":"49.14216000","longitude":"16.82932000","wikiDataId":"Q1789694"},{"id":22585,"name":"Křepice","stateId":4602,"stateCode":"64","stateName":"Jihomoravský kraj","countryId":58,"countryCode":"CZ","countryName":"Czech Republic","latitude":"48.99986000","longitude":"16.71989000","wikiDataId":"Q636578"},{"id":22562,"name":"Krumvíř","stateId":4602,"stateCode":"64","stateName":"Jihomoravský kraj","countryId":58,"countryCode":"CZ","countryName":"Czech Republic","latitude":"48.98901000","longitude":"16.91027000","wikiDataId":"Q1008603"},{"id":22574,"name":"Kunštát","stateId":4602,"stateCode":"64","stateName":"Jihomoravský kraj","countryId":58,"countryCode":"CZ","countryName":"Czech Republic","latitude":"49.50645000","longitude":"16.51722000","wikiDataId":"Q1381784"},{"id":22577,"name":"Kuřim","stateId":4602,"stateCode":"64","stateName":"Jihomoravský kraj","countryId":58,"countryCode":"CZ","countryName":"Czech Republic","latitude":"49.29852000","longitude":"16.53144000","wikiDataId":"Q1000046"},{"id":22580,"name":"Kyjov","stateId":4602,"stateCode":"64","stateName":"Jihomoravský kraj","countryId":58,"countryCode":"CZ","countryName":"Czech Republic","latitude":"49.01018000","longitude":"17.12253000","wikiDataId":"Q104587"},{"id":22591,"name":"Lanžhot","stateId":4602,"stateCode":"64","stateName":"Jihomoravský kraj","countryId":58,"countryCode":"CZ","countryName":"Czech Republic","latitude":"48.72443000","longitude":"16.96695000","wikiDataId":"Q946780"},{"id":22594,"name":"Lednice","stateId":4602,"stateCode":"64","stateName":"Jihomoravský kraj","countryId":58,"countryCode":"CZ","countryName":"Czech Republic","latitude":"48.79992000","longitude":"16.80339000","wikiDataId":"Q1017320"},{"id":22595,"name":"Lelekovice","stateId":4602,"stateCode":"64","stateName":"Jihomoravský kraj","countryId":58,"countryCode":"CZ","countryName":"Czech Republic","latitude":"49.29144000","longitude":"16.57874000","wikiDataId":"Q672477"},{"id":22598,"name":"Letonice","stateId":4602,"stateCode":"64","stateName":"Jihomoravský kraj","countryId":58,"countryCode":"CZ","countryName":"Czech Republic","latitude":"49.17726000","longitude":"16.95913000","wikiDataId":"Q1821131"},{"id":22599,"name":"Letovice","stateId":4602,"stateCode":"64","stateName":"Jihomoravský kraj","countryId":58,"countryCode":"CZ","countryName":"Czech Republic","latitude":"49.54709000","longitude":"16.57357000","wikiDataId":"Q652710"},{"id":22618,"name":"Lipov","stateId":4602,"stateCode":"64","stateName":"Jihomoravský kraj","countryId":58,"countryCode":"CZ","countryName":"Czech Republic","latitude":"48.90495000","longitude":"17.46171000","wikiDataId":"Q1827421"},{"id":22619,"name":"Lipovec","stateId":4602,"stateCode":"64","stateName":"Jihomoravský kraj","countryId":58,"countryCode":"CZ","countryName":"Czech Republic","latitude":"49.38394000","longitude":"16.80583000","wikiDataId":"Q183514"},{"id":22621,"name":"Lipůvka","stateId":4602,"stateCode":"64","stateName":"Jihomoravský kraj","countryId":58,"countryCode":"CZ","countryName":"Czech Republic","latitude":"49.33933000","longitude":"16.55313000","wikiDataId":"Q1827630"},{"id":22632,"name":"Lomnice","stateId":4602,"stateCode":"64","stateName":"Jihomoravský kraj","countryId":58,"countryCode":"CZ","countryName":"Czech Republic","latitude":"49.40462000","longitude":"16.41359000","wikiDataId":"Q1444845"},{"id":22636,"name":"Louka","stateId":4602,"stateCode":"64","stateName":"Jihomoravský kraj","countryId":58,"countryCode":"CZ","countryName":"Czech Republic","latitude":"48.91517000","longitude":"17.48927000","wikiDataId":"Q2405777"},{"id":22657,"name":"Lužice","stateId":4602,"stateCode":"64","stateName":"Jihomoravský kraj","countryId":58,"countryCode":"CZ","countryName":"Czech Republic","latitude":"48.84098000","longitude":"17.07104000","wikiDataId":"Q967239"},{"id":22659,"name":"Lysice","stateId":4602,"stateCode":"64","stateName":"Jihomoravský kraj","countryId":58,"countryCode":"CZ","countryName":"Czech Republic","latitude":"49.45160000","longitude":"16.53716000","wikiDataId":"Q1284878"},{"id":22737,"name":"Měnín","stateId":4602,"stateCode":"64","stateName":"Jihomoravský kraj","countryId":58,"countryCode":"CZ","countryName":"Czech Republic","latitude":"49.08240000","longitude":"16.69424000","wikiDataId":"Q1639245"},{"id":22742,"name":"Město Brno","stateId":4602,"stateCode":"64","stateName":"Jihomoravský kraj","countryId":58,"countryCode":"CZ","countryName":"Czech Republic","latitude":"49.19954000","longitude":"16.60755000","wikiDataId":"Q850531"},{"id":22688,"name":"Mikulčice","stateId":4602,"stateCode":"64","stateName":"Jihomoravský kraj","countryId":58,"countryCode":"CZ","countryName":"Czech Republic","latitude":"48.81643000","longitude":"17.05107000","wikiDataId":"Q1017815"},{"id":22685,"name":"Mikulov","stateId":4602,"stateCode":"64","stateName":"Jihomoravský kraj","countryId":58,"countryCode":"CZ","countryName":"Czech Republic","latitude":"48.80556000","longitude":"16.63780000","wikiDataId":"Q682544"},{"id":22690,"name":"Milotice","stateId":4602,"stateCode":"64","stateName":"Jihomoravský kraj","countryId":58,"countryCode":"CZ","countryName":"Czech Republic","latitude":"48.95528000","longitude":"17.14241000","wikiDataId":"Q1439658"},{"id":22695,"name":"Miroslav","stateId":4602,"stateCode":"64","stateName":"Jihomoravský kraj","countryId":58,"countryCode":"CZ","countryName":"Czech Republic","latitude":"48.94767000","longitude":"16.31252000","wikiDataId":"Q763045"},{"id":22709,"name":"Modřice","stateId":4602,"stateCode":"64","stateName":"Jihomoravský kraj","countryId":58,"countryCode":"CZ","countryName":"Czech Republic","latitude":"49.11928000","longitude":"16.60446000","wikiDataId":"Q915051"},{"id":22712,"name":"Mokrá Hora","stateId":4602,"stateCode":"64","stateName":"Jihomoravský kraj","countryId":58,"countryCode":"CZ","countryName":"Czech Republic","latitude":"49.26176000","longitude":"16.59107000","wikiDataId":"Q12038508"},{"id":22715,"name":"Moravany","stateId":4602,"stateCode":"64","stateName":"Jihomoravský kraj","countryId":58,"countryCode":"CZ","countryName":"Czech Republic","latitude":"49.14780000","longitude":"16.58026000","wikiDataId":"Q1809680"},{"id":22717,"name":"Moravská Nová Ves","stateId":4602,"stateCode":"64","stateName":"Jihomoravský kraj","countryId":58,"countryCode":"CZ","countryName":"Czech Republic","latitude":"48.80304000","longitude":"17.01371000","wikiDataId":"Q603591"},{"id":22721,"name":"Moravský Krumlov","stateId":4602,"stateCode":"64","stateName":"Jihomoravský kraj","countryId":58,"countryCode":"CZ","countryName":"Czech Republic","latitude":"49.04893000","longitude":"16.31169000","wikiDataId":"Q761439"},{"id":22722,"name":"Moravský Písek","stateId":4602,"stateCode":"64","stateName":"Jihomoravský kraj","countryId":58,"countryCode":"CZ","countryName":"Czech Republic","latitude":"48.99016000","longitude":"17.33269000","wikiDataId":"Q1785594"},{"id":22723,"name":"Moravský Žižkov","stateId":4602,"stateCode":"64","stateName":"Jihomoravský kraj","countryId":58,"countryCode":"CZ","countryName":"Czech Republic","latitude":"48.83285000","longitude":"16.93140000","wikiDataId":"Q1023857"},{"id":22729,"name":"Moutnice","stateId":4602,"stateCode":"64","stateName":"Jihomoravský kraj","countryId":58,"countryCode":"CZ","countryName":"Czech Republic","latitude":"49.04924000","longitude":"16.73741000","wikiDataId":"Q1620125"},{"id":22733,"name":"Mutěnice","stateId":4602,"stateCode":"64","stateName":"Jihomoravský kraj","countryId":58,"countryCode":"CZ","countryName":"Czech Republic","latitude":"48.90413000","longitude":"17.02917000","wikiDataId":"Q2521029"},{"id":22755,"name":"Nedvědice","stateId":4602,"stateCode":"64","stateName":"Jihomoravský kraj","countryId":58,"countryCode":"CZ","countryName":"Czech Republic","latitude":"49.45702000","longitude":"16.33406000","wikiDataId":"Q1611797"},{"id":22761,"name":"Nesovice","stateId":4602,"stateCode":"64","stateName":"Jihomoravský kraj","countryId":58,"countryCode":"CZ","countryName":"Czech Republic","latitude":"49.15111000","longitude":"17.08095000","wikiDataId":"Q1978280"},{"id":22769,"name":"Nosislav","stateId":4602,"stateCode":"64","stateName":"Jihomoravský kraj","countryId":58,"countryCode":"CZ","countryName":"Czech Republic","latitude":"49.01380000","longitude":"16.65431000","wikiDataId":"Q2001637"},{"id":22771,"name":"Novosedly","stateId":4602,"stateCode":"64","stateName":"Jihomoravský kraj","countryId":58,"countryCode":"CZ","countryName":"Czech Republic","latitude":"48.83704000","longitude":"16.49273000","wikiDataId":"Q748651"},{"id":22808,"name":"Okres Blansko","stateId":4602,"stateCode":"64","stateName":"Jihomoravský kraj","countryId":58,"countryCode":"CZ","countryName":"Czech Republic","latitude":"49.37399000","longitude":"16.64360000","wikiDataId":"Q804356"},{"id":22811,"name":"Okres Břeclav","stateId":4602,"stateCode":"64","stateName":"Jihomoravský kraj","countryId":58,"countryCode":"CZ","countryName":"Czech Republic","latitude":"48.75958000","longitude":"16.87260000","wikiDataId":"Q582488"},{"id":22809,"name":"Okres Brno-venkov","stateId":4602,"stateCode":"64","stateName":"Jihomoravský kraj","countryId":58,"countryCode":"CZ","countryName":"Czech Republic","latitude":"49.16667000","longitude":"16.50000000","wikiDataId":"Q286787"},{"id":22819,"name":"Okres Hodonín","stateId":4602,"stateCode":"64","stateName":"Jihomoravský kraj","countryId":58,"countryCode":"CZ","countryName":"Czech Republic","latitude":"48.86471000","longitude":"17.13284000","wikiDataId":"Q637425"},{"id":22871,"name":"Okres Vyškov","stateId":4602,"stateCode":"64","stateName":"Jihomoravský kraj","countryId":58,"countryCode":"CZ","countryName":"Czech Republic","latitude":"49.27844000","longitude":"16.99362000","wikiDataId":"Q570682"},{"id":22873,"name":"Okres Znojmo","stateId":4602,"stateCode":"64","stateName":"Jihomoravský kraj","countryId":58,"countryCode":"CZ","countryName":"Czech Republic","latitude":"48.86200000","longitude":"16.06270000","wikiDataId":"Q853969"},{"id":22883,"name":"Olbramovice","stateId":4602,"stateCode":"64","stateName":"Jihomoravský kraj","countryId":58,"countryCode":"CZ","countryName":"Czech Republic","latitude":"48.98480000","longitude":"16.40239000","wikiDataId":"Q303907"},{"id":22885,"name":"Olešnice","stateId":4602,"stateCode":"64","stateName":"Jihomoravský kraj","countryId":58,"countryCode":"CZ","countryName":"Czech Republic","latitude":"49.55755000","longitude":"16.42169000","wikiDataId":"Q1019349"},{"id":22916,"name":"Ořechov","stateId":4602,"stateCode":"64","stateName":"Jihomoravský kraj","countryId":58,"countryCode":"CZ","countryName":"Czech Republic","latitude":"49.11118000","longitude":"16.52329000","wikiDataId":"Q964057"},{"id":22901,"name":"Oslavany","stateId":4602,"stateCode":"64","stateName":"Jihomoravský kraj","countryId":58,"countryCode":"CZ","countryName":"Czech Republic","latitude":"49.12335000","longitude":"16.33653000","wikiDataId":"Q1756935"},{"id":22903,"name":"Ostopovice","stateId":4602,"stateCode":"64","stateName":"Jihomoravský kraj","countryId":58,"countryCode":"CZ","countryName":"Czech Republic","latitude":"49.16100000","longitude":"16.54548000","wikiDataId":"Q949253"},{"id":22908,"name":"Ostrov u Macochy","stateId":4602,"stateCode":"64","stateName":"Jihomoravský kraj","countryId":58,"countryCode":"CZ","countryName":"Czech Republic","latitude":"49.38236000","longitude":"16.76268000","wikiDataId":"Q2035980"},{"id":22914,"name":"Otnice","stateId":4602,"stateCode":"64","stateName":"Jihomoravský kraj","countryId":58,"countryCode":"CZ","countryName":"Czech Republic","latitude":"49.08642000","longitude":"16.81443000","wikiDataId":"Q653291"},{"id":22928,"name":"Petrov","stateId":4602,"stateCode":"64","stateName":"Jihomoravský kraj","countryId":58,"countryCode":"CZ","countryName":"Czech Republic","latitude":"48.88196000","longitude":"17.27810000","wikiDataId":"Q2220839"},{"id":22945,"name":"Podivín","stateId":4602,"stateCode":"64","stateName":"Jihomoravský kraj","countryId":58,"countryCode":"CZ","countryName":"Czech Republic","latitude":"48.82554000","longitude":"16.84822000","wikiDataId":"Q1023848"},{"id":22946,"name":"Podolí","stateId":4602,"stateCode":"64","stateName":"Jihomoravský kraj","countryId":58,"countryCode":"CZ","countryName":"Czech Republic","latitude":"49.19042000","longitude":"16.72084000","wikiDataId":"Q685268"},{"id":22948,"name":"Pohořelice","stateId":4602,"stateCode":"64","stateName":"Jihomoravský kraj","countryId":58,"countryCode":"CZ","countryName":"Czech Republic","latitude":"48.98119000","longitude":"16.52445000","wikiDataId":"Q1641736"},{"id":22964,"name":"Pozořice","stateId":4602,"stateCode":"64","stateName":"Jihomoravský kraj","countryId":58,"countryCode":"CZ","countryName":"Czech Republic","latitude":"49.20976000","longitude":"16.79074000","wikiDataId":"Q2067672"},{"id":22997,"name":"Předklášteří","stateId":4602,"stateCode":"64","stateName":"Jihomoravský kraj","countryId":58,"countryCode":"CZ","countryName":"Czech Republic","latitude":"49.35253000","longitude":"16.40241000","wikiDataId":"Q1268228"},{"id":22985,"name":"Prušánky","stateId":4602,"stateCode":"64","stateName":"Jihomoravský kraj","countryId":58,"countryCode":"CZ","countryName":"Czech Republic","latitude":"48.82840000","longitude":"16.98068000","wikiDataId":"Q2482823"},{"id":22989,"name":"Pustiměř","stateId":4602,"stateCode":"64","stateName":"Jihomoravský kraj","countryId":58,"countryCode":"CZ","countryName":"Czech Republic","latitude":"49.32251000","longitude":"17.02792000","wikiDataId":"Q1797922"},{"id":23055,"name":"Rájec-Jestřebí","stateId":4602,"stateCode":"64","stateName":"Jihomoravský kraj","countryId":58,"countryCode":"CZ","countryName":"Czech Republic","latitude":"49.41094000","longitude":"16.63902000","wikiDataId":"Q646364"},{"id":23056,"name":"Ráječko","stateId":4602,"stateCode":"64","stateName":"Jihomoravský kraj","countryId":58,"countryCode":"CZ","countryName":"Czech Republic","latitude":"49.39393000","longitude":"16.64497000","wikiDataId":"Q2178533"},{"id":23017,"name":"Rajhrad","stateId":4602,"stateCode":"64","stateName":"Jihomoravský kraj","countryId":58,"countryCode":"CZ","countryName":"Czech Republic","latitude":"49.09021000","longitude":"16.60388000","wikiDataId":"Q1279557"},{"id":23018,"name":"Rajhradice","stateId":4602,"stateCode":"64","stateName":"Jihomoravský kraj","countryId":58,"countryCode":"CZ","countryName":"Czech Republic","latitude":"49.09203000","longitude":"16.62933000","wikiDataId":"Q726998"},{"id":23020,"name":"Rakvice","stateId":4602,"stateCode":"64","stateName":"Jihomoravský kraj","countryId":58,"countryCode":"CZ","countryName":"Czech Republic","latitude":"48.85811000","longitude":"16.81330000","wikiDataId":"Q1023856"},{"id":23025,"name":"Ratíškovice","stateId":4602,"stateCode":"64","stateName":"Jihomoravský kraj","countryId":58,"countryCode":"CZ","countryName":"Czech Republic","latitude":"48.92002000","longitude":"17.16561000","wikiDataId":"Q2352852"},{"id":23407,"name":"Říčany","stateId":4602,"stateCode":"64","stateName":"Jihomoravský kraj","countryId":58,"countryCode":"CZ","countryName":"Czech Republic","latitude":"49.21497000","longitude":"16.39362000","wikiDataId":"Q387004"},{"id":23027,"name":"Rohatec","stateId":4602,"stateCode":"64","stateName":"Jihomoravský kraj","countryId":58,"countryCode":"CZ","countryName":"Czech Republic","latitude":"48.88040000","longitude":"17.18330000","wikiDataId":"Q2660139"},{"id":23035,"name":"Rosice","stateId":4602,"stateCode":"64","stateName":"Jihomoravský kraj","countryId":58,"countryCode":"CZ","countryName":"Czech Republic","latitude":"49.18232000","longitude":"16.38787000","wikiDataId":"Q1025213"},{"id":23039,"name":"Rousínov","stateId":4602,"stateCode":"64","stateName":"Jihomoravský kraj","countryId":58,"countryCode":"CZ","countryName":"Czech Republic","latitude":"49.20128000","longitude":"16.88215000","wikiDataId":"Q1818241"},{"id":23408,"name":"Šakvice","stateId":4602,"stateCode":"64","stateName":"Jihomoravský kraj","countryId":58,"countryCode":"CZ","countryName":"Czech Republic","latitude":"48.89746000","longitude":"16.71424000","wikiDataId":"Q390991"},{"id":23409,"name":"Šanov","stateId":4602,"stateCode":"64","stateName":"Jihomoravský kraj","countryId":58,"countryCode":"CZ","countryName":"Czech Republic","latitude":"48.80089000","longitude":"16.37858000","wikiDataId":"Q391144"},{"id":23410,"name":"Šardice","stateId":4602,"stateCode":"64","stateName":"Jihomoravský kraj","countryId":58,"countryCode":"CZ","countryName":"Czech Republic","latitude":"48.96403000","longitude":"17.02812000","wikiDataId":"Q2701049"},{"id":23411,"name":"Šatov","stateId":4602,"stateCode":"64","stateName":"Jihomoravský kraj","countryId":58,"countryCode":"CZ","countryName":"Czech Republic","latitude":"48.79317000","longitude":"16.00992000","wikiDataId":"Q391317"},{"id":23416,"name":"Šitbořice","stateId":4602,"stateCode":"64","stateName":"Jihomoravský kraj","countryId":58,"countryCode":"CZ","countryName":"Czech Republic","latitude":"49.01433000","longitude":"16.77975000","wikiDataId":"Q391753"},{"id":23417,"name":"Šlapanice","stateId":4602,"stateCode":"64","stateName":"Jihomoravský kraj","countryId":58,"countryCode":"CZ","countryName":"Czech Republic","latitude":"49.16863000","longitude":"16.72731000","wikiDataId":"Q371321"},{"id":23082,"name":"Slavkov u Brna","stateId":4602,"stateCode":"64","stateName":"Jihomoravský kraj","countryId":58,"countryCode":"CZ","countryName":"Czech Republic","latitude":"49.15325000","longitude":"16.87649000","wikiDataId":"Q193724"},{"id":23093,"name":"Sokolnice","stateId":4602,"stateCode":"64","stateName":"Jihomoravský kraj","countryId":58,"countryCode":"CZ","countryName":"Czech Republic","latitude":"49.11392000","longitude":"16.72156000","wikiDataId":"Q476519"},{"id":23129,"name":"Strážnice","stateId":4602,"stateCode":"64","stateName":"Jihomoravský kraj","countryId":58,"countryCode":"CZ","countryName":"Czech Republic","latitude":"48.90102000","longitude":"17.31680000","wikiDataId":"Q304189"},{"id":23137,"name":"Střelice","stateId":4602,"stateCode":"64","stateName":"Jihomoravský kraj","countryId":58,"countryCode":"CZ","countryName":"Czech Republic","latitude":"49.15221000","longitude":"16.50399000","wikiDataId":"Q1707322"},{"id":23142,"name":"Suchohrdly","stateId":4602,"stateCode":"64","stateName":"Jihomoravský kraj","countryId":58,"countryCode":"CZ","countryName":"Czech Republic","latitude":"48.86822000","longitude":"16.09471000","wikiDataId":"Q2116017"},{"id":23145,"name":"Sudoměřice","stateId":4602,"stateCode":"64","stateName":"Jihomoravský kraj","countryId":58,"countryCode":"CZ","countryName":"Czech Republic","latitude":"48.86723000","longitude":"17.25676000","wikiDataId":"Q2359219"},{"id":23150,"name":"Svitávka","stateId":4602,"stateCode":"64","stateName":"Jihomoravský kraj","countryId":58,"countryCode":"CZ","countryName":"Czech Republic","latitude":"49.50178000","longitude":"16.59793000","wikiDataId":"Q2304969"},{"id":23157,"name":"Tasovice","stateId":4602,"stateCode":"64","stateName":"Jihomoravský kraj","countryId":58,"countryCode":"CZ","countryName":"Czech Republic","latitude":"48.83610000","longitude":"16.15558000","wikiDataId":"Q1853546"},{"id":23158,"name":"Telnice","stateId":4602,"stateCode":"64","stateName":"Jihomoravský kraj","countryId":58,"countryCode":"CZ","countryName":"Czech Republic","latitude":"49.10187000","longitude":"16.71774000","wikiDataId":"Q2116416"},{"id":23195,"name":"Těšany","stateId":4602,"stateCode":"64","stateName":"Jihomoravský kraj","countryId":58,"countryCode":"CZ","countryName":"Czech Republic","latitude":"49.03956000","longitude":"16.77003000","wikiDataId":"Q1660306"},{"id":23166,"name":"Tišnov","stateId":4602,"stateCode":"64","stateName":"Jihomoravský kraj","countryId":58,"countryCode":"CZ","countryName":"Czech Republic","latitude":"49.34872000","longitude":"16.42438000","wikiDataId":"Q161513"},{"id":23180,"name":"Troubsko","stateId":4602,"stateCode":"64","stateName":"Jihomoravský kraj","countryId":58,"countryCode":"CZ","countryName":"Czech Republic","latitude":"49.16951000","longitude":"16.51078000","wikiDataId":"Q164530"},{"id":23187,"name":"Tvarožná","stateId":4602,"stateCode":"64","stateName":"Jihomoravský kraj","countryId":58,"countryCode":"CZ","countryName":"Czech Republic","latitude":"49.19177000","longitude":"16.77146000","wikiDataId":"Q1789630"},{"id":23188,"name":"Tvrdonice","stateId":4602,"stateCode":"64","stateName":"Jihomoravský kraj","countryId":58,"countryCode":"CZ","countryName":"Czech Republic","latitude":"48.76048000","longitude":"16.99446000","wikiDataId":"Q1023834"},{"id":23191,"name":"Týnec","stateId":4602,"stateCode":"64","stateName":"Jihomoravský kraj","countryId":58,"countryCode":"CZ","countryName":"Czech Republic","latitude":"48.77943000","longitude":"17.01322000","wikiDataId":"Q1023839"},{"id":23356,"name":"Únanov","stateId":4602,"stateCode":"64","stateName":"Jihomoravský kraj","countryId":58,"countryCode":"CZ","countryName":"Czech Republic","latitude":"48.90082000","longitude":"16.06351000","wikiDataId":"Q2269581"},{"id":23213,"name":"Vacenovice","stateId":4602,"stateCode":"64","stateName":"Jihomoravský kraj","countryId":58,"countryCode":"CZ","countryName":"Czech Republic","latitude":"48.94510000","longitude":"17.17404000","wikiDataId":"Q2701037"},{"id":23221,"name":"Valtice","stateId":4602,"stateCode":"64","stateName":"Jihomoravský kraj","countryId":58,"countryCode":"CZ","countryName":"Czech Republic","latitude":"48.74069000","longitude":"16.75499000","wikiDataId":"Q782147"},{"id":23235,"name":"Velká nad Veličkou","stateId":4602,"stateCode":"64","stateName":"Jihomoravský kraj","countryId":58,"countryCode":"CZ","countryName":"Czech Republic","latitude":"48.88257000","longitude":"17.52060000","wikiDataId":"Q1974421"},{"id":23236,"name":"Velké Bílovice","stateId":4602,"stateCode":"64","stateName":"Jihomoravský kraj","countryId":58,"countryCode":"CZ","countryName":"Czech Republic","latitude":"48.84929000","longitude":"16.89227000","wikiDataId":"Q662194"},{"id":23244,"name":"Velké Němčice","stateId":4602,"stateCode":"64","stateName":"Jihomoravský kraj","countryId":58,"countryCode":"CZ","countryName":"Czech Republic","latitude":"48.99168000","longitude":"16.67208000","wikiDataId":"Q1023862"},{"id":23245,"name":"Velké Opatovice","stateId":4602,"stateCode":"64","stateName":"Jihomoravský kraj","countryId":58,"countryCode":"CZ","countryName":"Czech Republic","latitude":"49.61237000","longitude":"16.67947000","wikiDataId":"Q1422132"},{"id":23246,"name":"Velké Pavlovice","stateId":4602,"stateCode":"64","stateName":"Jihomoravský kraj","countryId":58,"countryCode":"CZ","countryName":"Czech Republic","latitude":"48.90469000","longitude":"16.81605000","wikiDataId":"Q1028003"},{"id":23262,"name":"Veselí nad Moravou","stateId":4602,"stateCode":"64","stateName":"Jihomoravský kraj","countryId":58,"countryCode":"CZ","countryName":"Czech Republic","latitude":"48.95363000","longitude":"17.37648000","wikiDataId":"Q105198"},{"id":23264,"name":"Veverská Bítýška","stateId":4602,"stateCode":"64","stateName":"Jihomoravský kraj","countryId":58,"countryCode":"CZ","countryName":"Czech Republic","latitude":"49.27591000","longitude":"16.43686000","wikiDataId":"Q149320"},{"id":23273,"name":"Viničné Šumice","stateId":4602,"stateCode":"64","stateName":"Jihomoravský kraj","countryId":58,"countryCode":"CZ","countryName":"Czech Republic","latitude":"49.21358000","longitude":"16.82541000","wikiDataId":"Q731530"},{"id":23277,"name":"Višňové","stateId":4602,"stateCode":"64","stateName":"Jihomoravský kraj","countryId":58,"countryCode":"CZ","countryName":"Czech Republic","latitude":"48.98241000","longitude":"16.15025000","wikiDataId":"Q671535"},{"id":23282,"name":"Vlkoš","stateId":4602,"stateCode":"64","stateName":"Jihomoravský kraj","countryId":58,"countryCode":"CZ","countryName":"Czech Republic","latitude":"48.98960000","longitude":"17.16356000","wikiDataId":"Q1376121"},{"id":23285,"name":"Vnorovy","stateId":4602,"stateCode":"64","stateName":"Jihomoravský kraj","countryId":58,"countryCode":"CZ","countryName":"Czech Republic","latitude":"48.93096000","longitude":"17.35050000","wikiDataId":"Q605873"},{"id":23287,"name":"Vojkovice","stateId":4602,"stateCode":"64","stateName":"Jihomoravský kraj","countryId":58,"countryCode":"CZ","countryName":"Czech Republic","latitude":"49.05138000","longitude":"16.60820000","wikiDataId":"Q2003044"},{"id":23291,"name":"Vracov","stateId":4602,"stateCode":"64","stateName":"Jihomoravský kraj","countryId":58,"countryCode":"CZ","countryName":"Czech Republic","latitude":"48.97523000","longitude":"17.21100000","wikiDataId":"Q1009071"},{"id":23292,"name":"Vranovice","stateId":4602,"stateCode":"64","stateName":"Jihomoravský kraj","countryId":58,"countryCode":"CZ","countryName":"Czech Republic","latitude":"48.96600000","longitude":"16.60660000","wikiDataId":"Q2002948"},{"id":23295,"name":"Vrbice","stateId":4602,"stateCode":"64","stateName":"Jihomoravský kraj","countryId":58,"countryCode":"CZ","countryName":"Czech Republic","latitude":"48.91508000","longitude":"16.89779000","wikiDataId":"Q1022418"},{"id":23298,"name":"Vrbovec","stateId":4602,"stateCode":"64","stateName":"Jihomoravský kraj","countryId":58,"countryCode":"CZ","countryName":"Czech Republic","latitude":"48.79978000","longitude":"16.10061000","wikiDataId":"Q2304943"},{"id":23308,"name":"Vyškov","stateId":4602,"stateCode":"64","stateName":"Jihomoravský kraj","countryId":58,"countryCode":"CZ","countryName":"Czech Republic","latitude":"49.27747000","longitude":"16.99897000","wikiDataId":"Q954569"},{"id":23435,"name":"Žabčice","stateId":4602,"stateCode":"64","stateName":"Jihomoravský kraj","countryId":58,"countryCode":"CZ","countryName":"Czech Republic","latitude":"49.01160000","longitude":"16.60257000","wikiDataId":"Q393323"},{"id":23325,"name":"Zaječí","stateId":4602,"stateCode":"64","stateName":"Jihomoravský kraj","countryId":58,"countryCode":"CZ","countryName":"Czech Republic","latitude":"48.87295000","longitude":"16.76646000","wikiDataId":"Q144496"},{"id":23326,"name":"Zastávka","stateId":4602,"stateCode":"64","stateName":"Jihomoravský kraj","countryId":58,"countryCode":"CZ","countryName":"Czech Republic","latitude":"49.18800000","longitude":"16.36310000","wikiDataId":"Q148299"},{"id":23330,"name":"Zbraslav","stateId":4602,"stateCode":"64","stateName":"Jihomoravský kraj","countryId":58,"countryCode":"CZ","countryName":"Czech Republic","latitude":"49.22155000","longitude":"16.29415000","wikiDataId":"Q168285"},{"id":23332,"name":"Zbýšov","stateId":4602,"stateCode":"64","stateName":"Jihomoravský kraj","countryId":58,"countryCode":"CZ","countryName":"Czech Republic","latitude":"49.15524000","longitude":"16.34951000","wikiDataId":"Q168900"},{"id":23440,"name":"Ždánice","stateId":4602,"stateCode":"64","stateName":"Jihomoravský kraj","countryId":58,"countryCode":"CZ","countryName":"Czech Republic","latitude":"49.06729000","longitude":"17.02751000","wikiDataId":"Q393439"},{"id":23446,"name":"Želešice","stateId":4602,"stateCode":"64","stateName":"Jihomoravský kraj","countryId":58,"countryCode":"CZ","countryName":"Czech Republic","latitude":"49.11689000","longitude":"16.58137000","wikiDataId":"Q393599"},{"id":23448,"name":"Žeravice","stateId":4602,"stateCode":"64","stateName":"Jihomoravský kraj","countryId":58,"countryCode":"CZ","countryName":"Czech Republic","latitude":"49.02288000","longitude":"17.23726000","wikiDataId":"Q2701044"},{"id":23449,"name":"Židlochovice","stateId":4602,"stateCode":"64","stateName":"Jihomoravský kraj","countryId":58,"countryCode":"CZ","countryName":"Czech Republic","latitude":"49.03952000","longitude":"16.61881000","wikiDataId":"Q393955"},{"id":23344,"name":"Znojmo","stateId":4602,"stateCode":"64","stateName":"Jihomoravský kraj","countryId":58,"countryCode":"CZ","countryName":"Czech Republic","latitude":"48.85550000","longitude":"16.04880000","wikiDataId":"Q214956"}]