[{"id":31904,"name":"Abanto","stateId":5113,"stateCode":"Z","stateName":"Zaragoza","countryId":207,"countryCode":"ES","countryName":"Spain","latitude":"41.13751000","longitude":"-1.69818000","wikiDataId":"Q24019768"},{"id":152466,"name":"Acered","stateId":5113,"stateCode":"Z","stateName":"Zaragoza","countryId":207,"countryCode":"ES","countryName":"Spain","latitude":"0.00000000","longitude":"0.00000000","wikiDataId":null},{"id":31971,"name":"Agón","stateId":5113,"stateCode":"Z","stateName":"Zaragoza","countryId":207,"countryCode":"ES","countryName":"Spain","latitude":"41.85574000","longitude":"-1.45233000","wikiDataId":"Q24016523"},{"id":31952,"name":"Aguarón","stateId":5113,"stateCode":"Z","stateName":"Zaragoza","countryId":207,"countryCode":"ES","countryName":"Spain","latitude":"41.33901000","longitude":"-1.27055000","wikiDataId":"Q24016522"},{"id":31966,"name":"Aguilón","stateId":5113,"stateCode":"Z","stateName":"Zaragoza","countryId":207,"countryCode":"ES","countryName":"Spain","latitude":"41.29467000","longitude":"-1.04634000","wikiDataId":"Q24016521"},{"id":31982,"name":"Ainzón","stateId":5113,"stateCode":"Z","stateName":"Zaragoza","countryId":207,"countryCode":"ES","countryName":"Spain","latitude":"41.81644000","longitude":"-1.51995000","wikiDataId":"Q24016520"},{"id":31989,"name":"Aladrén","stateId":5113,"stateCode":"Z","stateName":"Zaragoza","countryId":207,"countryCode":"ES","countryName":"Spain","latitude":"41.24917000","longitude":"-1.15591000","wikiDataId":"Q1641057"},{"id":31991,"name":"Alagón","stateId":5113,"stateCode":"Z","stateName":"Zaragoza","countryId":207,"countryCode":"ES","countryName":"Spain","latitude":"41.76964000","longitude":"-1.11906000","wikiDataId":"Q24016517"},{"id":32004,"name":"Alarba","stateId":5113,"stateCode":"Z","stateName":"Zaragoza","countryId":207,"countryCode":"ES","countryName":"Spain","latitude":"41.20482000","longitude":"-1.61335000","wikiDataId":"Q24016516"},{"id":32039,"name":"Alberite de San Juan","stateId":5113,"stateCode":"Z","stateName":"Zaragoza","countryId":207,"countryCode":"ES","countryName":"Spain","latitude":"41.82009000","longitude":"-1.47063000","wikiDataId":"Q24016515"},{"id":32044,"name":"Albeta","stateId":5113,"stateCode":"Z","stateName":"Zaragoza","countryId":207,"countryCode":"ES","countryName":"Spain","latitude":"41.82636000","longitude":"-1.49936000","wikiDataId":"Q633953"},{"id":32054,"name":"Alborge","stateId":5113,"stateCode":"Z","stateName":"Zaragoza","countryId":207,"countryCode":"ES","countryName":"Spain","latitude":"41.33367000","longitude":"-0.35675000","wikiDataId":"Q1650353"},{"id":32069,"name":"Alcalá de Ebro","stateId":5113,"stateCode":"Z","stateName":"Zaragoza","countryId":207,"countryCode":"ES","countryName":"Spain","latitude":"41.81495000","longitude":"-1.19429000","wikiDataId":"Q1650394"},{"id":32073,"name":"Alcalá de Moncayo","stateId":5113,"stateCode":"Z","stateName":"Zaragoza","countryId":207,"countryCode":"ES","countryName":"Spain","latitude":"41.78610000","longitude":"-1.69544000","wikiDataId":"Q1639119"},{"id":32116,"name":"Alconchel de Ariza","stateId":5113,"stateCode":"Z","stateName":"Zaragoza","countryId":207,"countryCode":"ES","countryName":"Spain","latitude":"41.20428000","longitude":"-2.12191000","wikiDataId":"Q745043"},{"id":32176,"name":"Aldehuela de Liestos","stateId":5113,"stateCode":"Z","stateName":"Zaragoza","countryId":207,"countryCode":"ES","countryName":"Spain","latitude":"41.06410000","longitude":"-1.70107000","wikiDataId":"Q22827982"},{"id":32191,"name":"Alfajarín","stateId":5113,"stateCode":"Z","stateName":"Zaragoza","countryId":207,"countryCode":"ES","countryName":"Spain","latitude":"41.61400000","longitude":"-0.70370000","wikiDataId":"Q1639169"},{"id":32193,"name":"Alfamén","stateId":5113,"stateCode":"Z","stateName":"Zaragoza","countryId":207,"countryCode":"ES","countryName":"Spain","latitude":"41.43919000","longitude":"-1.24458000","wikiDataId":"Q1644868"},{"id":32205,"name":"Alforque","stateId":5113,"stateCode":"Z","stateName":"Zaragoza","countryId":207,"countryCode":"ES","countryName":"Spain","latitude":"41.32942000","longitude":"-0.38525000","wikiDataId":"Q1644856"},{"id":32234,"name":"Alhama de Aragón","stateId":5113,"stateCode":"Z","stateName":"Zaragoza","countryId":207,"countryCode":"ES","countryName":"Spain","latitude":"41.29657000","longitude":"-1.89358000","wikiDataId":"Q24016504"},{"id":32292,"name":"Almochuel","stateId":5113,"stateCode":"Z","stateName":"Zaragoza","countryId":207,"countryCode":"ES","countryName":"Spain","latitude":"41.27992000","longitude":"-0.55067000","wikiDataId":"Q1631917"},{"id":152467,"name":"Almolda La","stateId":5113,"stateCode":"Z","stateName":"Zaragoza","countryId":207,"countryCode":"ES","countryName":"Spain","latitude":"0.00000000","longitude":"0.00000000","wikiDataId":null},{"id":32302,"name":"Almonacid de la Cuba","stateId":5113,"stateCode":"Z","stateName":"Zaragoza","countryId":207,"countryCode":"ES","countryName":"Spain","latitude":"41.28067000","longitude":"-0.79266000","wikiDataId":"Q1645672"},{"id":32303,"name":"Almonacid de la Sierra","stateId":5113,"stateCode":"Z","stateName":"Zaragoza","countryId":207,"countryCode":"ES","countryName":"Spain","latitude":"41.39754000","longitude":"-1.32394000","wikiDataId":"Q1650591"},{"id":152468,"name":"Almunia de Doña Godina La","stateId":5113,"stateCode":"Z","stateName":"Zaragoza","countryId":207,"countryCode":"ES","countryName":"Spain","latitude":"0.00000000","longitude":"0.00000000","wikiDataId":null},{"id":32326,"name":"Alpartir","stateId":5113,"stateCode":"Z","stateName":"Zaragoza","countryId":207,"countryCode":"ES","countryName":"Spain","latitude":"41.42253000","longitude":"-1.38061000","wikiDataId":"Q1641433"},{"id":32350,"name":"Ambel","stateId":5113,"stateCode":"Z","stateName":"Zaragoza","countryId":207,"countryCode":"ES","countryName":"Spain","latitude":"41.79472000","longitude":"-1.61520000","wikiDataId":"Q1628407"},{"id":32377,"name":"Anento","stateId":5113,"stateCode":"Z","stateName":"Zaragoza","countryId":207,"countryCode":"ES","countryName":"Spain","latitude":"41.06958000","longitude":"-1.33375000","wikiDataId":"Q1639608"},{"id":152469,"name":"Aniñón","stateId":5113,"stateCode":"Z","stateName":"Zaragoza","countryId":207,"countryCode":"ES","countryName":"Spain","latitude":"0.00000000","longitude":"0.00000000","wikiDataId":null},{"id":152470,"name":"Añón de Moncayo","stateId":5113,"stateCode":"Z","stateName":"Zaragoza","countryId":207,"countryCode":"ES","countryName":"Spain","latitude":"0.00000000","longitude":"0.00000000","wikiDataId":null},{"id":32408,"name":"Aranda de Moncayo","stateId":5113,"stateCode":"Z","stateName":"Zaragoza","countryId":207,"countryCode":"ES","countryName":"Spain","latitude":"41.57749000","longitude":"-1.79171000","wikiDataId":"Q24016493"},{"id":32530,"name":"Arándiga","stateId":5113,"stateCode":"Z","stateName":"Zaragoza","countryId":207,"countryCode":"ES","countryName":"Spain","latitude":"41.50872000","longitude":"-1.50074000","wikiDataId":"Q24016492"},{"id":152471,"name":"Ardisa","stateId":5113,"stateCode":"Z","stateName":"Zaragoza","countryId":207,"countryCode":"ES","countryName":"Spain","latitude":"0.00000000","longitude":"0.00000000","wikiDataId":null},{"id":32480,"name":"Ariza","stateId":5113,"stateCode":"Z","stateName":"Zaragoza","countryId":207,"countryCode":"ES","countryName":"Spain","latitude":"41.31442000","longitude":"-2.05332000","wikiDataId":"Q24002966"},{"id":32525,"name":"Artieda","stateId":5113,"stateCode":"Z","stateName":"Zaragoza","countryId":207,"countryCode":"ES","countryName":"Spain","latitude":"42.58538000","longitude":"-0.98422000","wikiDataId":"Q712486"},{"id":152472,"name":"Asín","stateId":5113,"stateCode":"Z","stateName":"Zaragoza","countryId":207,"countryCode":"ES","countryName":"Spain","latitude":"0.00000000","longitude":"0.00000000","wikiDataId":null},{"id":32553,"name":"Atea","stateId":5113,"stateCode":"Z","stateName":"Zaragoza","countryId":207,"countryCode":"ES","countryName":"Spain","latitude":"41.16059000","longitude":"-1.55533000","wikiDataId":"Q1771909"},{"id":32554,"name":"Ateca","stateId":5113,"stateCode":"Z","stateName":"Zaragoza","countryId":207,"countryCode":"ES","countryName":"Spain","latitude":"41.33092000","longitude":"-1.79353000","wikiDataId":"Q24016487"},{"id":32589,"name":"Azuara","stateId":5113,"stateCode":"Z","stateName":"Zaragoza","countryId":207,"countryCode":"ES","countryName":"Spain","latitude":"41.25822000","longitude":"-0.87078000","wikiDataId":"Q794238"},{"id":32605,"name":"Badules","stateId":5113,"stateCode":"Z","stateName":"Zaragoza","countryId":207,"countryCode":"ES","countryName":"Spain","latitude":"41.13901000","longitude":"-1.25366000","wikiDataId":"Q1639646"},{"id":32610,"name":"Bagüés","stateId":5113,"stateCode":"Z","stateName":"Zaragoza","countryId":207,"countryCode":"ES","countryName":"Spain","latitude":"42.54935000","longitude":"-0.94577000","wikiDataId":"Q1641134"},{"id":32622,"name":"Balconchán","stateId":5113,"stateCode":"Z","stateName":"Zaragoza","countryId":207,"countryCode":"ES","countryName":"Spain","latitude":"41.08737000","longitude":"-1.45998000","wikiDataId":"Q1639592"},{"id":33050,"name":"Bárboles","stateId":5113,"stateCode":"Z","stateName":"Zaragoza","countryId":207,"countryCode":"ES","countryName":"Spain","latitude":"41.70898000","longitude":"-1.18594000","wikiDataId":"Q1650575"},{"id":32660,"name":"Bardallur","stateId":5113,"stateCode":"Z","stateName":"Zaragoza","countryId":207,"countryCode":"ES","countryName":"Spain","latitude":"41.68423000","longitude":"-1.21183000","wikiDataId":"Q1640935"},{"id":32737,"name":"Belchite","stateId":5113,"stateCode":"Z","stateName":"Zaragoza","countryId":207,"countryCode":"ES","countryName":"Spain","latitude":"41.30600000","longitude":"-0.75400000","wikiDataId":"Q24016479"},{"id":152473,"name":"Belmonte de Gracián","stateId":5113,"stateCode":"Z","stateName":"Zaragoza","countryId":207,"countryCode":"ES","countryName":"Spain","latitude":"0.00000000","longitude":"0.00000000","wikiDataId":null},{"id":32845,"name":"Berdejo","stateId":5113,"stateCode":"Z","stateName":"Zaragoza","countryId":207,"countryCode":"ES","countryName":"Spain","latitude":"41.56133000","longitude":"-1.94431000","wikiDataId":"Q1640971"},{"id":152474,"name":"Berrueco","stateId":5113,"stateCode":"Z","stateName":"Zaragoza","countryId":207,"countryCode":"ES","countryName":"Spain","latitude":"0.00000000","longitude":"0.00000000","wikiDataId":null},{"id":32887,"name":"Biel","stateId":5113,"stateCode":"Z","stateName":"Zaragoza","countryId":207,"countryCode":"ES","countryName":"Spain","latitude":"42.38763000","longitude":"-0.94154000","wikiDataId":"Q857308"},{"id":32894,"name":"Bijuesca","stateId":5113,"stateCode":"Z","stateName":"Zaragoza","countryId":207,"countryCode":"ES","countryName":"Spain","latitude":"41.54083000","longitude":"-1.92039000","wikiDataId":"Q1651278"},{"id":32899,"name":"Biota","stateId":5113,"stateCode":"Z","stateName":"Zaragoza","countryId":207,"countryCode":"ES","countryName":"Spain","latitude":"42.26214000","longitude":"-1.18735000","wikiDataId":"Q511881"},{"id":32902,"name":"Bisimbre","stateId":5113,"stateCode":"Z","stateName":"Zaragoza","countryId":207,"countryCode":"ES","countryName":"Spain","latitude":"41.85607000","longitude":"-1.44268000","wikiDataId":"Q1629943"},{"id":32949,"name":"Boquiñeni","stateId":5113,"stateCode":"Z","stateName":"Zaragoza","countryId":207,"countryCode":"ES","countryName":"Spain","latitude":"41.84804000","longitude":"-1.25246000","wikiDataId":"Q1650872"},{"id":32951,"name":"Bordalba","stateId":5113,"stateCode":"Z","stateName":"Zaragoza","countryId":207,"countryCode":"ES","countryName":"Spain","latitude":"41.41667000","longitude":"-2.06667000","wikiDataId":"Q1641108"},{"id":32954,"name":"Borja","stateId":5113,"stateCode":"Z","stateName":"Zaragoza","countryId":207,"countryCode":"ES","countryName":"Spain","latitude":"41.83412000","longitude":"-1.53271000","wikiDataId":"Q53018328"},{"id":32966,"name":"Botorrita","stateId":5113,"stateCode":"Z","stateName":"Zaragoza","countryId":207,"countryCode":"ES","countryName":"Spain","latitude":"41.50706000","longitude":"-1.03104000","wikiDataId":"Q1629957"},{"id":32974,"name":"Brea de Aragón","stateId":5113,"stateCode":"Z","stateName":"Zaragoza","countryId":207,"countryCode":"ES","countryName":"Spain","latitude":"41.52387000","longitude":"-1.60261000","wikiDataId":"Q1639394"},{"id":32996,"name":"Bubierca","stateId":5113,"stateCode":"Z","stateName":"Zaragoza","countryId":207,"countryCode":"ES","countryName":"Spain","latitude":"41.31482000","longitude":"-1.85386000","wikiDataId":"Q22828756"},{"id":33016,"name":"Bujaraloz","stateId":5113,"stateCode":"Z","stateName":"Zaragoza","countryId":207,"countryCode":"ES","countryName":"Spain","latitude":"41.49806000","longitude":"-0.15290000","wikiDataId":"Q24016468"},{"id":33017,"name":"Bulbuente","stateId":5113,"stateCode":"Z","stateName":"Zaragoza","countryId":207,"countryCode":"ES","countryName":"Spain","latitude":"41.81970000","longitude":"-1.60238000","wikiDataId":"Q24016467"},{"id":33023,"name":"Bureta","stateId":5113,"stateCode":"Z","stateName":"Zaragoza","countryId":207,"countryCode":"ES","countryName":"Spain","latitude":"41.81572000","longitude":"-1.48819000","wikiDataId":"Q24016466"},{"id":152475,"name":"Burgo de Ebro El","stateId":5113,"stateCode":"Z","stateName":"Zaragoza","countryId":207,"countryCode":"ES","countryName":"Spain","latitude":"0.00000000","longitude":"0.00000000","wikiDataId":null},{"id":152476,"name":"Buste El","stateId":5113,"stateCode":"Z","stateName":"Zaragoza","countryId":207,"countryCode":"ES","countryName":"Spain","latitude":"0.00000000","longitude":"0.00000000","wikiDataId":null},{"id":33070,"name":"Cabañas de Ebro","stateId":5113,"stateCode":"Z","stateName":"Zaragoza","countryId":207,"countryCode":"ES","countryName":"Spain","latitude":"41.80000000","longitude":"-1.20000000","wikiDataId":"Q1650854"},{"id":33097,"name":"Cabolafuente","stateId":5113,"stateCode":"Z","stateName":"Zaragoza","countryId":207,"countryCode":"ES","countryName":"Spain","latitude":"41.21053000","longitude":"-2.04133000","wikiDataId":"Q1641779"},{"id":33119,"name":"Cadrete","stateId":5113,"stateCode":"Z","stateName":"Zaragoza","countryId":207,"countryCode":"ES","countryName":"Spain","latitude":"41.55575000","longitude":"-0.96013000","wikiDataId":"Q1639202"},{"id":33132,"name":"Calatayud","stateId":5113,"stateCode":"Z","stateName":"Zaragoza","countryId":207,"countryCode":"ES","countryName":"Spain","latitude":"41.35353000","longitude":"-1.64318000","wikiDataId":"Q24016460"},{"id":33134,"name":"Calatorao","stateId":5113,"stateCode":"Z","stateName":"Zaragoza","countryId":207,"countryCode":"ES","countryName":"Spain","latitude":"41.52228000","longitude":"-1.34702000","wikiDataId":"Q1641454"},{"id":33136,"name":"Calcena","stateId":5113,"stateCode":"Z","stateName":"Zaragoza","countryId":207,"countryCode":"ES","countryName":"Spain","latitude":"41.65515000","longitude":"-1.71764000","wikiDataId":"Q1650833"},{"id":33147,"name":"Calmarza","stateId":5113,"stateCode":"Z","stateName":"Zaragoza","countryId":207,"countryCode":"ES","countryName":"Spain","latitude":"41.15810000","longitude":"-1.91196000","wikiDataId":"Q63159178"},{"id":33187,"name":"Campillo de Aragón","stateId":5113,"stateCode":"Z","stateName":"Zaragoza","countryId":207,"countryCode":"ES","countryName":"Spain","latitude":"41.12648000","longitude":"-1.84393000","wikiDataId":"Q24016456"},{"id":33305,"name":"Carenas","stateId":5113,"stateCode":"Z","stateName":"Zaragoza","countryId":207,"countryCode":"ES","countryName":"Spain","latitude":"41.27755000","longitude":"-1.79754000","wikiDataId":"Q24020003"},{"id":33306,"name":"Cariñena","stateId":5113,"stateCode":"Z","stateName":"Zaragoza","countryId":207,"countryCode":"ES","countryName":"Spain","latitude":"41.33733000","longitude":"-1.22444000","wikiDataId":"Q24002479"},{"id":33393,"name":"Caspe","stateId":5113,"stateCode":"Z","stateName":"Zaragoza","countryId":207,"countryCode":"ES","countryName":"Spain","latitude":"41.23402000","longitude":"-0.03945000","wikiDataId":"Q64010"},{"id":33400,"name":"Castejón de Alarba","stateId":5113,"stateCode":"Z","stateName":"Zaragoza","countryId":207,"countryCode":"ES","countryName":"Spain","latitude":"41.18365000","longitude":"-1.63612000","wikiDataId":"Q1648461"},{"id":33406,"name":"Castejón de las Armas","stateId":5113,"stateCode":"Z","stateName":"Zaragoza","countryId":207,"countryCode":"ES","countryName":"Spain","latitude":"41.30976000","longitude":"-1.81084000","wikiDataId":"Q63156175"},{"id":33405,"name":"Castejón de Valdejasa","stateId":5113,"stateCode":"Z","stateName":"Zaragoza","countryId":207,"countryCode":"ES","countryName":"Spain","latitude":"41.98204000","longitude":"-0.99393000","wikiDataId":"Q1650584"},{"id":33452,"name":"Castiliscar","stateId":5113,"stateCode":"Z","stateName":"Zaragoza","countryId":207,"countryCode":"ES","countryName":"Spain","latitude":"42.37662000","longitude":"-1.27326000","wikiDataId":"Q1650715"},{"id":33598,"name":"Cervera de la Cañada","stateId":5113,"stateCode":"Z","stateName":"Zaragoza","countryId":207,"countryCode":"ES","countryName":"Spain","latitude":"41.43301000","longitude":"-1.73568000","wikiDataId":"Q24019996"},{"id":33603,"name":"Cerveruela","stateId":5113,"stateCode":"Z","stateName":"Zaragoza","countryId":207,"countryCode":"ES","countryName":"Spain","latitude":"41.21567000","longitude":"-1.21525000","wikiDataId":"Q1639553"},{"id":33608,"name":"Cetina","stateId":5113,"stateCode":"Z","stateName":"Zaragoza","countryId":207,"countryCode":"ES","countryName":"Spain","latitude":"41.29208000","longitude":"-1.96281000","wikiDataId":"Q24019994"},{"id":33642,"name":"Chiprana","stateId":5113,"stateCode":"Z","stateName":"Zaragoza","countryId":207,"countryCode":"ES","countryName":"Spain","latitude":"41.26317000","longitude":"-0.12741000","wikiDataId":"Q24019982"},{"id":33645,"name":"Chodes","stateId":5113,"stateCode":"Z","stateName":"Zaragoza","countryId":207,"countryCode":"ES","countryName":"Spain","latitude":"41.48696000","longitude":"-1.48012000","wikiDataId":"Q24019982"},{"id":33675,"name":"Cimballa","stateId":5113,"stateCode":"Z","stateName":"Zaragoza","countryId":207,"countryCode":"ES","countryName":"Spain","latitude":"41.10118000","longitude":"-1.77352000","wikiDataId":"Q1650672"},{"id":33676,"name":"Cinco Olivas","stateId":5113,"stateCode":"Z","stateName":"Zaragoza","countryId":207,"countryCode":"ES","countryName":"Spain","latitude":"41.33966000","longitude":"-0.37116000","wikiDataId":"Q936125"},{"id":33704,"name":"Clarés de Ribota","stateId":5113,"stateCode":"Z","stateName":"Zaragoza","countryId":207,"countryCode":"ES","countryName":"Spain","latitude":"41.52957000","longitude":"-1.83773000","wikiDataId":"Q1650641"},{"id":152477,"name":"Codo","stateId":5113,"stateCode":"Z","stateName":"Zaragoza","countryId":207,"countryCode":"ES","countryName":"Spain","latitude":"0.00000000","longitude":"0.00000000","wikiDataId":null},{"id":33718,"name":"Codos","stateId":5113,"stateCode":"Z","stateName":"Zaragoza","countryId":207,"countryCode":"ES","countryName":"Spain","latitude":"41.29266000","longitude":"-1.37425000","wikiDataId":"Q1768746"},{"id":33769,"name":"Contamina","stateId":5113,"stateCode":"Z","stateName":"Zaragoza","countryId":207,"countryCode":"ES","countryName":"Spain","latitude":"41.30535000","longitude":"-1.91731000","wikiDataId":"Q1641087"},{"id":33823,"name":"Cosuenda","stateId":5113,"stateCode":"Z","stateName":"Zaragoza","countryId":207,"countryCode":"ES","countryName":"Spain","latitude":"41.36559000","longitude":"-1.29867000","wikiDataId":"Q599787"},{"id":33844,"name":"Cuarte de Huerva","stateId":5113,"stateCode":"Z","stateName":"Zaragoza","countryId":207,"countryCode":"ES","countryName":"Spain","latitude":"41.59466000","longitude":"-0.93268000","wikiDataId":"Q1629930"},{"id":33846,"name":"Cubel","stateId":5113,"stateCode":"Z","stateName":"Zaragoza","countryId":207,"countryCode":"ES","countryName":"Spain","latitude":"41.09604000","longitude":"-1.63729000","wikiDataId":"Q617125"},{"id":152478,"name":"Cuerlas Las","stateId":5113,"stateCode":"Z","stateName":"Zaragoza","countryId":207,"countryCode":"ES","countryName":"Spain","latitude":"0.00000000","longitude":"0.00000000","wikiDataId":null},{"id":33913,"name":"Daroca","stateId":5113,"stateCode":"Z","stateName":"Zaragoza","countryId":207,"countryCode":"ES","countryName":"Spain","latitude":"41.11475000","longitude":"-1.41492000","wikiDataId":"Q1110389"},{"id":33974,"name":"Ejea de los Caballeros","stateId":5113,"stateCode":"Z","stateName":"Zaragoza","countryId":207,"countryCode":"ES","countryName":"Spain","latitude":"42.12632000","longitude":"-1.13716000","wikiDataId":"Q24019979"},{"id":34041,"name":"Embid de Ariza","stateId":5113,"stateCode":"Z","stateName":"Zaragoza","countryId":207,"countryCode":"ES","countryName":"Spain","latitude":"41.37830000","longitude":"-1.97373000","wikiDataId":"Q1638871"},{"id":34045,"name":"Encinacorba","stateId":5113,"stateCode":"Z","stateName":"Zaragoza","countryId":207,"countryCode":"ES","countryName":"Spain","latitude":"41.28516000","longitude":"-1.27516000","wikiDataId":"Q24019977"},{"id":38579,"name":"Épila","stateId":5113,"stateCode":"Z","stateName":"Zaragoza","countryId":207,"countryCode":"ES","countryName":"Spain","latitude":"41.60045000","longitude":"-1.28007000","wikiDataId":"Q1553092"},{"id":34067,"name":"Erla","stateId":5113,"stateCode":"Z","stateName":"Zaragoza","countryId":207,"countryCode":"ES","countryName":"Spain","latitude":"42.11732000","longitude":"-0.95019000","wikiDataId":"Q1768732"},{"id":34083,"name":"Escatrón","stateId":5113,"stateCode":"Z","stateName":"Zaragoza","countryId":207,"countryCode":"ES","countryName":"Spain","latitude":"41.29149000","longitude":"-0.32308000","wikiDataId":"Q572795"},{"id":34154,"name":"Fabara","stateId":5113,"stateCode":"Z","stateName":"Zaragoza","countryId":207,"countryCode":"ES","countryName":"Spain","latitude":"41.17750000","longitude":"0.16908000","wikiDataId":"Q956450"},{"id":34165,"name":"Farlete","stateId":5113,"stateCode":"Z","stateName":"Zaragoza","countryId":207,"countryCode":"ES","countryName":"Spain","latitude":"41.68122000","longitude":"-0.50678000","wikiDataId":"Q930157"},{"id":34170,"name":"Fayón","stateId":5113,"stateCode":"Z","stateName":"Zaragoza","countryId":207,"countryCode":"ES","countryName":"Spain","latitude":"41.23851000","longitude":"0.33302000","wikiDataId":"Q1639270"},{"id":152479,"name":"Fayos Los","stateId":5113,"stateCode":"Z","stateName":"Zaragoza","countryId":207,"countryCode":"ES","countryName":"Spain","latitude":"0.00000000","longitude":"0.00000000","wikiDataId":null},{"id":34187,"name":"Figueruelas","stateId":5113,"stateCode":"Z","stateName":"Zaragoza","countryId":207,"countryCode":"ES","countryName":"Spain","latitude":"41.76651000","longitude":"-1.17473000","wikiDataId":"Q1650603"},{"id":34202,"name":"Fombuena","stateId":5113,"stateCode":"Z","stateName":"Zaragoza","countryId":207,"countryCode":"ES","countryName":"Spain","latitude":"41.14442000","longitude":"-1.19266000","wikiDataId":"Q672176"},{"id":152480,"name":"Frago El","stateId":5113,"stateCode":"Z","stateName":"Zaragoza","countryId":207,"countryCode":"ES","countryName":"Spain","latitude":"0.00000000","longitude":"0.00000000","wikiDataId":null},{"id":152481,"name":"Frasno El","stateId":5113,"stateCode":"Z","stateName":"Zaragoza","countryId":207,"countryCode":"ES","countryName":"Spain","latitude":"0.00000000","longitude":"0.00000000","wikiDataId":null},{"id":34270,"name":"Fréscano","stateId":5113,"stateCode":"Z","stateName":"Zaragoza","countryId":207,"countryCode":"ES","countryName":"Spain","latitude":"41.88333000","longitude":"-1.45000000","wikiDataId":"Q1639221"},{"id":34279,"name":"Fuendejalón","stateId":5113,"stateCode":"Z","stateName":"Zaragoza","countryId":207,"countryCode":"ES","countryName":"Spain","latitude":"41.76050000","longitude":"-1.47213000","wikiDataId":"Q541606"},{"id":34280,"name":"Fuendetodos","stateId":5113,"stateCode":"Z","stateName":"Zaragoza","countryId":207,"countryCode":"ES","countryName":"Spain","latitude":"41.34245000","longitude":"-0.95988000","wikiDataId":"Q1372769"},{"id":34343,"name":"Fuentes de Ebro","stateId":5113,"stateCode":"Z","stateName":"Zaragoza","countryId":207,"countryCode":"ES","countryName":"Spain","latitude":"41.51250000","longitude":"-0.63159000","wikiDataId":"Q1639187"},{"id":34344,"name":"Fuentes de Jiloca","stateId":5113,"stateCode":"Z","stateName":"Zaragoza","countryId":207,"countryCode":"ES","countryName":"Spain","latitude":"41.22859000","longitude":"-1.53616000","wikiDataId":"Q1650339"},{"id":34395,"name":"Gallocanta","stateId":5113,"stateCode":"Z","stateName":"Zaragoza","countryId":207,"countryCode":"ES","countryName":"Spain","latitude":"40.99624000","longitude":"-1.50774000","wikiDataId":"Q1635952"},{"id":34396,"name":"Gallur","stateId":5113,"stateCode":"Z","stateName":"Zaragoza","countryId":207,"countryCode":"ES","countryName":"Spain","latitude":"41.86830000","longitude":"-1.31577000","wikiDataId":"Q572779"},{"id":34447,"name":"Gelsa","stateId":5113,"stateCode":"Z","stateName":"Zaragoza","countryId":207,"countryCode":"ES","countryName":"Spain","latitude":"41.40766000","longitude":"-0.46158000","wikiDataId":"Q1751975"},{"id":34476,"name":"Godojos","stateId":5113,"stateCode":"Z","stateName":"Zaragoza","countryId":207,"countryCode":"ES","countryName":"Spain","latitude":"41.26838000","longitude":"-1.86410000","wikiDataId":"Q22828191"},{"id":34490,"name":"Gotor","stateId":5113,"stateCode":"Z","stateName":"Zaragoza","countryId":207,"countryCode":"ES","countryName":"Spain","latitude":"41.54583000","longitude":"-1.64915000","wikiDataId":"Q1657115"},{"id":34514,"name":"Grisel","stateId":5113,"stateCode":"Z","stateName":"Zaragoza","countryId":207,"countryCode":"ES","countryName":"Spain","latitude":"41.87109000","longitude":"-1.72794000","wikiDataId":"Q537345"},{"id":34515,"name":"Grisén","stateId":5113,"stateCode":"Z","stateName":"Zaragoza","countryId":207,"countryCode":"ES","countryName":"Spain","latitude":"41.74524000","longitude":"-1.16260000","wikiDataId":"Q1640400"},{"id":34598,"name":"Herrera de los Navarros","stateId":5113,"stateCode":"Z","stateName":"Zaragoza","countryId":207,"countryCode":"ES","countryName":"Spain","latitude":"41.21024000","longitude":"-1.08271000","wikiDataId":"Q1641124"},{"id":34725,"name":"Ibdes","stateId":5113,"stateCode":"Z","stateName":"Zaragoza","countryId":207,"countryCode":"ES","countryName":"Spain","latitude":"41.21667000","longitude":"-1.83333000","wikiDataId":"Q24019948"},{"id":34750,"name":"Illueca","stateId":5113,"stateCode":"Z","stateName":"Zaragoza","countryId":207,"countryCode":"ES","countryName":"Spain","latitude":"41.53818000","longitude":"-1.62747000","wikiDataId":"Q24019947"},{"id":34769,"name":"Isuerre","stateId":5113,"stateCode":"Z","stateName":"Zaragoza","countryId":207,"countryCode":"ES","countryName":"Spain","latitude":"42.48729000","longitude":"-1.05400000","wikiDataId":"Q941134"},{"id":34796,"name":"Jaraba","stateId":5113,"stateCode":"Z","stateName":"Zaragoza","countryId":207,"countryCode":"ES","countryName":"Spain","latitude":"41.19083000","longitude":"-1.88440000","wikiDataId":"Q1641070"},{"id":34803,"name":"Jarque","stateId":5113,"stateCode":"Z","stateName":"Zaragoza","countryId":207,"countryCode":"ES","countryName":"Spain","latitude":"41.55613000","longitude":"-1.67563000","wikiDataId":"Q368372"},{"id":34807,"name":"Jaulín","stateId":5113,"stateCode":"Z","stateName":"Zaragoza","countryId":207,"countryCode":"ES","countryName":"Spain","latitude":"41.45198000","longitude":"-0.99256000","wikiDataId":"Q1640425"},{"id":152482,"name":"Joyosa La","stateId":5113,"stateCode":"Z","stateName":"Zaragoza","countryId":207,"countryCode":"ES","countryName":"Spain","latitude":"0.00000000","longitude":"0.00000000","wikiDataId":null},{"id":34941,"name":"Lagata","stateId":5113,"stateCode":"Z","stateName":"Zaragoza","countryId":207,"countryCode":"ES","countryName":"Spain","latitude":"41.23970000","longitude":"-0.80487000","wikiDataId":"Q1641046"},{"id":34964,"name":"Langa del Castillo","stateId":5113,"stateCode":"Z","stateName":"Zaragoza","countryId":207,"countryCode":"ES","countryName":"Spain","latitude":"41.21200000","longitude":"-1.39850000","wikiDataId":"Q1628164"},{"id":35005,"name":"Layana","stateId":5113,"stateCode":"Z","stateName":"Zaragoza","countryId":207,"countryCode":"ES","countryName":"Spain","latitude":"42.29546000","longitude":"-1.24483000","wikiDataId":"Q1650480"},{"id":35176,"name":"Lécera","stateId":5113,"stateCode":"Z","stateName":"Zaragoza","countryId":207,"countryCode":"ES","countryName":"Spain","latitude":"41.20491000","longitude":"-0.71133000","wikiDataId":"Q24019939"},{"id":35012,"name":"Lechón","stateId":5113,"stateCode":"Z","stateName":"Zaragoza","countryId":207,"countryCode":"ES","countryName":"Spain","latitude":"41.08633000","longitude":"-1.28483000","wikiDataId":"Q1647462"},{"id":35013,"name":"Leciñena","stateId":5113,"stateCode":"Z","stateName":"Zaragoza","countryId":207,"countryCode":"ES","countryName":"Spain","latitude":"41.79868000","longitude":"-0.61174000","wikiDataId":"Q960585"},{"id":35038,"name":"Letux","stateId":5113,"stateCode":"Z","stateName":"Zaragoza","countryId":207,"countryCode":"ES","countryName":"Spain","latitude":"41.25512000","longitude":"-0.80269000","wikiDataId":"Q281208"},{"id":35057,"name":"Litago","stateId":5113,"stateCode":"Z","stateName":"Zaragoza","countryId":207,"countryCode":"ES","countryName":"Spain","latitude":"41.81407000","longitude":"-1.75276000","wikiDataId":"Q1628460"},{"id":35058,"name":"Lituénigo","stateId":5113,"stateCode":"Z","stateName":"Zaragoza","countryId":207,"countryCode":"ES","countryName":"Spain","latitude":"41.83533000","longitude":"-1.76196000","wikiDataId":"Q1632405"},{"id":35094,"name":"Lobera de Onsella","stateId":5113,"stateCode":"Z","stateName":"Zaragoza","countryId":207,"countryCode":"ES","countryName":"Spain","latitude":"42.47848000","longitude":"-1.02208000","wikiDataId":"Q1639598"},{"id":35106,"name":"Longares","stateId":5113,"stateCode":"Z","stateName":"Zaragoza","countryId":207,"countryCode":"ES","countryName":"Spain","latitude":"41.40308000","longitude":"-1.16876000","wikiDataId":"Q1650702"},{"id":35107,"name":"Longás","stateId":5113,"stateCode":"Z","stateName":"Zaragoza","countryId":207,"countryCode":"ES","countryName":"Spain","latitude":"42.48092000","longitude":"-0.93420000","wikiDataId":"Q644246"},{"id":35150,"name":"Lucena de Jalón","stateId":5113,"stateCode":"Z","stateName":"Zaragoza","countryId":207,"countryCode":"ES","countryName":"Spain","latitude":"41.55301000","longitude":"-1.31305000","wikiDataId":"Q1639376"},{"id":35153,"name":"Luceni","stateId":5113,"stateCode":"Z","stateName":"Zaragoza","countryId":207,"countryCode":"ES","countryName":"Spain","latitude":"41.82857000","longitude":"-1.23889000","wikiDataId":"Q776889"},{"id":35157,"name":"Luesia","stateId":5113,"stateCode":"Z","stateName":"Zaragoza","countryId":207,"countryCode":"ES","countryName":"Spain","latitude":"42.36974000","longitude":"-1.02421000","wikiDataId":"Q983546"},{"id":35158,"name":"Luesma","stateId":5113,"stateCode":"Z","stateName":"Zaragoza","countryId":207,"countryCode":"ES","countryName":"Spain","latitude":"41.16583000","longitude":"-1.14575000","wikiDataId":"Q1650612"},{"id":35165,"name":"Lumpiaque","stateId":5113,"stateCode":"Z","stateName":"Zaragoza","countryId":207,"countryCode":"ES","countryName":"Spain","latitude":"41.62953000","longitude":"-1.30156000","wikiDataId":"Q1641002"},{"id":35166,"name":"Luna","stateId":5113,"stateCode":"Z","stateName":"Zaragoza","countryId":207,"countryCode":"ES","countryName":"Spain","latitude":"42.16760000","longitude":"-0.93292000","wikiDataId":"Q1641002"},{"id":35197,"name":"Maella","stateId":5113,"stateCode":"Z","stateName":"Zaragoza","countryId":207,"countryCode":"ES","countryName":"Spain","latitude":"41.12251000","longitude":"0.13926000","wikiDataId":"Q956524"},{"id":35200,"name":"Magallón","stateId":5113,"stateCode":"Z","stateName":"Zaragoza","countryId":207,"countryCode":"ES","countryName":"Spain","latitude":"41.83248000","longitude":"-1.45979000","wikiDataId":"Q1640136"},{"id":35210,"name":"Mainar","stateId":5113,"stateCode":"Z","stateName":"Zaragoza","countryId":207,"countryCode":"ES","countryName":"Spain","latitude":"41.19275000","longitude":"-1.30292000","wikiDataId":"Q1639405"},{"id":35220,"name":"Malanquilla","stateId":5113,"stateCode":"Z","stateName":"Zaragoza","countryId":207,"countryCode":"ES","countryName":"Spain","latitude":"41.56856000","longitude":"-1.87481000","wikiDataId":"Q24019920"},{"id":35222,"name":"Maleján","stateId":5113,"stateCode":"Z","stateName":"Zaragoza","countryId":207,"countryCode":"ES","countryName":"Spain","latitude":"41.82762000","longitude":"-1.54906000","wikiDataId":"Q1646178"},{"id":35224,"name":"Mallén","stateId":5113,"stateCode":"Z","stateName":"Zaragoza","countryId":207,"countryCode":"ES","countryName":"Spain","latitude":"41.90064000","longitude":"-1.41994000","wikiDataId":"Q1639432"},{"id":35234,"name":"Malón","stateId":5113,"stateCode":"Z","stateName":"Zaragoza","countryId":207,"countryCode":"ES","countryName":"Spain","latitude":"41.95235000","longitude":"-1.67199000","wikiDataId":"Q1768945"},{"id":35232,"name":"Maluenda","stateId":5113,"stateCode":"Z","stateName":"Zaragoza","countryId":207,"countryCode":"ES","countryName":"Spain","latitude":"41.28772000","longitude":"-1.61603000","wikiDataId":"Q1640382"},{"id":35244,"name":"Manchones","stateId":5113,"stateCode":"Z","stateName":"Zaragoza","countryId":207,"countryCode":"ES","countryName":"Spain","latitude":"41.15000000","longitude":"-1.46667000","wikiDataId":"Q1639285"},{"id":35274,"name":"Mara","stateId":5113,"stateCode":"Z","stateName":"Zaragoza","countryId":207,"countryCode":"ES","countryName":"Spain","latitude":"41.28950000","longitude":"-1.51842000","wikiDataId":"Q949866"},{"id":35313,"name":"María de Huerva","stateId":5113,"stateCode":"Z","stateName":"Zaragoza","countryId":207,"countryCode":"ES","countryName":"Spain","latitude":"41.53880000","longitude":"-0.99615000","wikiDataId":"Q1640944"},{"id":35296,"name":"Marracos","stateId":5113,"stateCode":"Z","stateName":"Zaragoza","countryId":207,"countryCode":"ES","countryName":"Spain","latitude":"42.08826000","longitude":"-0.77587000","wikiDataId":"Q1769840"},{"id":152483,"name":"Mediana de Aragón","stateId":5113,"stateCode":"Z","stateName":"Zaragoza","countryId":207,"countryCode":"ES","countryName":"Spain","latitude":"0.00000000","longitude":"0.00000000","wikiDataId":null},{"id":152484,"name":"Mequinenza","stateId":5113,"stateCode":"Z","stateName":"Zaragoza","countryId":207,"countryCode":"ES","countryName":"Spain","latitude":"0.00000000","longitude":"0.00000000","wikiDataId":null},{"id":35411,"name":"Mesones de Isuela","stateId":5113,"stateCode":"Z","stateName":"Zaragoza","countryId":207,"countryCode":"ES","countryName":"Spain","latitude":"41.55119000","longitude":"-1.53858000","wikiDataId":"Q1650623"},{"id":35414,"name":"Mezalocha","stateId":5113,"stateCode":"Z","stateName":"Zaragoza","countryId":207,"countryCode":"ES","countryName":"Spain","latitude":"41.42581000","longitude":"-1.08276000","wikiDataId":"Q24019910"},{"id":35417,"name":"Mianos","stateId":5113,"stateCode":"Z","stateName":"Zaragoza","countryId":207,"countryCode":"ES","countryName":"Spain","latitude":"42.58544000","longitude":"-0.95478000","wikiDataId":"Q55842986"},{"id":152485,"name":"Miedes de Aragón","stateId":5113,"stateCode":"Z","stateName":"Zaragoza","countryId":207,"countryCode":"ES","countryName":"Spain","latitude":"0.00000000","longitude":"0.00000000","wikiDataId":null},{"id":35508,"name":"Monegrillo","stateId":5113,"stateCode":"Z","stateName":"Zaragoza","countryId":207,"countryCode":"ES","countryName":"Spain","latitude":"41.63856000","longitude":"-0.41570000","wikiDataId":"Q24019908"},{"id":35510,"name":"Moneva","stateId":5113,"stateCode":"Z","stateName":"Zaragoza","countryId":207,"countryCode":"ES","countryName":"Spain","latitude":"41.12817000","longitude":"-0.83591000","wikiDataId":"Q1639514"},{"id":35521,"name":"Monreal de Ariza","stateId":5113,"stateCode":"Z","stateName":"Zaragoza","countryId":207,"countryCode":"ES","countryName":"Spain","latitude":"41.29165000","longitude":"-2.10493000","wikiDataId":"Q1650635"},{"id":35563,"name":"Monterde","stateId":5113,"stateCode":"Z","stateName":"Zaragoza","countryId":207,"countryCode":"ES","countryName":"Spain","latitude":"41.17434000","longitude":"-1.73505000","wikiDataId":"Q23994715"},{"id":35589,"name":"Montón","stateId":5113,"stateCode":"Z","stateName":"Zaragoza","countryId":207,"countryCode":"ES","countryName":"Spain","latitude":"41.20667000","longitude":"-1.51550000","wikiDataId":"Q31918645"},{"id":35614,"name":"Morata de Jalón","stateId":5113,"stateCode":"Z","stateName":"Zaragoza","countryId":207,"countryCode":"ES","countryName":"Spain","latitude":"41.47348000","longitude":"-1.47628000","wikiDataId":"Q1646180"},{"id":35615,"name":"Morata de Jiloca","stateId":5113,"stateCode":"Z","stateName":"Zaragoza","countryId":207,"countryCode":"ES","countryName":"Spain","latitude":"41.24797000","longitude":"-1.58665000","wikiDataId":"Q1650749"},{"id":35634,"name":"Morés","stateId":5113,"stateCode":"Z","stateName":"Zaragoza","countryId":207,"countryCode":"ES","countryName":"Spain","latitude":"41.47326000","longitude":"-1.56491000","wikiDataId":"Q1920017"},{"id":35633,"name":"Moros","stateId":5113,"stateCode":"Z","stateName":"Zaragoza","countryId":207,"countryCode":"ES","countryName":"Spain","latitude":"41.39775000","longitude":"-1.82839000","wikiDataId":"Q24019901"},{"id":35648,"name":"Moyuela","stateId":5113,"stateCode":"Z","stateName":"Zaragoza","countryId":207,"countryCode":"ES","countryName":"Spain","latitude":"41.12792000","longitude":"-0.92225000","wikiDataId":"Q1640188"},{"id":35650,"name":"Mozota","stateId":5113,"stateCode":"Z","stateName":"Zaragoza","countryId":207,"countryCode":"ES","countryName":"Spain","latitude":"41.48410000","longitude":"-1.06807000","wikiDataId":"Q1637299"},{"id":35655,"name":"Muel","stateId":5113,"stateCode":"Z","stateName":"Zaragoza","countryId":207,"countryCode":"ES","countryName":"Spain","latitude":"41.46633000","longitude":"-1.08503000","wikiDataId":"Q967136"},{"id":152486,"name":"Muela La","stateId":5113,"stateCode":"Z","stateName":"Zaragoza","countryId":207,"countryCode":"ES","countryName":"Spain","latitude":"0.00000000","longitude":"0.00000000","wikiDataId":null},{"id":35667,"name":"Munébrega","stateId":5113,"stateCode":"Z","stateName":"Zaragoza","countryId":207,"countryCode":"ES","countryName":"Spain","latitude":"41.25203000","longitude":"-1.70557000","wikiDataId":"Q24019896"},{"id":35672,"name":"Murero","stateId":5113,"stateCode":"Z","stateName":"Zaragoza","countryId":207,"countryCode":"ES","countryName":"Spain","latitude":"41.15967000","longitude":"-1.48275000","wikiDataId":"Q1650345"},{"id":152487,"name":"Murillo de Gállego","stateId":5113,"stateCode":"Z","stateName":"Zaragoza","countryId":207,"countryCode":"ES","countryName":"Spain","latitude":"0.00000000","longitude":"0.00000000","wikiDataId":null},{"id":35766,"name":"Navardún","stateId":5113,"stateCode":"Z","stateName":"Zaragoza","countryId":207,"countryCode":"ES","countryName":"Spain","latitude":"42.51255000","longitude":"-1.14822000","wikiDataId":"Q57980896"},{"id":35810,"name":"Nigüella","stateId":5113,"stateCode":"Z","stateName":"Zaragoza","countryId":207,"countryCode":"ES","countryName":"Spain","latitude":"41.53621000","longitude":"-1.52450000","wikiDataId":"Q1640980"},{"id":35823,"name":"Nombrevilla","stateId":5113,"stateCode":"Z","stateName":"Zaragoza","countryId":207,"countryCode":"ES","countryName":"Spain","latitude":"41.10730000","longitude":"-1.35904000","wikiDataId":"Q1640066"},{"id":35824,"name":"Nonaspe","stateId":5113,"stateCode":"Z","stateName":"Zaragoza","countryId":207,"countryCode":"ES","countryName":"Spain","latitude":"41.20881000","longitude":"0.24775000","wikiDataId":"Q24019889"},{"id":35827,"name":"Novallas","stateId":5113,"stateCode":"Z","stateName":"Zaragoza","countryId":207,"countryCode":"ES","countryName":"Spain","latitude":"41.95000000","longitude":"-1.70000000","wikiDataId":"Q1635927"},{"id":35830,"name":"Novillas","stateId":5113,"stateCode":"Z","stateName":"Zaragoza","countryId":207,"countryCode":"ES","countryName":"Spain","latitude":"41.93334000","longitude":"-1.39412000","wikiDataId":"Q1640141"},{"id":35839,"name":"Nuévalos","stateId":5113,"stateCode":"Z","stateName":"Zaragoza","countryId":207,"countryCode":"ES","countryName":"Spain","latitude":"41.21185000","longitude":"-1.78954000","wikiDataId":"Q24019885"},{"id":35836,"name":"Nuez de Ebro","stateId":5113,"stateCode":"Z","stateName":"Zaragoza","countryId":207,"countryCode":"ES","countryName":"Spain","latitude":"41.58957000","longitude":"-0.66774000","wikiDataId":"Q1639349"},{"id":35918,"name":"Olvés","stateId":5113,"stateCode":"Z","stateName":"Zaragoza","countryId":207,"countryCode":"ES","countryName":"Spain","latitude":"41.23965000","longitude":"-1.64647000","wikiDataId":"Q24019883"},{"id":35935,"name":"Orcajo","stateId":5113,"stateCode":"Z","stateName":"Zaragoza","countryId":207,"countryCode":"ES","countryName":"Spain","latitude":"41.10975000","longitude":"-1.48933000","wikiDataId":"Q937253"},{"id":35945,"name":"Orera","stateId":5113,"stateCode":"Z","stateName":"Zaragoza","countryId":207,"countryCode":"ES","countryName":"Spain","latitude":"41.29842000","longitude":"-1.47849000","wikiDataId":"Q1650765"},{"id":35965,"name":"Orés","stateId":5113,"stateCode":"Z","stateName":"Zaragoza","countryId":207,"countryCode":"ES","countryName":"Spain","latitude":"42.27765000","longitude":"-1.00150000","wikiDataId":"Q1985374"},{"id":35970,"name":"Oseja","stateId":5113,"stateCode":"Z","stateName":"Zaragoza","countryId":207,"countryCode":"ES","countryName":"Spain","latitude":"41.59564000","longitude":"-1.70026000","wikiDataId":"Q1639465"},{"id":152488,"name":"Osera de Ebro","stateId":5113,"stateCode":"Z","stateName":"Zaragoza","countryId":207,"countryCode":"ES","countryName":"Spain","latitude":"0.00000000","longitude":"0.00000000","wikiDataId":null},{"id":36048,"name":"Paniza","stateId":5113,"stateCode":"Z","stateName":"Zaragoza","countryId":207,"countryCode":"ES","countryName":"Spain","latitude":"41.28400000","longitude":"-1.21224000","wikiDataId":"Q1640449"},{"id":36054,"name":"Paracuellos de Jiloca","stateId":5113,"stateCode":"Z","stateName":"Zaragoza","countryId":207,"countryCode":"ES","countryName":"Spain","latitude":"41.31378000","longitude":"-1.64029000","wikiDataId":"Q24019876"},{"id":36055,"name":"Paracuellos de la Ribera","stateId":5113,"stateCode":"Z","stateName":"Zaragoza","countryId":207,"countryCode":"ES","countryName":"Spain","latitude":"41.42273000","longitude":"-1.56245000","wikiDataId":"Q1650679"},{"id":152489,"name":"Pastriz","stateId":5113,"stateCode":"Z","stateName":"Zaragoza","countryId":207,"countryCode":"ES","countryName":"Spain","latitude":"0.00000000","longitude":"0.00000000","wikiDataId":null},{"id":36103,"name":"Pedrola","stateId":5113,"stateCode":"Z","stateName":"Zaragoza","countryId":207,"countryCode":"ES","countryName":"Spain","latitude":"41.79102000","longitude":"-1.21357000","wikiDataId":"Q574869"},{"id":152490,"name":"Pedrosas Las","stateId":5113,"stateCode":"Z","stateName":"Zaragoza","countryId":207,"countryCode":"ES","countryName":"Spain","latitude":"0.00000000","longitude":"0.00000000","wikiDataId":null},{"id":36146,"name":"Perdiguera","stateId":5113,"stateCode":"Z","stateName":"Zaragoza","countryId":207,"countryCode":"ES","countryName":"Spain","latitude":"41.75458000","longitude":"-0.63148000","wikiDataId":"Q1639503"},{"id":36185,"name":"Piedratajada","stateId":5113,"stateCode":"Z","stateName":"Zaragoza","countryId":207,"countryCode":"ES","countryName":"Spain","latitude":"42.12124000","longitude":"-0.80373000","wikiDataId":"Q1650724"},{"id":36190,"name":"Pina de Ebro","stateId":5113,"stateCode":"Z","stateName":"Zaragoza","countryId":207,"countryCode":"ES","countryName":"Spain","latitude":"41.48846000","longitude":"-0.53120000","wikiDataId":"Q1641099"},{"id":36214,"name":"Pinseque","stateId":5113,"stateCode":"Z","stateName":"Zaragoza","countryId":207,"countryCode":"ES","countryName":"Spain","latitude":"41.73657000","longitude":"-1.10041000","wikiDataId":"Q1640990"},{"id":152491,"name":"Pintanos Los","stateId":5113,"stateCode":"Z","stateName":"Zaragoza","countryId":207,"countryCode":"ES","countryName":"Spain","latitude":"0.00000000","longitude":"0.00000000","wikiDataId":null},{"id":36237,"name":"Plasencia de Jalón","stateId":5113,"stateCode":"Z","stateName":"Zaragoza","countryId":207,"countryCode":"ES","countryName":"Spain","latitude":"41.68154000","longitude":"-1.22996000","wikiDataId":"Q1650559"},{"id":36242,"name":"Pleitas","stateId":5113,"stateCode":"Z","stateName":"Zaragoza","countryId":207,"countryCode":"ES","countryName":"Spain","latitude":"41.71135000","longitude":"-1.20251000","wikiDataId":"Q1641078"},{"id":36243,"name":"Plenas","stateId":5113,"stateCode":"Z","stateName":"Zaragoza","countryId":207,"countryCode":"ES","countryName":"Spain","latitude":"41.11209000","longitude":"-0.96442000","wikiDataId":"Q1639389"},{"id":36269,"name":"Pomer","stateId":5113,"stateCode":"Z","stateName":"Zaragoza","countryId":207,"countryCode":"ES","countryName":"Spain","latitude":"41.63765000","longitude":"-1.84104000","wikiDataId":"Q266342"},{"id":36328,"name":"Pozuel de Ariza","stateId":5113,"stateCode":"Z","stateName":"Zaragoza","countryId":207,"countryCode":"ES","countryName":"Spain","latitude":"41.35000000","longitude":"-2.15000000","wikiDataId":"Q1639566"},{"id":36332,"name":"Pozuelo de Aragón","stateId":5113,"stateCode":"Z","stateName":"Zaragoza","countryId":207,"countryCode":"ES","countryName":"Spain","latitude":"41.76430000","longitude":"-1.42305000","wikiDataId":"Q639422"},{"id":36342,"name":"Pradilla de Ebro","stateId":5113,"stateCode":"Z","stateName":"Zaragoza","countryId":207,"countryCode":"ES","countryName":"Spain","latitude":"41.86111000","longitude":"-1.26325000","wikiDataId":"Q1650590"},{"id":36408,"name":"Puebla de Albortón","stateId":5113,"stateCode":"Z","stateName":"Zaragoza","countryId":207,"countryCode":"ES","countryName":"Spain","latitude":"41.38517000","longitude":"-0.85558000","wikiDataId":"Q1639637"},{"id":152492,"name":"Puebla de Alfindén La","stateId":5113,"stateCode":"Z","stateName":"Zaragoza","countryId":207,"countryCode":"ES","countryName":"Spain","latitude":"0.00000000","longitude":"0.00000000","wikiDataId":null},{"id":152493,"name":"Puendeluna","stateId":5113,"stateCode":"Z","stateName":"Zaragoza","countryId":207,"countryCode":"ES","countryName":"Spain","latitude":"0.00000000","longitude":"0.00000000","wikiDataId":null},{"id":36476,"name":"Purujosa","stateId":5113,"stateCode":"Z","stateName":"Zaragoza","countryId":207,"countryCode":"ES","countryName":"Spain","latitude":"41.68259000","longitude":"-1.76519000","wikiDataId":"Q1640038"},{"id":36528,"name":"Quinto","stateId":5113,"stateCode":"Z","stateName":"Zaragoza","countryId":207,"countryCode":"ES","countryName":"Spain","latitude":"41.42378000","longitude":"-0.49592000","wikiDataId":"Q1630324"},{"id":36573,"name":"Remolinos","stateId":5113,"stateCode":"Z","stateName":"Zaragoza","countryId":207,"countryCode":"ES","countryName":"Spain","latitude":"41.83946000","longitude":"-1.17768000","wikiDataId":"Q1639358"},{"id":36585,"name":"Retascón","stateId":5113,"stateCode":"Z","stateName":"Zaragoza","countryId":207,"countryCode":"ES","countryName":"Spain","latitude":"41.14350000","longitude":"-1.38376000","wikiDataId":"Q1639528"},{"id":36620,"name":"Ricla","stateId":5113,"stateCode":"Z","stateName":"Zaragoza","countryId":207,"countryCode":"ES","countryName":"Spain","latitude":"41.50580000","longitude":"-1.40468000","wikiDataId":"Q766898"},{"id":36672,"name":"Romanos","stateId":5113,"stateCode":"Z","stateName":"Zaragoza","countryId":207,"countryCode":"ES","countryName":"Spain","latitude":"41.12636000","longitude":"-1.27502000","wikiDataId":"Q23993110"},{"id":152494,"name":"Rueda de Jalón","stateId":5113,"stateCode":"Z","stateName":"Zaragoza","countryId":207,"countryCode":"ES","countryName":"Spain","latitude":"0.00000000","longitude":"0.00000000","wikiDataId":null},{"id":36700,"name":"Ruesca","stateId":5113,"stateCode":"Z","stateName":"Zaragoza","countryId":207,"countryCode":"ES","countryName":"Spain","latitude":"41.28350000","longitude":"-1.48142000","wikiDataId":"Q1640959"},{"id":152496,"name":"Sabiñán","stateId":5113,"stateCode":"Z","stateName":"Zaragoza","countryId":207,"countryCode":"ES","countryName":"Spain","latitude":"0.00000000","longitude":"0.00000000","wikiDataId":null},{"id":37335,"name":"Sádaba","stateId":5113,"stateCode":"Z","stateName":"Zaragoza","countryId":207,"countryCode":"ES","countryName":"Spain","latitude":"42.28180000","longitude":"-1.26951000","wikiDataId":"Q24019849"},{"id":36762,"name":"Salillas de Jalón","stateId":5113,"stateCode":"Z","stateName":"Zaragoza","countryId":207,"countryCode":"ES","countryName":"Spain","latitude":"41.56789000","longitude":"-1.32344000","wikiDataId":"Q1640997"},{"id":36784,"name":"Salvatierra de Esca","stateId":5113,"stateCode":"Z","stateName":"Zaragoza","countryId":207,"countryCode":"ES","countryName":"Spain","latitude":"42.67002000","longitude":"-1.00475000","wikiDataId":"Q1640389"},{"id":36794,"name":"Samper del Salz","stateId":5113,"stateCode":"Z","stateName":"Zaragoza","countryId":207,"countryCode":"ES","countryName":"Spain","latitude":"41.23458000","longitude":"-0.82510000","wikiDataId":"Q1640147"},{"id":152495,"name":"San Martín de la Virgen de Moncayo","stateId":5113,"stateCode":"Z","stateName":"Zaragoza","countryId":207,"countryCode":"ES","countryName":"Spain","latitude":"0.00000000","longitude":"0.00000000","wikiDataId":null},{"id":36878,"name":"San Mateo de Gállego","stateId":5113,"stateCode":"Z","stateName":"Zaragoza","countryId":207,"countryCode":"ES","countryName":"Spain","latitude":"41.83043000","longitude":"-0.76578000","wikiDataId":"Q1639441"},{"id":37029,"name":"Santa Cruz de Grío","stateId":5113,"stateCode":"Z","stateName":"Zaragoza","countryId":207,"countryCode":"ES","countryName":"Spain","latitude":"41.37050000","longitude":"-1.43009000","wikiDataId":"Q23992481"},{"id":37030,"name":"Santa Cruz de Moncayo","stateId":5113,"stateCode":"Z","stateName":"Zaragoza","countryId":207,"countryCode":"ES","countryName":"Spain","latitude":"41.88240000","longitude":"-1.75637000","wikiDataId":"Q1639625"},{"id":37056,"name":"Santa Eulalia de Gállego","stateId":5113,"stateCode":"Z","stateName":"Zaragoza","countryId":207,"countryCode":"ES","countryName":"Spain","latitude":"42.28700000","longitude":"-0.76065000","wikiDataId":"Q1650647"},{"id":37109,"name":"Santed","stateId":5113,"stateCode":"Z","stateName":"Zaragoza","countryId":207,"countryCode":"ES","countryName":"Spain","latitude":"41.03172000","longitude":"-1.51028000","wikiDataId":"Q951119"},{"id":37336,"name":"Sástago","stateId":5113,"stateCode":"Z","stateName":"Zaragoza","countryId":207,"countryCode":"ES","countryName":"Spain","latitude":"41.32166000","longitude":"-0.35075000","wikiDataId":"Q956485"},{"id":37189,"name":"Sediles","stateId":5113,"stateCode":"Z","stateName":"Zaragoza","countryId":207,"countryCode":"ES","countryName":"Spain","latitude":"41.34613000","longitude":"-1.53177000","wikiDataId":"Q769756"},{"id":37234,"name":"Sestrica","stateId":5113,"stateCode":"Z","stateName":"Zaragoza","countryId":207,"countryCode":"ES","countryName":"Spain","latitude":"41.48595000","longitude":"-1.59501000","wikiDataId":"Q1639129"},{"id":37245,"name":"Sierra de Luna","stateId":5113,"stateCode":"Z","stateName":"Zaragoza","countryId":207,"countryCode":"ES","countryName":"Spain","latitude":"42.04818000","longitude":"-0.91025000","wikiDataId":"Q1650382"},{"id":37253,"name":"Sigüés","stateId":5113,"stateCode":"Z","stateName":"Zaragoza","countryId":207,"countryCode":"ES","countryName":"Spain","latitude":"42.63030000","longitude":"-1.01212000","wikiDataId":"Q24019834"},{"id":37265,"name":"Sisamón","stateId":5113,"stateCode":"Z","stateName":"Zaragoza","countryId":207,"countryCode":"ES","countryName":"Spain","latitude":"41.17124000","longitude":"-2.00386000","wikiDataId":"Q1639113"},{"id":37272,"name":"Sobradiel","stateId":5113,"stateCode":"Z","stateName":"Zaragoza","countryId":207,"countryCode":"ES","countryName":"Spain","latitude":"41.73875000","longitude":"-1.03765000","wikiDataId":"Q1650760"},{"id":37307,"name":"Sos del Rey Católico","stateId":5113,"stateCode":"Z","stateName":"Zaragoza","countryId":207,"countryCode":"ES","countryName":"Spain","latitude":"42.49686000","longitude":"-1.21514000","wikiDataId":"Q11703972"},{"id":37346,"name":"Tabuenca","stateId":5113,"stateCode":"Z","stateName":"Zaragoza","countryId":207,"countryCode":"ES","countryName":"Spain","latitude":"41.69500000","longitude":"-1.54335000","wikiDataId":"Q675840"},{"id":37355,"name":"Talamantes","stateId":5113,"stateCode":"Z","stateName":"Zaragoza","countryId":207,"countryCode":"ES","countryName":"Spain","latitude":"41.73051000","longitude":"-1.67857000","wikiDataId":"Q1639321"},{"id":37374,"name":"Tarazona","stateId":5113,"stateCode":"Z","stateName":"Zaragoza","countryId":207,"countryCode":"ES","countryName":"Spain","latitude":"41.90475000","longitude":"-1.72678000","wikiDataId":"Q24019827"},{"id":37385,"name":"Tauste","stateId":5113,"stateCode":"Z","stateName":"Zaragoza","countryId":207,"countryCode":"ES","countryName":"Spain","latitude":"41.91804000","longitude":"-1.25343000","wikiDataId":"Q24019826"},{"id":37411,"name":"Terrer","stateId":5113,"stateCode":"Z","stateName":"Zaragoza","countryId":207,"countryCode":"ES","countryName":"Spain","latitude":"41.32811000","longitude":"-1.71329000","wikiDataId":"Q24019825"},{"id":152497,"name":"Tierga","stateId":5113,"stateCode":"Z","stateName":"Zaragoza","countryId":207,"countryCode":"ES","countryName":"Spain","latitude":"0.00000000","longitude":"0.00000000","wikiDataId":null},{"id":37437,"name":"Tobed","stateId":5113,"stateCode":"Z","stateName":"Zaragoza","countryId":207,"countryCode":"ES","countryName":"Spain","latitude":"41.33866000","longitude":"-1.39975000","wikiDataId":"Q1650660"},{"id":37483,"name":"Torralba de los Frailes","stateId":5113,"stateCode":"Z","stateName":"Zaragoza","countryId":207,"countryCode":"ES","countryName":"Spain","latitude":"41.03622000","longitude":"-1.66046000","wikiDataId":"Q1639425"},{"id":37482,"name":"Torralba de Ribota","stateId":5113,"stateCode":"Z","stateName":"Zaragoza","countryId":207,"countryCode":"ES","countryName":"Spain","latitude":"41.41803000","longitude":"-1.68429000","wikiDataId":"Q24019822"},{"id":37486,"name":"Torralbilla","stateId":5113,"stateCode":"Z","stateName":"Zaragoza","countryId":207,"countryCode":"ES","countryName":"Spain","latitude":"41.21009000","longitude":"-1.33800000","wikiDataId":"Q1638854"},{"id":37534,"name":"Torrehermosa","stateId":5113,"stateCode":"Z","stateName":"Zaragoza","countryId":207,"countryCode":"ES","countryName":"Spain","latitude":"41.23767000","longitude":"-2.12800000","wikiDataId":"Q663442"},{"id":37544,"name":"Torrelapaja","stateId":5113,"stateCode":"Z","stateName":"Zaragoza","countryId":207,"countryCode":"ES","countryName":"Spain","latitude":"41.58133000","longitude":"-1.95181000","wikiDataId":"Q1639206"},{"id":37548,"name":"Torrellas","stateId":5113,"stateCode":"Z","stateName":"Zaragoza","countryId":207,"countryCode":"ES","countryName":"Spain","latitude":"41.89444000","longitude":"-1.77139000","wikiDataId":"Q1650599"},{"id":37575,"name":"Torres de Berrellén","stateId":5113,"stateCode":"Z","stateName":"Zaragoza","countryId":207,"countryCode":"ES","countryName":"Spain","latitude":"41.75797000","longitude":"-1.06550000","wikiDataId":"Q1628472"},{"id":37587,"name":"Torrijo de la Cañada","stateId":5113,"stateCode":"Z","stateName":"Zaragoza","countryId":207,"countryCode":"ES","countryName":"Spain","latitude":"41.47304000","longitude":"-1.87441000","wikiDataId":"Q1650416"},{"id":37603,"name":"Tosos","stateId":5113,"stateCode":"Z","stateName":"Zaragoza","countryId":207,"countryCode":"ES","countryName":"Spain","latitude":"41.31542000","longitude":"-1.07292000","wikiDataId":"Q1639161"},{"id":37621,"name":"Trasmoz","stateId":5113,"stateCode":"Z","stateName":"Zaragoza","countryId":207,"countryCode":"ES","countryName":"Spain","latitude":"41.82599000","longitude":"-1.72279000","wikiDataId":"Q64167231"},{"id":37622,"name":"Trasobares","stateId":5113,"stateCode":"Z","stateName":"Zaragoza","countryId":207,"countryCode":"ES","countryName":"Spain","latitude":"41.64308000","longitude":"-1.64192000","wikiDataId":"Q1639140"},{"id":37687,"name":"Uncastillo","stateId":5113,"stateCode":"Z","stateName":"Zaragoza","countryId":207,"countryCode":"ES","countryName":"Spain","latitude":"42.35963000","longitude":"-1.12842000","wikiDataId":"Q23991339"},{"id":37688,"name":"Undués de Lerda","stateId":5113,"stateCode":"Z","stateName":"Zaragoza","countryId":207,"countryCode":"ES","countryName":"Spain","latitude":"42.56572000","longitude":"-1.16944000","wikiDataId":"Q617326"},{"id":37695,"name":"Urrea de Jalón","stateId":5113,"stateCode":"Z","stateName":"Zaragoza","countryId":207,"countryCode":"ES","countryName":"Spain","latitude":"41.66715000","longitude":"-1.23420000","wikiDataId":"Q23991364"},{"id":37696,"name":"Urriés","stateId":5113,"stateCode":"Z","stateName":"Zaragoza","countryId":207,"countryCode":"ES","countryName":"Spain","latitude":"42.51943000","longitude":"-1.13022000","wikiDataId":"Q24019807"},{"id":37704,"name":"Used","stateId":5113,"stateCode":"Z","stateName":"Zaragoza","countryId":207,"countryCode":"ES","countryName":"Spain","latitude":"41.05554000","longitude":"-1.55954000","wikiDataId":"Q24019806"},{"id":37708,"name":"Utebo","stateId":5113,"stateCode":"Z","stateName":"Zaragoza","countryId":207,"countryCode":"ES","countryName":"Spain","latitude":"41.70826000","longitude":"-0.99916000","wikiDataId":"Q220073"},{"id":37720,"name":"Val de San Martín","stateId":5113,"stateCode":"Z","stateName":"Zaragoza","countryId":207,"countryCode":"ES","countryName":"Spain","latitude":"41.05787000","longitude":"-1.44934000","wikiDataId":"Q1639213"},{"id":37751,"name":"Valdehorna","stateId":5113,"stateCode":"Z","stateName":"Zaragoza","countryId":207,"countryCode":"ES","countryName":"Spain","latitude":"41.07275000","longitude":"-1.42376000","wikiDataId":"Q740785"},{"id":37867,"name":"Valmadrid","stateId":5113,"stateCode":"Z","stateName":"Zaragoza","countryId":207,"countryCode":"ES","countryName":"Spain","latitude":"41.44351000","longitude":"-0.88482000","wikiDataId":"Q24019802"},{"id":37871,"name":"Valpalmas","stateId":5113,"stateCode":"Z","stateName":"Zaragoza","countryId":207,"countryCode":"ES","countryName":"Spain","latitude":"42.15821000","longitude":"-0.85481000","wikiDataId":"Q1650402"},{"id":37880,"name":"Valtorres","stateId":5113,"stateCode":"Z","stateName":"Zaragoza","countryId":207,"countryCode":"ES","countryName":"Spain","latitude":"41.29855000","longitude":"-1.74080000","wikiDataId":"Q24019800"},{"id":37929,"name":"Velilla de Ebro","stateId":5113,"stateCode":"Z","stateName":"Zaragoza","countryId":207,"countryCode":"ES","countryName":"Spain","latitude":"41.37416000","longitude":"-0.43483000","wikiDataId":"Q1650389"},{"id":37930,"name":"Velilla de Jiloca","stateId":5113,"stateCode":"Z","stateName":"Zaragoza","countryId":207,"countryCode":"ES","countryName":"Spain","latitude":"41.27509000","longitude":"-1.60396000","wikiDataId":"Q764206"},{"id":37948,"name":"Vera de Moncayo","stateId":5113,"stateCode":"Z","stateName":"Zaragoza","countryId":207,"countryCode":"ES","countryName":"Spain","latitude":"41.82400000","longitude":"-1.68799000","wikiDataId":"Q24019796"},{"id":37969,"name":"Vierlas","stateId":5113,"stateCode":"Z","stateName":"Zaragoza","countryId":207,"countryCode":"ES","countryName":"Spain","latitude":"41.92708000","longitude":"-1.68123000","wikiDataId":"Q594134"},{"id":38042,"name":"Villadoz","stateId":5113,"stateCode":"Z","stateName":"Zaragoza","countryId":207,"countryCode":"ES","countryName":"Spain","latitude":"41.16234000","longitude":"-1.28800000","wikiDataId":"Q1639196"},{"id":38050,"name":"Villafeliche","stateId":5113,"stateCode":"Z","stateName":"Zaragoza","countryId":207,"countryCode":"ES","countryName":"Spain","latitude":"41.19509000","longitude":"-1.50983000","wikiDataId":"Q1650316"},{"id":38058,"name":"Villafranca de Ebro","stateId":5113,"stateCode":"Z","stateName":"Zaragoza","countryId":207,"countryCode":"ES","countryName":"Spain","latitude":"41.57473000","longitude":"-0.65039000","wikiDataId":"Q1638846"},{"id":38094,"name":"Villalba de Perejil","stateId":5113,"stateCode":"Z","stateName":"Zaragoza","countryId":207,"countryCode":"ES","countryName":"Spain","latitude":"41.32742000","longitude":"-1.54833000","wikiDataId":"Q1650366"},{"id":38112,"name":"Villalengua","stateId":5113,"stateCode":"Z","stateName":"Zaragoza","countryId":207,"countryCode":"ES","countryName":"Spain","latitude":"41.43548000","longitude":"-1.84125000","wikiDataId":"Q1650349"},{"id":38142,"name":"Villamayor de Gállego","stateId":5113,"stateCode":"Z","stateName":"Zaragoza","countryId":207,"countryCode":"ES","countryName":"Spain","latitude":"41.68584000","longitude":"-0.77230000","wikiDataId":"Q1766872"},{"id":38184,"name":"Villanueva de Gállego","stateId":5113,"stateCode":"Z","stateName":"Zaragoza","countryId":207,"countryCode":"ES","countryName":"Spain","latitude":"41.76917000","longitude":"-0.82350000","wikiDataId":"Q1639259"},{"id":152499,"name":"Villanueva de Huerva","stateId":5113,"stateCode":"Z","stateName":"Zaragoza","countryId":207,"countryCode":"ES","countryName":"Spain","latitude":"0.00000000","longitude":"0.00000000","wikiDataId":null},{"id":38186,"name":"Villanueva de Jiloca","stateId":5113,"stateCode":"Z","stateName":"Zaragoza","countryId":207,"countryCode":"ES","countryName":"Spain","latitude":"41.07625000","longitude":"-1.38960000","wikiDataId":"Q1639226"},{"id":38249,"name":"Villar de los Navarros","stateId":5113,"stateCode":"Z","stateName":"Zaragoza","countryId":207,"countryCode":"ES","countryName":"Spain","latitude":"41.15949000","longitude":"-1.04199000","wikiDataId":"Q939574"},{"id":38295,"name":"Villarreal de Huerva","stateId":5113,"stateCode":"Z","stateName":"Zaragoza","countryId":207,"countryCode":"ES","countryName":"Spain","latitude":"41.19034000","longitude":"-1.28983000","wikiDataId":"Q744533"},{"id":38298,"name":"Villarroya de la Sierra","stateId":5113,"stateCode":"Z","stateName":"Zaragoza","countryId":207,"countryCode":"ES","countryName":"Spain","latitude":"41.46346000","longitude":"-1.78350000","wikiDataId":"Q1650310"},{"id":38300,"name":"Villarroya del Campo","stateId":5113,"stateCode":"Z","stateName":"Zaragoza","countryId":207,"countryCode":"ES","countryName":"Spain","latitude":"41.14309000","longitude":"-1.32416000","wikiDataId":"Q1639234"},{"id":152498,"name":"Vilueña La","stateId":5113,"stateCode":"Z","stateName":"Zaragoza","countryId":207,"countryCode":"ES","countryName":"Spain","latitude":"0.00000000","longitude":"0.00000000","wikiDataId":null},{"id":38399,"name":"Vistabella","stateId":5113,"stateCode":"Z","stateName":"Zaragoza","countryId":207,"countryCode":"ES","countryName":"Spain","latitude":"41.21850000","longitude":"-1.15358000","wikiDataId":"Q731538"},{"id":152500,"name":"Zaida La","stateId":5113,"stateCode":"Z","stateName":"Zaragoza","countryId":207,"countryCode":"ES","countryName":"Spain","latitude":"0.00000000","longitude":"0.00000000","wikiDataId":null},{"id":38470,"name":"Zaragoza","stateId":5113,"stateCode":"Z","stateName":"Zaragoza","countryId":207,"countryCode":"ES","countryName":"Spain","latitude":"41.65606000","longitude":"-0.87734000","wikiDataId":"Q31926034"},{"id":38504,"name":"Zuera","stateId":5113,"stateCode":"Z","stateName":"Zaragoza","countryId":207,"countryCode":"ES","countryName":"Spain","latitude":"41.86775000","longitude":"-0.78984000","wikiDataId":"Q24019778"}]