[{"id":15735,"name":"Gaborone","stateId":3064,"stateCode":"SE","stateName":"South-East District","countryId":29,"countryCode":"BW","countryName":"Botswana","latitude":"-24.76234000","longitude":"25.79950000","wikiDataId":"Q38855"},{"id":15741,"name":"Janeng","stateId":3064,"stateCode":"SE","stateName":"South-East District","countryId":29,"countryCode":"BW","countryName":"Botswana","latitude":"-25.41667000","longitude":"25.55000000","wikiDataId":"Q21858552"},{"id":15747,"name":"Kopong","stateId":3064,"stateCode":"SE","stateName":"South-East District","countryId":29,"countryCode":"BW","countryName":"Botswana","latitude":"-24.48333000","longitude":"25.88333000","wikiDataId":"Q31811672"},{"id":15782,"name":"Otse","stateId":3064,"stateCode":"SE","stateName":"South-East District","countryId":29,"countryCode":"BW","countryName":"Botswana","latitude":"-25.01667000","longitude":"25.73333000","wikiDataId":"Q170659"},{"id":15789,"name":"Ramotswa","stateId":3064,"stateCode":"SE","stateName":"South-East District","countryId":29,"countryCode":"BW","countryName":"Botswana","latitude":"-24.87158000","longitude":"25.86989000","wikiDataId":"Q170714"}]