[{"id":65190,"name":"Chunghwa","stateId":4005,"stateCode":"01","stateName":"Pyongyang","countryId":115,"countryCode":"KP","countryName":"North Korea","latitude":"38.86389000","longitude":"125.80000000","wikiDataId":"Q109336"},{"id":65207,"name":"Kangdong-ŭp","stateId":4005,"stateCode":"01","stateName":"Pyongyang","countryId":115,"countryCode":"KP","countryName":"North Korea","latitude":"39.14250000","longitude":"126.09611000","wikiDataId":"Q489829"},{"id":65231,"name":"Pyongyang","stateId":4005,"stateCode":"01","stateName":"Pyongyang","countryId":115,"countryCode":"KP","countryName":"North Korea","latitude":"39.03385000","longitude":"125.75432000","wikiDataId":"Q109386"},{"id":65244,"name":"Sunan","stateId":4005,"stateCode":"01","stateName":"Pyongyang","countryId":115,"countryCode":"KP","countryName":"North Korea","latitude":"39.19833000","longitude":"125.69000000","wikiDataId":"Q505930"},{"id":65248,"name":"Sŭngho 1-tong","stateId":4005,"stateCode":"01","stateName":"Pyongyang","countryId":115,"countryCode":"KP","countryName":"North Korea","latitude":"38.99139000","longitude":"125.97778000","wikiDataId":"Q505930"}]