[{"id":39243,"name":"Abondance","stateId":4798,"stateCode":"ARA","stateName":"Auvergne-Rhône-Alpes","countryId":75,"countryCode":"FR","countryName":"France","latitude":"46.27874000","longitude":"6.72105000","wikiDataId":"Q322435"},{"id":39246,"name":"Abrest","stateId":4798,"stateCode":"ARA","stateName":"Auvergne-Rhône-Alpes","countryId":75,"countryCode":"FR","countryName":"France","latitude":"46.09859000","longitude":"3.44461000","wikiDataId":"Q274683"},{"id":39273,"name":"Aigueblanche","stateId":4798,"stateCode":"ARA","stateName":"Auvergne-Rhône-Alpes","countryId":75,"countryCode":"FR","countryName":"France","latitude":"45.50455000","longitude":"6.50184000","wikiDataId":"Q1222605"},{"id":39275,"name":"Aigueperse","stateId":4798,"stateCode":"ARA","stateName":"Auvergne-Rhône-Alpes","countryId":75,"countryCode":"FR","countryName":"France","latitude":"46.02255000","longitude":"3.20228000","wikiDataId":"Q1222605"},{"id":39285,"name":"Aime","stateId":4798,"stateCode":"ARA","stateName":"Auvergne-Rhône-Alpes","countryId":75,"countryCode":"FR","countryName":"France","latitude":"45.55559000","longitude":"6.65042000","wikiDataId":"Q405513"},{"id":39286,"name":"Ainay-le-Château","stateId":4798,"stateCode":"ARA","stateName":"Auvergne-Rhône-Alpes","countryId":75,"countryCode":"FR","countryName":"France","latitude":"46.71125000","longitude":"2.69238000","wikiDataId":"Q841802"},{"id":39291,"name":"Aiton","stateId":4798,"stateCode":"ARA","stateName":"Auvergne-Rhône-Alpes","countryId":75,"countryCode":"FR","countryName":"France","latitude":"45.56123000","longitude":"6.25955000","wikiDataId":"Q34795880"},{"id":39295,"name":"Aix-les-Bains","stateId":4798,"stateCode":"ARA","stateName":"Auvergne-Rhône-Alpes","countryId":75,"countryCode":"FR","countryName":"France","latitude":"45.69173000","longitude":"5.90863000","wikiDataId":"Q34795880"},{"id":39301,"name":"Alba-la-Romaine","stateId":4798,"stateCode":"ARA","stateName":"Auvergne-Rhône-Alpes","countryId":75,"countryCode":"FR","countryName":"France","latitude":"44.55537000","longitude":"4.59846000","wikiDataId":"Q273021"},{"id":39302,"name":"Albens","stateId":4798,"stateCode":"ARA","stateName":"Auvergne-Rhône-Alpes","countryId":75,"countryCode":"FR","countryName":"France","latitude":"45.78786000","longitude":"5.94528000","wikiDataId":"Q528122"},{"id":39304,"name":"Albertville","stateId":4798,"stateCode":"ARA","stateName":"Auvergne-Rhône-Alpes","countryId":75,"countryCode":"FR","countryName":"France","latitude":"45.67452000","longitude":"6.39061000","wikiDataId":"Q159469"},{"id":39307,"name":"Albigny-sur-Saône","stateId":4798,"stateCode":"ARA","stateName":"Auvergne-Rhône-Alpes","countryId":75,"countryCode":"FR","countryName":"France","latitude":"45.86667000","longitude":"4.83333000","wikiDataId":"Q34796185"},{"id":39309,"name":"Alby-sur-Chéran","stateId":4798,"stateCode":"ARA","stateName":"Auvergne-Rhône-Alpes","countryId":75,"countryCode":"FR","countryName":"France","latitude":"45.81667000","longitude":"6.01667000","wikiDataId":"Q34796215"},{"id":39315,"name":"Alissas","stateId":4798,"stateCode":"ARA","stateName":"Auvergne-Rhône-Alpes","countryId":75,"countryCode":"FR","countryName":"France","latitude":"44.71253000","longitude":"4.62936000","wikiDataId":"Q244222"},{"id":39316,"name":"Alixan","stateId":4798,"stateCode":"ARA","stateName":"Auvergne-Rhône-Alpes","countryId":75,"countryCode":"FR","countryName":"France","latitude":"44.97426000","longitude":"5.02850000","wikiDataId":"Q326786"},{"id":39319,"name":"Allan","stateId":4798,"stateCode":"ARA","stateName":"Auvergne-Rhône-Alpes","countryId":75,"countryCode":"FR","countryName":"France","latitude":"44.49713000","longitude":"4.79068000","wikiDataId":"Q34796417"},{"id":39320,"name":"Allanche","stateId":4798,"stateCode":"ARA","stateName":"Auvergne-Rhône-Alpes","countryId":75,"countryCode":"FR","countryName":"France","latitude":"45.22907000","longitude":"2.93449000","wikiDataId":"Q34796417"},{"id":39333,"name":"Allègre","stateId":4798,"stateCode":"ARA","stateName":"Auvergne-Rhône-Alpes","countryId":75,"countryCode":"FR","countryName":"France","latitude":"45.19959000","longitude":"3.71174000","wikiDataId":"Q1065755"},{"id":39325,"name":"Allevard","stateId":4798,"stateCode":"ARA","stateName":"Auvergne-Rhône-Alpes","countryId":75,"countryCode":"FR","countryName":"France","latitude":"45.39449000","longitude":"6.07519000","wikiDataId":"Q463310"},{"id":39326,"name":"Allex","stateId":4798,"stateCode":"ARA","stateName":"Auvergne-Rhône-Alpes","countryId":75,"countryCode":"FR","countryName":"France","latitude":"44.76765000","longitude":"4.89837000","wikiDataId":"Q463310"},{"id":39328,"name":"Allières-et-Risset","stateId":4798,"stateCode":"ARA","stateName":"Auvergne-Rhône-Alpes","countryId":75,"countryCode":"FR","countryName":"France","latitude":"45.09934000","longitude":"5.67924000","wikiDataId":"Q2838362"},{"id":39327,"name":"Allinges","stateId":4798,"stateCode":"ARA","stateName":"Auvergne-Rhône-Alpes","countryId":75,"countryCode":"FR","countryName":"France","latitude":"46.33547000","longitude":"6.46350000","wikiDataId":"Q463310"},{"id":39331,"name":"Allonzier-la-Caille","stateId":4798,"stateCode":"ARA","stateName":"Auvergne-Rhône-Alpes","countryId":75,"countryCode":"FR","countryName":"France","latitude":"46.00117000","longitude":"6.11865000","wikiDataId":"Q829396"},{"id":39344,"name":"Amancy","stateId":4798,"stateCode":"ARA","stateName":"Auvergne-Rhône-Alpes","countryId":75,"countryCode":"FR","countryName":"France","latitude":"46.07294000","longitude":"6.32890000","wikiDataId":"Q212399"},{"id":39360,"name":"Ambérieu-en-Bugey","stateId":4798,"stateCode":"ARA","stateName":"Auvergne-Rhône-Alpes","countryId":75,"countryCode":"FR","countryName":"France","latitude":"45.95932000","longitude":"5.35160000","wikiDataId":"Q192166"},{"id":39361,"name":"Ambérieux-en-Dombes","stateId":4798,"stateCode":"ARA","stateName":"Auvergne-Rhône-Alpes","countryId":75,"countryCode":"FR","countryName":"France","latitude":"45.99894000","longitude":"4.90126000","wikiDataId":"Q192166"},{"id":39349,"name":"Ambert","stateId":4798,"stateCode":"ARA","stateName":"Auvergne-Rhône-Alpes","countryId":75,"countryCode":"FR","countryName":"France","latitude":"45.54944000","longitude":"3.74164000","wikiDataId":"Q213317"},{"id":39350,"name":"Ambierle","stateId":4798,"stateCode":"ARA","stateName":"Auvergne-Rhône-Alpes","countryId":75,"countryCode":"FR","countryName":"France","latitude":"46.10558000","longitude":"3.89323000","wikiDataId":"Q213317"},{"id":39358,"name":"Ambronay","stateId":4798,"stateCode":"ARA","stateName":"Auvergne-Rhône-Alpes","countryId":75,"countryCode":"FR","countryName":"France","latitude":"46.00467000","longitude":"5.36273000","wikiDataId":"Q193533"},{"id":39369,"name":"Amplepuis","stateId":4798,"stateCode":"ARA","stateName":"Auvergne-Rhône-Alpes","countryId":75,"countryCode":"FR","countryName":"France","latitude":"45.97260000","longitude":"4.33030000","wikiDataId":"Q1549"},{"id":39370,"name":"Ampuis","stateId":4798,"stateCode":"ARA","stateName":"Auvergne-Rhône-Alpes","countryId":75,"countryCode":"FR","countryName":"France","latitude":"45.48925000","longitude":"4.81001000","wikiDataId":"Q477363"},{"id":39375,"name":"Ancône","stateId":4798,"stateCode":"ARA","stateName":"Auvergne-Rhône-Alpes","countryId":75,"countryCode":"FR","countryName":"France","latitude":"44.58107000","longitude":"4.72711000","wikiDataId":"Q213515"},{"id":39376,"name":"Andance","stateId":4798,"stateCode":"ARA","stateName":"Auvergne-Rhône-Alpes","countryId":75,"countryCode":"FR","countryName":"France","latitude":"45.24059000","longitude":"4.79916000","wikiDataId":"Q213515"},{"id":39377,"name":"Andancette","stateId":4798,"stateCode":"ARA","stateName":"Auvergne-Rhône-Alpes","countryId":75,"countryCode":"FR","countryName":"France","latitude":"45.24858000","longitude":"4.80860000","wikiDataId":"Q639112"},{"id":39391,"name":"Andrézieux-Bouthéon","stateId":4798,"stateCode":"ARA","stateName":"Auvergne-Rhône-Alpes","countryId":75,"countryCode":"FR","countryName":"France","latitude":"45.52625000","longitude":"4.26021000","wikiDataId":"Q1066223"},{"id":39414,"name":"Annecy","stateId":4798,"stateCode":"ARA","stateName":"Auvergne-Rhône-Alpes","countryId":75,"countryCode":"FR","countryName":"France","latitude":"45.90878000","longitude":"6.12565000","wikiDataId":"Q50189"},{"id":39415,"name":"Annecy-le-Vieux","stateId":4798,"stateCode":"ARA","stateName":"Auvergne-Rhône-Alpes","countryId":75,"countryCode":"FR","countryName":"France","latitude":"45.91971000","longitude":"6.14393000","wikiDataId":"Q565982"},{"id":39416,"name":"Annemasse","stateId":4798,"stateCode":"ARA","stateName":"Auvergne-Rhône-Alpes","countryId":75,"countryCode":"FR","countryName":"France","latitude":"46.19439000","longitude":"6.23775000","wikiDataId":"Q212901"},{"id":39420,"name":"Anneyron","stateId":4798,"stateCode":"ARA","stateName":"Auvergne-Rhône-Alpes","countryId":75,"countryCode":"FR","countryName":"France","latitude":"45.27220000","longitude":"4.88626000","wikiDataId":"Q275943"},{"id":39423,"name":"Annonay","stateId":4798,"stateCode":"ARA","stateName":"Auvergne-Rhône-Alpes","countryId":75,"countryCode":"FR","countryName":"France","latitude":"45.23992000","longitude":"4.67070000","wikiDataId":"Q238366"},{"id":39428,"name":"Anse","stateId":4798,"stateCode":"ARA","stateName":"Auvergne-Rhône-Alpes","countryId":75,"countryCode":"FR","countryName":"France","latitude":"45.93553000","longitude":"4.71933000","wikiDataId":"Q387478"},{"id":39431,"name":"Anthy-sur-Léman","stateId":4798,"stateCode":"ARA","stateName":"Auvergne-Rhône-Alpes","countryId":75,"countryCode":"FR","countryName":"France","latitude":"46.35534000","longitude":"6.42735000","wikiDataId":"Q322270"},{"id":39440,"name":"Aoste","stateId":4798,"stateCode":"ARA","stateName":"Auvergne-Rhône-Alpes","countryId":75,"countryCode":"FR","countryName":"France","latitude":"45.59423000","longitude":"5.60712000","wikiDataId":"Q1008855"},{"id":39441,"name":"Aouste-sur-Sye","stateId":4798,"stateCode":"ARA","stateName":"Auvergne-Rhône-Alpes","countryId":75,"countryCode":"FR","countryName":"France","latitude":"44.71813000","longitude":"5.05422000","wikiDataId":"Q863614"},{"id":39444,"name":"Apprieu","stateId":4798,"stateCode":"ARA","stateName":"Auvergne-Rhône-Alpes","countryId":75,"countryCode":"FR","countryName":"France","latitude":"45.39591000","longitude":"5.49993000","wikiDataId":"Q1087744"},{"id":39537,"name":"Arâches-la-Frasse","stateId":4798,"stateCode":"ARA","stateName":"Auvergne-Rhône-Alpes","countryId":75,"countryCode":"FR","countryName":"France","latitude":"46.04297000","longitude":"6.63145000","wikiDataId":"Q80498"},{"id":39448,"name":"Arbent","stateId":4798,"stateCode":"ARA","stateName":"Auvergne-Rhône-Alpes","countryId":75,"countryCode":"FR","countryName":"France","latitude":"46.29221000","longitude":"5.67890000","wikiDataId":"Q209048"},{"id":39460,"name":"Archamps","stateId":4798,"stateCode":"ARA","stateName":"Auvergne-Rhône-Alpes","countryId":75,"countryCode":"FR","countryName":"France","latitude":"46.13195000","longitude":"6.12551000","wikiDataId":"Q197339"},{"id":39471,"name":"Arenthon","stateId":4798,"stateCode":"ARA","stateName":"Auvergne-Rhône-Alpes","countryId":75,"countryCode":"FR","countryName":"France","latitude":"46.10697000","longitude":"6.33316000","wikiDataId":"Q262456"},{"id":39487,"name":"Arlanc","stateId":4798,"stateCode":"ARA","stateName":"Auvergne-Rhône-Alpes","countryId":75,"countryCode":"FR","countryName":"France","latitude":"45.41389000","longitude":"3.72528000","wikiDataId":"Q244708"},{"id":39496,"name":"Armoy","stateId":4798,"stateCode":"ARA","stateName":"Auvergne-Rhône-Alpes","countryId":75,"countryCode":"FR","countryName":"France","latitude":"46.35079000","longitude":"6.51703000","wikiDataId":"Q193925"},{"id":39500,"name":"Arnas","stateId":4798,"stateCode":"ARA","stateName":"Auvergne-Rhône-Alpes","countryId":75,"countryCode":"FR","countryName":"France","latitude":"46.02361000","longitude":"4.70830000","wikiDataId":"Q1617166"},{"id":39507,"name":"Arpajon-sur-Cère","stateId":4798,"stateCode":"ARA","stateName":"Auvergne-Rhône-Alpes","countryId":75,"countryCode":"FR","countryName":"France","latitude":"44.90391000","longitude":"2.45664000","wikiDataId":"Q646708"},{"id":39514,"name":"Ars-sur-Formans","stateId":4798,"stateCode":"ARA","stateName":"Auvergne-Rhône-Alpes","countryId":75,"countryCode":"FR","countryName":"France","latitude":"45.99491000","longitude":"4.81986000","wikiDataId":"Q300000"},{"id":39519,"name":"Artas","stateId":4798,"stateCode":"ARA","stateName":"Auvergne-Rhône-Alpes","countryId":75,"countryCode":"FR","countryName":"France","latitude":"45.53717000","longitude":"5.16352000","wikiDataId":"Q1138725"},{"id":39520,"name":"Artemare","stateId":4798,"stateCode":"ARA","stateName":"Auvergne-Rhône-Alpes","countryId":75,"countryCode":"FR","countryName":"France","latitude":"45.87441000","longitude":"5.69366000","wikiDataId":"Q193994"},{"id":39522,"name":"Arthaz-Pont-Notre-Dame","stateId":4798,"stateCode":"ARA","stateName":"Auvergne-Rhône-Alpes","countryId":75,"countryCode":"FR","countryName":"France","latitude":"46.15941000","longitude":"6.26598000","wikiDataId":"Q593089"},{"id":39563,"name":"Attignat","stateId":4798,"stateCode":"ARA","stateName":"Auvergne-Rhône-Alpes","countryId":75,"countryCode":"FR","countryName":"France","latitude":"46.28562000","longitude":"5.16164000","wikiDataId":"Q696480"},{"id":39569,"name":"Aubenas","stateId":4798,"stateCode":"ARA","stateName":"Auvergne-Rhône-Alpes","countryId":75,"countryCode":"FR","countryName":"France","latitude":"44.61975000","longitude":"4.39033000","wikiDataId":"Q211121"},{"id":39572,"name":"Auberives-sur-Varèze","stateId":4798,"stateCode":"ARA","stateName":"Auvergne-Rhône-Alpes","countryId":75,"countryCode":"FR","countryName":"France","latitude":"45.42080000","longitude":"4.81914000","wikiDataId":"Q687036"},{"id":39585,"name":"Aubière","stateId":4798,"stateCode":"ARA","stateName":"Auvergne-Rhône-Alpes","countryId":75,"countryCode":"FR","countryName":"France","latitude":"45.75082000","longitude":"3.11078000","wikiDataId":"Q627252"},{"id":39607,"name":"Aulnat","stateId":4798,"stateCode":"ARA","stateName":"Auvergne-Rhône-Alpes","countryId":75,"countryCode":"FR","countryName":"France","latitude":"45.79929000","longitude":"3.16743000","wikiDataId":"Q21806"},{"id":39624,"name":"Aurec-sur-Loire","stateId":4798,"stateCode":"ARA","stateName":"Auvergne-Rhône-Alpes","countryId":75,"countryCode":"FR","countryName":"France","latitude":"45.36908000","longitude":"4.20161000","wikiDataId":"Q250555"},{"id":39630,"name":"Aurillac","stateId":4798,"stateCode":"ARA","stateName":"Auvergne-Rhône-Alpes","countryId":75,"countryCode":"FR","countryName":"France","latitude":"44.92539000","longitude":"2.43983000","wikiDataId":"Q174234"},{"id":39637,"name":"Autrans","stateId":4798,"stateCode":"ARA","stateName":"Auvergne-Rhône-Alpes","countryId":75,"countryCode":"FR","countryName":"France","latitude":"45.17605000","longitude":"5.54271000","wikiDataId":"Q475938"},{"id":39650,"name":"Auzat-la-Combelle","stateId":4798,"stateCode":"ARA","stateName":"Auvergne-Rhône-Alpes","countryId":75,"countryCode":"FR","countryName":"France","latitude":"45.45224000","longitude":"3.31825000","wikiDataId":"Q20161"},{"id":39659,"name":"Aveize","stateId":4798,"stateCode":"ARA","stateName":"Auvergne-Rhône-Alpes","countryId":75,"countryCode":"FR","countryName":"France","latitude":"45.68243000","longitude":"4.47786000","wikiDataId":"Q1357594"},{"id":39660,"name":"Aveizieux","stateId":4798,"stateCode":"ARA","stateName":"Auvergne-Rhône-Alpes","countryId":75,"countryCode":"FR","countryName":"France","latitude":"45.56500000","longitude":"4.37071000","wikiDataId":"Q1357594"},{"id":39663,"name":"Avermes","stateId":4798,"stateCode":"ARA","stateName":"Auvergne-Rhône-Alpes","countryId":75,"countryCode":"FR","countryName":"France","latitude":"46.58774000","longitude":"3.30720000","wikiDataId":"Q1357594"},{"id":39685,"name":"Aydat","stateId":4798,"stateCode":"ARA","stateName":"Auvergne-Rhône-Alpes","countryId":75,"countryCode":"FR","countryName":"France","latitude":"45.66022000","longitude":"2.97316000","wikiDataId":"Q21912"},{"id":39690,"name":"Ayse","stateId":4798,"stateCode":"ARA","stateName":"Auvergne-Rhône-Alpes","countryId":75,"countryCode":"FR","countryName":"France","latitude":"46.08135000","longitude":"6.44550000","wikiDataId":"Q21912"},{"id":40409,"name":"Bâgé-la-Ville","stateId":4798,"stateCode":"ARA","stateName":"Auvergne-Rhône-Alpes","countryId":75,"countryCode":"FR","countryName":"France","latitude":"46.31567000","longitude":"4.94086000","wikiDataId":"Q1344893"},{"id":39734,"name":"Bains","stateId":4798,"stateCode":"ARA","stateName":"Auvergne-Rhône-Alpes","countryId":75,"countryCode":"FR","countryName":"France","latitude":"45.00956000","longitude":"3.77503000","wikiDataId":"Q377641"},{"id":39744,"name":"Balan","stateId":4798,"stateCode":"ARA","stateName":"Auvergne-Rhône-Alpes","countryId":75,"countryCode":"FR","countryName":"France","latitude":"45.83416000","longitude":"5.09930000","wikiDataId":"Q1098975"},{"id":39748,"name":"Balbigny","stateId":4798,"stateCode":"ARA","stateName":"Auvergne-Rhône-Alpes","countryId":75,"countryCode":"FR","countryName":"France","latitude":"45.81913000","longitude":"4.19030000","wikiDataId":"Q779377"},{"id":39751,"name":"Ballaison","stateId":4798,"stateCode":"ARA","stateName":"Auvergne-Rhône-Alpes","countryId":75,"countryCode":"FR","countryName":"France","latitude":"46.29842000","longitude":"6.32765000","wikiDataId":"Q248945"},{"id":39773,"name":"Barberaz","stateId":4798,"stateCode":"ARA","stateName":"Auvergne-Rhône-Alpes","countryId":75,"countryCode":"FR","countryName":"France","latitude":"45.56179000","longitude":"5.94306000","wikiDataId":"Q750765"},{"id":39776,"name":"Barby","stateId":4798,"stateCode":"ARA","stateName":"Auvergne-Rhône-Alpes","countryId":75,"countryCode":"FR","countryName":"France","latitude":"45.56810000","longitude":"5.97966000","wikiDataId":"Q256175"},{"id":39791,"name":"Barraux","stateId":4798,"stateCode":"ARA","stateName":"Auvergne-Rhône-Alpes","countryId":75,"countryCode":"FR","countryName":"France","latitude":"45.43176000","longitude":"5.97964000","wikiDataId":"Q321965"},{"id":39796,"name":"Bas-en-Basset","stateId":4798,"stateCode":"ARA","stateName":"Auvergne-Rhône-Alpes","countryId":75,"countryCode":"FR","countryName":"France","latitude":"45.30599000","longitude":"4.10912000","wikiDataId":"Q1065773"},{"id":39800,"name":"Bassens","stateId":4798,"stateCode":"ARA","stateName":"Auvergne-Rhône-Alpes","countryId":75,"countryCode":"FR","countryName":"France","latitude":"45.57555000","longitude":"5.93900000","wikiDataId":"Q1115736"},{"id":39840,"name":"Beauchastel","stateId":4798,"stateCode":"ARA","stateName":"Auvergne-Rhône-Alpes","countryId":75,"countryCode":"FR","countryName":"France","latitude":"44.82587000","longitude":"4.80305000","wikiDataId":"Q1222948"},{"id":39843,"name":"Beaucroissant","stateId":4798,"stateCode":"ARA","stateName":"Auvergne-Rhône-Alpes","countryId":75,"countryCode":"FR","countryName":"France","latitude":"45.34276000","longitude":"5.47102000","wikiDataId":"Q813366"},{"id":39846,"name":"Beaufort","stateId":4798,"stateCode":"ARA","stateName":"Auvergne-Rhône-Alpes","countryId":75,"countryCode":"FR","countryName":"France","latitude":"45.71915000","longitude":"6.57331000","wikiDataId":"Q813366"},{"id":39849,"name":"Beaujeu","stateId":4798,"stateCode":"ARA","stateName":"Auvergne-Rhône-Alpes","countryId":75,"countryCode":"FR","countryName":"France","latitude":"46.15428000","longitude":"4.58826000","wikiDataId":"Q429910"},{"id":39856,"name":"Beaulon","stateId":4798,"stateCode":"ARA","stateName":"Auvergne-Rhône-Alpes","countryId":75,"countryCode":"FR","countryName":"France","latitude":"46.60156000","longitude":"3.67314000","wikiDataId":"Q271315"},{"id":39859,"name":"Beaumont","stateId":4798,"stateCode":"ARA","stateName":"Auvergne-Rhône-Alpes","countryId":75,"countryCode":"FR","countryName":"France","latitude":"45.75165000","longitude":"3.08294000","wikiDataId":"Q381313"},{"id":39870,"name":"Beaumont-lès-Valence","stateId":4798,"stateCode":"ARA","stateName":"Auvergne-Rhône-Alpes","countryId":75,"countryCode":"FR","countryName":"France","latitude":"44.86203000","longitude":"4.94309000","wikiDataId":"Q177155"},{"id":39862,"name":"Beaumont-Monteux","stateId":4798,"stateCode":"ARA","stateName":"Auvergne-Rhône-Alpes","countryId":75,"countryCode":"FR","countryName":"France","latitude":"45.01980000","longitude":"4.91883000","wikiDataId":"Q381313"},{"id":39882,"name":"Beaurepaire","stateId":4798,"stateCode":"ARA","stateName":"Auvergne-Rhône-Alpes","countryId":75,"countryCode":"FR","countryName":"France","latitude":"45.33658000","longitude":"5.04878000","wikiDataId":"Q752918"},{"id":39885,"name":"Beausemblant","stateId":4798,"stateCode":"ARA","stateName":"Auvergne-Rhône-Alpes","countryId":75,"countryCode":"FR","countryName":"France","latitude":"45.21706000","longitude":"4.83241000","wikiDataId":"Q274740"},{"id":39891,"name":"Beauvallon","stateId":4798,"stateCode":"ARA","stateName":"Auvergne-Rhône-Alpes","countryId":75,"countryCode":"FR","countryName":"France","latitude":"44.85593000","longitude":"4.90756000","wikiDataId":"Q274740"},{"id":39892,"name":"Beauvoir-de-Marc","stateId":4798,"stateCode":"ARA","stateName":"Auvergne-Rhône-Alpes","countryId":75,"countryCode":"FR","countryName":"France","latitude":"45.52009000","longitude":"5.07906000","wikiDataId":"Q274740"},{"id":39897,"name":"Beauzac","stateId":4798,"stateCode":"ARA","stateName":"Auvergne-Rhône-Alpes","countryId":75,"countryCode":"FR","countryName":"France","latitude":"45.25913000","longitude":"4.09874000","wikiDataId":"Q1058535"},{"id":40421,"name":"Béligneux","stateId":4798,"stateCode":"ARA","stateName":"Auvergne-Rhône-Alpes","countryId":75,"countryCode":"FR","countryName":"France","latitude":"45.86775000","longitude":"5.12747000","wikiDataId":"Q34788516"},{"id":39911,"name":"Belle-Plagne","stateId":4798,"stateCode":"ARA","stateName":"Auvergne-Rhône-Alpes","countryId":75,"countryCode":"FR","countryName":"France","latitude":"45.50932000","longitude":"6.70685000","wikiDataId":"Q214597"},{"id":39914,"name":"Bellegarde-en-Forez","stateId":4798,"stateCode":"ARA","stateName":"Auvergne-Rhône-Alpes","countryId":75,"countryCode":"FR","countryName":"France","latitude":"45.64469000","longitude":"4.29721000","wikiDataId":"Q214597"},{"id":39915,"name":"Bellegarde-sur-Valserine","stateId":4798,"stateCode":"ARA","stateName":"Auvergne-Rhône-Alpes","countryId":75,"countryCode":"FR","countryName":"France","latitude":"46.10787000","longitude":"5.82421000","wikiDataId":"Q191475"},{"id":39916,"name":"Bellenaves","stateId":4798,"stateCode":"ARA","stateName":"Auvergne-Rhône-Alpes","countryId":75,"countryCode":"FR","countryName":"France","latitude":"46.20045000","longitude":"3.07995000","wikiDataId":"Q263971"},{"id":39919,"name":"Bellerive-sur-Allier","stateId":4798,"stateCode":"ARA","stateName":"Auvergne-Rhône-Alpes","countryId":75,"countryCode":"FR","countryName":"France","latitude":"46.11652000","longitude":"3.40406000","wikiDataId":"Q245132"},{"id":39921,"name":"Bellevaux","stateId":4798,"stateCode":"ARA","stateName":"Auvergne-Rhône-Alpes","countryId":75,"countryCode":"FR","countryName":"France","latitude":"46.25875000","longitude":"6.53351000","wikiDataId":"Q1321539"},{"id":39922,"name":"Belleville","stateId":4798,"stateCode":"ARA","stateName":"Auvergne-Rhône-Alpes","countryId":75,"countryCode":"FR","countryName":"France","latitude":"46.10867000","longitude":"4.74920000","wikiDataId":"Q583071"},{"id":39927,"name":"Belley","stateId":4798,"stateCode":"ARA","stateName":"Auvergne-Rhône-Alpes","countryId":75,"countryCode":"FR","countryName":"France","latitude":"45.75917000","longitude":"5.68813000","wikiDataId":"Q188496"},{"id":39928,"name":"Bellignat","stateId":4798,"stateCode":"ARA","stateName":"Auvergne-Rhône-Alpes","countryId":75,"countryCode":"FR","countryName":"France","latitude":"46.24237000","longitude":"5.62843000","wikiDataId":"Q210917"},{"id":39932,"name":"Belmont-de-la-Loire","stateId":4798,"stateCode":"ARA","stateName":"Auvergne-Rhône-Alpes","countryId":75,"countryCode":"FR","countryName":"France","latitude":"46.16596000","longitude":"4.34737000","wikiDataId":"Q816092"},{"id":39955,"name":"Bernin","stateId":4798,"stateCode":"ARA","stateName":"Auvergne-Rhône-Alpes","countryId":75,"countryCode":"FR","countryName":"France","latitude":"45.26772000","longitude":"5.86457000","wikiDataId":"Q476813"},{"id":39975,"name":"Bessay-sur-Allier","stateId":4798,"stateCode":"ARA","stateName":"Auvergne-Rhône-Alpes","countryId":75,"countryCode":"FR","countryName":"France","latitude":"46.44199000","longitude":"3.36257000","wikiDataId":"Q1419629"},{"id":39976,"name":"Besse-et-Saint-Anastaise","stateId":4798,"stateCode":"ARA","stateName":"Auvergne-Rhône-Alpes","countryId":75,"countryCode":"FR","countryName":"France","latitude":"45.51667000","longitude":"2.93333000","wikiDataId":"Q1419629"},{"id":39978,"name":"Bessenay","stateId":4798,"stateCode":"ARA","stateName":"Auvergne-Rhône-Alpes","countryId":75,"countryCode":"FR","countryName":"France","latitude":"45.77661000","longitude":"4.55441000","wikiDataId":"Q1419629"},{"id":40000,"name":"Beynost","stateId":4798,"stateCode":"ARA","stateName":"Auvergne-Rhône-Alpes","countryId":75,"countryCode":"FR","countryName":"France","latitude":"45.83569000","longitude":"4.99910000","wikiDataId":"Q329328"},{"id":40020,"name":"Bilieu","stateId":4798,"stateCode":"ARA","stateName":"Auvergne-Rhône-Alpes","countryId":75,"countryCode":"FR","countryName":"France","latitude":"45.44809000","longitude":"5.54268000","wikiDataId":"Q1113714"},{"id":40021,"name":"Billom","stateId":4798,"stateCode":"ARA","stateName":"Auvergne-Rhône-Alpes","countryId":75,"countryCode":"FR","countryName":"France","latitude":"45.72267000","longitude":"3.33869000","wikiDataId":"Q246257"},{"id":40028,"name":"Biol","stateId":4798,"stateCode":"ARA","stateName":"Auvergne-Rhône-Alpes","countryId":75,"countryCode":"FR","countryName":"France","latitude":"45.49140000","longitude":"5.38550000","wikiDataId":"Q21749"},{"id":40036,"name":"Biviers","stateId":4798,"stateCode":"ARA","stateName":"Auvergne-Rhône-Alpes","countryId":75,"countryCode":"FR","countryName":"France","latitude":"45.23333000","longitude":"5.80000000","wikiDataId":"Q582635"},{"id":40042,"name":"Blacé","stateId":4798,"stateCode":"ARA","stateName":"Auvergne-Rhône-Alpes","countryId":75,"countryCode":"FR","countryName":"France","latitude":"46.03152000","longitude":"4.64448000","wikiDataId":"Q317610"},{"id":40056,"name":"Blanzat","stateId":4798,"stateCode":"ARA","stateName":"Auvergne-Rhône-Alpes","countryId":75,"countryCode":"FR","countryName":"France","latitude":"45.82975000","longitude":"3.07794000","wikiDataId":"Q247806"},{"id":40061,"name":"Blavozy","stateId":4798,"stateCode":"ARA","stateName":"Auvergne-Rhône-Alpes","countryId":75,"countryCode":"FR","countryName":"France","latitude":"45.05720000","longitude":"3.97993000","wikiDataId":"Q775404"},{"id":40245,"name":"Boëge","stateId":4798,"stateCode":"ARA","stateName":"Auvergne-Rhône-Alpes","countryId":75,"countryCode":"FR","countryName":"France","latitude":"46.20711000","longitude":"6.40428000","wikiDataId":"Q627217"},{"id":40246,"name":"Boën-sur-Lignon","stateId":4798,"stateCode":"ARA","stateName":"Auvergne-Rhône-Alpes","countryId":75,"countryCode":"FR","countryName":"France","latitude":"45.75114000","longitude":"4.00725000","wikiDataId":"Q627217"},{"id":40117,"name":"Bonne","stateId":4798,"stateCode":"ARA","stateName":"Auvergne-Rhône-Alpes","countryId":75,"countryCode":"FR","countryName":"France","latitude":"46.17207000","longitude":"6.32443000","wikiDataId":"Q204051"},{"id":40118,"name":"Bonnefamille","stateId":4798,"stateCode":"ARA","stateName":"Auvergne-Rhône-Alpes","countryId":75,"countryCode":"FR","countryName":"France","latitude":"45.59956000","longitude":"5.12489000","wikiDataId":"Q204051"},{"id":40126,"name":"Bonneville","stateId":4798,"stateCode":"ARA","stateName":"Auvergne-Rhône-Alpes","countryId":75,"countryCode":"FR","countryName":"France","latitude":"46.08020000","longitude":"6.40726000","wikiDataId":"Q670957"},{"id":40131,"name":"Bons-en-Chablais","stateId":4798,"stateCode":"ARA","stateName":"Auvergne-Rhône-Alpes","countryId":75,"countryCode":"FR","countryName":"France","latitude":"46.26486000","longitude":"6.37129000","wikiDataId":"Q687154"},{"id":40132,"name":"Bonson","stateId":4798,"stateCode":"ARA","stateName":"Auvergne-Rhône-Alpes","countryId":75,"countryCode":"FR","countryName":"France","latitude":"45.52291000","longitude":"4.21270000","wikiDataId":"Q687154"},{"id":40168,"name":"Boulieu-lès-Annonay","stateId":4798,"stateCode":"ARA","stateName":"Auvergne-Rhône-Alpes","countryId":75,"countryCode":"FR","countryName":"France","latitude":"45.27065000","longitude":"4.66645000","wikiDataId":"Q254934"},{"id":40179,"name":"Bourbon-l’Archambault","stateId":4798,"stateCode":"ARA","stateName":"Auvergne-Rhône-Alpes","countryId":75,"countryCode":"FR","countryName":"France","latitude":"46.58324000","longitude":"3.05652000","wikiDataId":"Q245080"},{"id":40187,"name":"Bourg-Argental","stateId":4798,"stateCode":"ARA","stateName":"Auvergne-Rhône-Alpes","countryId":75,"countryCode":"FR","countryName":"France","latitude":"45.29899000","longitude":"4.56830000","wikiDataId":"Q304553"},{"id":40191,"name":"Bourg-de-Péage","stateId":4798,"stateCode":"ARA","stateName":"Auvergne-Rhône-Alpes","countryId":75,"countryCode":"FR","countryName":"France","latitude":"45.03151000","longitude":"5.04993000","wikiDataId":"Q240363"},{"id":40192,"name":"Bourg-de-Thizy","stateId":4798,"stateCode":"ARA","stateName":"Auvergne-Rhône-Alpes","countryId":75,"countryCode":"FR","countryName":"France","latitude":"46.03371000","longitude":"4.29904000","wikiDataId":"Q1364098"},{"id":40194,"name":"Bourg-en-Bresse","stateId":4798,"stateCode":"ARA","stateName":"Auvergne-Rhône-Alpes","countryId":75,"countryCode":"FR","countryName":"France","latitude":"46.20574000","longitude":"5.22580000","wikiDataId":"Q1364098"},{"id":40196,"name":"Bourg-lès-Valence","stateId":4798,"stateCode":"ARA","stateName":"Auvergne-Rhône-Alpes","countryId":75,"countryCode":"FR","countryName":"France","latitude":"44.94703000","longitude":"4.89463000","wikiDataId":"Q1364098"},{"id":40189,"name":"Bourg-Saint-Andéol","stateId":4798,"stateCode":"ARA","stateName":"Auvergne-Rhône-Alpes","countryId":75,"countryCode":"FR","countryName":"France","latitude":"44.37338000","longitude":"4.64413000","wikiDataId":"Q304553"},{"id":40190,"name":"Bourg-Saint-Maurice","stateId":4798,"stateCode":"ARA","stateName":"Auvergne-Rhône-Alpes","countryId":75,"countryCode":"FR","countryName":"France","latitude":"45.61463000","longitude":"6.76845000","wikiDataId":"Q304553"},{"id":40204,"name":"Bourgoin-Jallieu","stateId":4798,"stateCode":"ARA","stateName":"Auvergne-Rhône-Alpes","countryId":75,"countryCode":"FR","countryName":"France","latitude":"45.58611000","longitude":"5.27361000","wikiDataId":"Q208893"},{"id":40210,"name":"Bournoncle-Saint-Pierre","stateId":4798,"stateCode":"ARA","stateName":"Auvergne-Rhône-Alpes","countryId":75,"countryCode":"FR","countryName":"France","latitude":"45.34351000","longitude":"3.31830000","wikiDataId":"Q1069234"},{"id":40226,"name":"Bouvesse-Quirieu","stateId":4798,"stateCode":"ARA","stateName":"Auvergne-Rhône-Alpes","countryId":75,"countryCode":"FR","countryName":"France","latitude":"45.79310000","longitude":"5.41496000","wikiDataId":"Q1599390"},{"id":40242,"name":"Bozel","stateId":4798,"stateCode":"ARA","stateName":"Auvergne-Rhône-Alpes","countryId":75,"countryCode":"FR","countryName":"France","latitude":"45.44288000","longitude":"6.64896000","wikiDataId":"Q1242293"},{"id":40262,"name":"Brassac-les-Mines","stateId":4798,"stateCode":"ARA","stateName":"Auvergne-Rhône-Alpes","countryId":75,"countryCode":"FR","countryName":"France","latitude":"45.41407000","longitude":"3.32900000","wikiDataId":"Q221894"},{"id":40363,"name":"Brézins","stateId":4798,"stateCode":"ARA","stateName":"Auvergne-Rhône-Alpes","countryId":75,"countryCode":"FR","countryName":"France","latitude":"45.35213000","longitude":"5.30539000","wikiDataId":"Q244508"},{"id":40330,"name":"Brié-et-Angonnes","stateId":4798,"stateCode":"ARA","stateName":"Auvergne-Rhône-Alpes","countryId":75,"countryCode":"FR","countryName":"France","latitude":"45.12418000","longitude":"5.78374000","wikiDataId":"Q6393"},{"id":40309,"name":"Briennon","stateId":4798,"stateCode":"ARA","stateName":"Auvergne-Rhône-Alpes","countryId":75,"countryCode":"FR","countryName":"France","latitude":"46.15127000","longitude":"4.07690000","wikiDataId":"Q498869"},{"id":40312,"name":"Brignais","stateId":4798,"stateCode":"ARA","stateName":"Auvergne-Rhône-Alpes","countryId":75,"countryCode":"FR","countryName":"France","latitude":"45.67383000","longitude":"4.75418000","wikiDataId":"Q582184"},{"id":40316,"name":"Brindas","stateId":4798,"stateCode":"ARA","stateName":"Auvergne-Rhône-Alpes","countryId":75,"countryCode":"FR","countryName":"France","latitude":"45.72111000","longitude":"4.69349000","wikiDataId":"Q247783"},{"id":40321,"name":"Brioude","stateId":4798,"stateCode":"ARA","stateName":"Auvergne-Rhône-Alpes","countryId":75,"countryCode":"FR","countryName":"France","latitude":"45.29419000","longitude":"3.38423000","wikiDataId":"Q203303"},{"id":40325,"name":"Brison-Saint-Innocent","stateId":4798,"stateCode":"ARA","stateName":"Auvergne-Rhône-Alpes","countryId":75,"countryCode":"FR","countryName":"France","latitude":"45.72440000","longitude":"5.88895000","wikiDataId":"Q675447"},{"id":40328,"name":"Brives-Charensac","stateId":4798,"stateCode":"ARA","stateName":"Auvergne-Rhône-Alpes","countryId":75,"countryCode":"FR","countryName":"France","latitude":"45.04780000","longitude":"3.92878000","wikiDataId":"Q6393"},{"id":40332,"name":"Bron","stateId":4798,"stateCode":"ARA","stateName":"Auvergne-Rhône-Alpes","countryId":75,"countryCode":"FR","countryName":"France","latitude":"45.73865000","longitude":"4.91303000","wikiDataId":"Q1291"},{"id":40337,"name":"Broût-Vernet","stateId":4798,"stateCode":"ARA","stateName":"Auvergne-Rhône-Alpes","countryId":75,"countryCode":"FR","countryName":"France","latitude":"46.18756000","longitude":"3.27324000","wikiDataId":"Q1104616"},{"id":40341,"name":"Brugheas","stateId":4798,"stateCode":"ARA","stateName":"Auvergne-Rhône-Alpes","countryId":75,"countryCode":"FR","countryName":"France","latitude":"46.07676000","longitude":"3.36780000","wikiDataId":"Q271752"},{"id":40375,"name":"Buellas","stateId":4798,"stateCode":"ARA","stateName":"Auvergne-Rhône-Alpes","countryId":75,"countryCode":"FR","countryName":"France","latitude":"46.21110000","longitude":"5.13220000","wikiDataId":"Q838492"},{"id":40379,"name":"Buis-les-Baronnies","stateId":4798,"stateCode":"ARA","stateName":"Auvergne-Rhône-Alpes","countryId":75,"countryCode":"FR","countryName":"France","latitude":"44.27647000","longitude":"5.27187000","wikiDataId":"Q333608"},{"id":40383,"name":"Bully","stateId":4798,"stateCode":"ARA","stateName":"Auvergne-Rhône-Alpes","countryId":75,"countryCode":"FR","countryName":"France","latitude":"45.85113000","longitude":"4.58328000","wikiDataId":"Q34784394"},{"id":40400,"name":"Bussières","stateId":4798,"stateCode":"ARA","stateName":"Auvergne-Rhône-Alpes","countryId":75,"countryCode":"FR","countryName":"France","latitude":"45.83570000","longitude":"4.27123000","wikiDataId":"Q819331"},{"id":40404,"name":"Buxières-les-Mines","stateId":4798,"stateCode":"ARA","stateName":"Auvergne-Rhône-Alpes","countryId":75,"countryCode":"FR","countryName":"France","latitude":"46.46807000","longitude":"2.95994000","wikiDataId":"Q243302"},{"id":40465,"name":"Cailloux-sur-Fontaines","stateId":4798,"stateCode":"ARA","stateName":"Auvergne-Rhône-Alpes","countryId":75,"countryCode":"FR","countryName":"France","latitude":"45.85259000","longitude":"4.87473000","wikiDataId":"Q23047"},{"id":40477,"name":"Caluire-et-Cuire","stateId":4798,"stateCode":"ARA","stateName":"Auvergne-Rhône-Alpes","countryId":75,"countryCode":"FR","countryName":"France","latitude":"45.79462000","longitude":"4.84640000","wikiDataId":"Q244717"},{"id":40516,"name":"Cantal","stateId":4798,"stateCode":"ARA","stateName":"Auvergne-Rhône-Alpes","countryId":75,"countryCode":"FR","countryName":"France","latitude":"45.13985000","longitude":"2.64947000","wikiDataId":"Q3259"},{"id":41389,"name":"Cébazat","stateId":4798,"stateCode":"ARA","stateName":"Auvergne-Rhône-Alpes","countryId":75,"countryCode":"FR","countryName":"France","latitude":"45.83140000","longitude":"3.09992000","wikiDataId":"Q946963"},{"id":40634,"name":"Celles-sur-Durolle","stateId":4798,"stateCode":"ARA","stateName":"Auvergne-Rhône-Alpes","countryId":75,"countryCode":"FR","countryName":"France","latitude":"45.85829000","longitude":"3.63540000","wikiDataId":"Q1047781"},{"id":40636,"name":"Cellieu","stateId":4798,"stateCode":"ARA","stateName":"Auvergne-Rhône-Alpes","countryId":75,"countryCode":"FR","countryName":"France","latitude":"45.51866000","longitude":"4.54332000","wikiDataId":"Q1047781"},{"id":41397,"name":"Cérilly","stateId":4798,"stateCode":"ARA","stateName":"Auvergne-Rhône-Alpes","countryId":75,"countryCode":"FR","countryName":"France","latitude":"46.61791000","longitude":"2.82080000","wikiDataId":"Q865855"},{"id":40655,"name":"Certines","stateId":4798,"stateCode":"ARA","stateName":"Auvergne-Rhône-Alpes","countryId":75,"countryCode":"FR","countryName":"France","latitude":"46.13244000","longitude":"5.26525000","wikiDataId":"Q34791054"},{"id":40659,"name":"Cessieu","stateId":4798,"stateCode":"ARA","stateName":"Auvergne-Rhône-Alpes","countryId":75,"countryCode":"FR","countryName":"France","latitude":"45.56371000","longitude":"5.37607000","wikiDataId":"Q627727"},{"id":40662,"name":"Cessy","stateId":4798,"stateCode":"ARA","stateName":"Auvergne-Rhône-Alpes","countryId":75,"countryCode":"FR","countryName":"France","latitude":"46.32032000","longitude":"6.07477000","wikiDataId":"Q236690"},{"id":40665,"name":"Ceyrat","stateId":4798,"stateCode":"ARA","stateName":"Auvergne-Rhône-Alpes","countryId":75,"countryCode":"FR","countryName":"France","latitude":"45.73265000","longitude":"3.06323000","wikiDataId":"Q326520"},{"id":40667,"name":"Ceyzériat","stateId":4798,"stateCode":"ARA","stateName":"Auvergne-Rhône-Alpes","countryId":75,"countryCode":"FR","countryName":"France","latitude":"46.18126000","longitude":"5.31977000","wikiDataId":"Q210104"},{"id":40669,"name":"Chabeuil","stateId":4798,"stateCode":"ARA","stateName":"Auvergne-Rhône-Alpes","countryId":75,"countryCode":"FR","countryName":"France","latitude":"44.89843000","longitude":"5.01438000","wikiDataId":"Q844850"},{"id":40931,"name":"Châbons","stateId":4798,"stateCode":"ARA","stateName":"Auvergne-Rhône-Alpes","countryId":75,"countryCode":"FR","countryName":"France","latitude":"45.44282000","longitude":"5.42542000","wikiDataId":"Q681259"},{"id":40671,"name":"Chabreloche","stateId":4798,"stateCode":"ARA","stateName":"Auvergne-Rhône-Alpes","countryId":75,"countryCode":"FR","countryName":"France","latitude":"45.87900000","longitude":"3.69664000","wikiDataId":"Q844850"},{"id":40674,"name":"Chadrac","stateId":4798,"stateCode":"ARA","stateName":"Auvergne-Rhône-Alpes","countryId":75,"countryCode":"FR","countryName":"France","latitude":"45.06181000","longitude":"3.90261000","wikiDataId":"Q34791282"},{"id":40686,"name":"Chalamont","stateId":4798,"stateCode":"ARA","stateName":"Auvergne-Rhône-Alpes","countryId":75,"countryCode":"FR","countryName":"France","latitude":"45.99734000","longitude":"5.16865000","wikiDataId":"Q34791357"},{"id":40688,"name":"Chaleins","stateId":4798,"stateCode":"ARA","stateName":"Auvergne-Rhône-Alpes","countryId":75,"countryCode":"FR","countryName":"France","latitude":"46.03165000","longitude":"4.80789000","wikiDataId":"Q458753"},{"id":40694,"name":"Challes-les-Eaux","stateId":4798,"stateCode":"ARA","stateName":"Auvergne-Rhône-Alpes","countryId":75,"countryCode":"FR","countryName":"France","latitude":"45.54685000","longitude":"5.98098000","wikiDataId":"Q34791393"},{"id":40695,"name":"Challex","stateId":4798,"stateCode":"ARA","stateName":"Auvergne-Rhône-Alpes","countryId":75,"countryCode":"FR","countryName":"France","latitude":"46.18458000","longitude":"5.97639000","wikiDataId":"Q34791393"},{"id":40700,"name":"Chamagnieu","stateId":4798,"stateCode":"ARA","stateName":"Auvergne-Rhône-Alpes","countryId":75,"countryCode":"FR","countryName":"France","latitude":"45.68249000","longitude":"5.16947000","wikiDataId":"Q34791410"},{"id":40701,"name":"Chamalières","stateId":4798,"stateCode":"ARA","stateName":"Auvergne-Rhône-Alpes","countryId":75,"countryCode":"FR","countryName":"France","latitude":"45.77364000","longitude":"3.06703000","wikiDataId":"Q34791410"},{"id":40713,"name":"Chambéry","stateId":4798,"stateCode":"ARA","stateName":"Auvergne-Rhône-Alpes","countryId":75,"countryCode":"FR","countryName":"France","latitude":"45.56628000","longitude":"5.92079000","wikiDataId":"Q165090"},{"id":40714,"name":"Chambœuf","stateId":4798,"stateCode":"ARA","stateName":"Auvergne-Rhône-Alpes","countryId":75,"countryCode":"FR","countryName":"France","latitude":"45.58333000","longitude":"4.31667000","wikiDataId":"Q165090"},{"id":40717,"name":"Chamonix-Mont-Blanc","stateId":4798,"stateCode":"ARA","stateName":"Auvergne-Rhône-Alpes","countryId":75,"countryCode":"FR","countryName":"France","latitude":"45.92375000","longitude":"6.86933000","wikiDataId":"Q83236"},{"id":40718,"name":"Champ-sur-Drac","stateId":4798,"stateCode":"ARA","stateName":"Auvergne-Rhône-Alpes","countryId":75,"countryCode":"FR","countryName":"France","latitude":"45.06940000","longitude":"5.73151000","wikiDataId":"Q83236"},{"id":40719,"name":"Champagnac","stateId":4798,"stateCode":"ARA","stateName":"Auvergne-Rhône-Alpes","countryId":75,"countryCode":"FR","countryName":"France","latitude":"45.35660000","longitude":"2.39942000","wikiDataId":"Q83236"},{"id":40721,"name":"Champagne-au-Mont-d’Or","stateId":4798,"stateCode":"ARA","stateName":"Auvergne-Rhône-Alpes","countryId":75,"countryCode":"FR","countryName":"France","latitude":"45.79475000","longitude":"4.79079000","wikiDataId":"Q1152850"},{"id":40725,"name":"Champagnier","stateId":4798,"stateCode":"ARA","stateName":"Auvergne-Rhône-Alpes","countryId":75,"countryCode":"FR","countryName":"France","latitude":"45.11155000","longitude":"5.72716000","wikiDataId":"Q272016"},{"id":40732,"name":"Champdieu","stateId":4798,"stateCode":"ARA","stateName":"Auvergne-Rhône-Alpes","countryId":75,"countryCode":"FR","countryName":"France","latitude":"45.64533000","longitude":"4.04705000","wikiDataId":"Q34791557"},{"id":40733,"name":"Champeix","stateId":4798,"stateCode":"ARA","stateName":"Auvergne-Rhône-Alpes","countryId":75,"countryCode":"FR","countryName":"France","latitude":"45.58863000","longitude":"3.12878000","wikiDataId":"Q34791557"},{"id":40738,"name":"Champier","stateId":4798,"stateCode":"ARA","stateName":"Auvergne-Rhône-Alpes","countryId":75,"countryCode":"FR","countryName":"France","latitude":"45.45540000","longitude":"5.29237000","wikiDataId":"Q634981"},{"id":40749,"name":"Champs-sur-Tarentaine-Marchal","stateId":4798,"stateCode":"ARA","stateName":"Auvergne-Rhône-Alpes","countryId":75,"countryCode":"FR","countryName":"France","latitude":"45.40000000","longitude":"2.56667000","wikiDataId":"Q34791649"},{"id":40756,"name":"Chanas","stateId":4798,"stateCode":"ARA","stateName":"Auvergne-Rhône-Alpes","countryId":75,"countryCode":"FR","countryName":"France","latitude":"45.31881000","longitude":"4.81849000","wikiDataId":"Q34791695"},{"id":40760,"name":"Chandon","stateId":4798,"stateCode":"ARA","stateName":"Auvergne-Rhône-Alpes","countryId":75,"countryCode":"FR","countryName":"France","latitude":"46.14925000","longitude":"4.21393000","wikiDataId":"Q957295"},{"id":40765,"name":"Chanonat","stateId":4798,"stateCode":"ARA","stateName":"Auvergne-Rhône-Alpes","countryId":75,"countryCode":"FR","countryName":"France","latitude":"45.69299000","longitude":"3.09351000","wikiDataId":"Q632394"},{"id":40766,"name":"Chanos-Curson","stateId":4798,"stateCode":"ARA","stateName":"Auvergne-Rhône-Alpes","countryId":75,"countryCode":"FR","countryName":"France","latitude":"45.06057000","longitude":"4.92381000","wikiDataId":"Q632394"},{"id":40769,"name":"Chantelle","stateId":4798,"stateCode":"ARA","stateName":"Auvergne-Rhône-Alpes","countryId":75,"countryCode":"FR","countryName":"France","latitude":"46.23806000","longitude":"3.15318000","wikiDataId":"Q632394"},{"id":40781,"name":"Chapareillan","stateId":4798,"stateCode":"ARA","stateName":"Auvergne-Rhône-Alpes","countryId":75,"countryCode":"FR","countryName":"France","latitude":"45.46513000","longitude":"5.99171000","wikiDataId":"Q1075722"},{"id":40782,"name":"Chapdes-Beaufort","stateId":4798,"stateCode":"ARA","stateName":"Auvergne-Rhône-Alpes","countryId":75,"countryCode":"FR","countryName":"France","latitude":"45.89277000","longitude":"2.86362000","wikiDataId":"Q1075722"},{"id":40784,"name":"Chaponnay","stateId":4798,"stateCode":"ARA","stateName":"Auvergne-Rhône-Alpes","countryId":75,"countryCode":"FR","countryName":"France","latitude":"45.62762000","longitude":"4.93615000","wikiDataId":"Q399465"},{"id":40785,"name":"Chaponost","stateId":4798,"stateCode":"ARA","stateName":"Auvergne-Rhône-Alpes","countryId":75,"countryCode":"FR","countryName":"France","latitude":"45.71020000","longitude":"4.74221000","wikiDataId":"Q399465"},{"id":40786,"name":"Chappes","stateId":4798,"stateCode":"ARA","stateName":"Auvergne-Rhône-Alpes","countryId":75,"countryCode":"FR","countryName":"France","latitude":"45.86848000","longitude":"3.22068000","wikiDataId":"Q399465"},{"id":40788,"name":"Charantonnay","stateId":4798,"stateCode":"ARA","stateName":"Auvergne-Rhône-Alpes","countryId":75,"countryCode":"FR","countryName":"France","latitude":"45.53705000","longitude":"5.11005000","wikiDataId":"Q1025018"},{"id":40789,"name":"Charavines","stateId":4798,"stateCode":"ARA","stateName":"Auvergne-Rhône-Alpes","countryId":75,"countryCode":"FR","countryName":"France","latitude":"45.42891000","longitude":"5.51492000","wikiDataId":"Q1025018"},{"id":40790,"name":"Charbonnières-les-Bains","stateId":4798,"stateCode":"ARA","stateName":"Auvergne-Rhône-Alpes","countryId":75,"countryCode":"FR","countryName":"France","latitude":"45.78053000","longitude":"4.74637000","wikiDataId":"Q1025018"},{"id":40791,"name":"Charbonnières-les-Varennes","stateId":4798,"stateCode":"ARA","stateName":"Auvergne-Rhône-Alpes","countryId":75,"countryCode":"FR","countryName":"France","latitude":"45.90786000","longitude":"2.99976000","wikiDataId":"Q34791953"},{"id":40793,"name":"Charentay","stateId":4798,"stateCode":"ARA","stateName":"Auvergne-Rhône-Alpes","countryId":75,"countryCode":"FR","countryName":"France","latitude":"46.08897000","longitude":"4.67921000","wikiDataId":"Q955821"},{"id":40803,"name":"Charlieu","stateId":4798,"stateCode":"ARA","stateName":"Auvergne-Rhône-Alpes","countryId":75,"countryCode":"FR","countryName":"France","latitude":"46.16202000","longitude":"4.17228000","wikiDataId":"Q688187"},{"id":40804,"name":"Charly","stateId":4798,"stateCode":"ARA","stateName":"Auvergne-Rhône-Alpes","countryId":75,"countryCode":"FR","countryName":"France","latitude":"45.64887000","longitude":"4.79461000","wikiDataId":"Q688187"},{"id":40808,"name":"Charmes-sur-Rhône","stateId":4798,"stateCode":"ARA","stateName":"Auvergne-Rhône-Alpes","countryId":75,"countryCode":"FR","countryName":"France","latitude":"44.86367000","longitude":"4.83533000","wikiDataId":"Q323743"},{"id":40809,"name":"Charnay","stateId":4798,"stateCode":"ARA","stateName":"Auvergne-Rhône-Alpes","countryId":75,"countryCode":"FR","countryName":"France","latitude":"45.89058000","longitude":"4.66821000","wikiDataId":"Q323743"},{"id":40813,"name":"Charnècles","stateId":4798,"stateCode":"ARA","stateName":"Auvergne-Rhône-Alpes","countryId":75,"countryCode":"FR","countryName":"France","latitude":"45.34398000","longitude":"5.52799000","wikiDataId":"Q323743"},{"id":40822,"name":"Charvieu-Chavagneux","stateId":4798,"stateCode":"ARA","stateName":"Auvergne-Rhône-Alpes","countryId":75,"countryCode":"FR","countryName":"France","latitude":"45.75000000","longitude":"5.15000000","wikiDataId":"Q383132"},{"id":40824,"name":"Chassagny","stateId":4798,"stateCode":"ARA","stateName":"Auvergne-Rhône-Alpes","countryId":75,"countryCode":"FR","countryName":"France","latitude":"45.60670000","longitude":"4.73214000","wikiDataId":"Q1364445"},{"id":40825,"name":"Chasse-sur-Rhône","stateId":4798,"stateCode":"ARA","stateName":"Auvergne-Rhône-Alpes","countryId":75,"countryCode":"FR","countryName":"France","latitude":"45.57850000","longitude":"4.80985000","wikiDataId":"Q926254"},{"id":40826,"name":"Chasselay","stateId":4798,"stateCode":"ARA","stateName":"Auvergne-Rhône-Alpes","countryId":75,"countryCode":"FR","countryName":"France","latitude":"45.87440000","longitude":"4.77237000","wikiDataId":"Q926254"},{"id":40829,"name":"Chassieu","stateId":4798,"stateCode":"ARA","stateName":"Auvergne-Rhône-Alpes","countryId":75,"countryCode":"FR","countryName":"France","latitude":"45.74584000","longitude":"4.97088000","wikiDataId":"Q1617692"},{"id":40938,"name":"Château-Gaillard","stateId":4798,"stateCode":"ARA","stateName":"Auvergne-Rhône-Alpes","countryId":75,"countryCode":"FR","countryName":"France","latitude":"45.97239000","longitude":"5.30436000","wikiDataId":"Q622720"},{"id":40955,"name":"Châteaugay","stateId":4798,"stateCode":"ARA","stateName":"Auvergne-Rhône-Alpes","countryId":75,"countryCode":"FR","countryName":"France","latitude":"45.85117000","longitude":"3.08482000","wikiDataId":"Q181886"},{"id":40959,"name":"Châteauneuf","stateId":4798,"stateCode":"ARA","stateName":"Auvergne-Rhône-Alpes","countryId":75,"countryCode":"FR","countryName":"France","latitude":"45.52457000","longitude":"4.64044000","wikiDataId":"Q34794450"},{"id":40962,"name":"Châteauneuf-de-Galaure","stateId":4798,"stateCode":"ARA","stateName":"Auvergne-Rhône-Alpes","countryId":75,"countryCode":"FR","countryName":"France","latitude":"45.22977000","longitude":"4.95777000","wikiDataId":"Q863711"},{"id":40965,"name":"Châteauneuf-du-Rhône","stateId":4798,"stateCode":"ARA","stateName":"Auvergne-Rhône-Alpes","countryId":75,"countryCode":"FR","countryName":"France","latitude":"44.48906000","longitude":"4.71706000","wikiDataId":"Q541278"},{"id":40973,"name":"Châteauneuf-sur-Isère","stateId":4798,"stateCode":"ARA","stateName":"Auvergne-Rhône-Alpes","countryId":75,"countryCode":"FR","countryName":"France","latitude":"45.01667000","longitude":"4.93333000","wikiDataId":"Q34794472"},{"id":40980,"name":"Châtel","stateId":4798,"stateCode":"ARA","stateName":"Auvergne-Rhône-Alpes","countryId":75,"countryCode":"FR","countryName":"France","latitude":"46.26495000","longitude":"6.84030000","wikiDataId":"Q681210"},{"id":40981,"name":"Châtel-Guyon","stateId":4798,"stateCode":"ARA","stateName":"Auvergne-Rhône-Alpes","countryId":75,"countryCode":"FR","countryName":"France","latitude":"45.92258000","longitude":"3.06423000","wikiDataId":"Q681210"},{"id":40991,"name":"Châtillon","stateId":4798,"stateCode":"ARA","stateName":"Auvergne-Rhône-Alpes","countryId":75,"countryCode":"FR","countryName":"France","latitude":"45.80091000","longitude":"5.84352000","wikiDataId":"Q34794543"},{"id":40995,"name":"Châtillon-en-Michaille","stateId":4798,"stateCode":"ARA","stateName":"Auvergne-Rhône-Alpes","countryId":75,"countryCode":"FR","countryName":"France","latitude":"46.14320000","longitude":"5.79950000","wikiDataId":"Q182134"},{"id":40997,"name":"Châtillon-la-Palud","stateId":4798,"stateCode":"ARA","stateName":"Auvergne-Rhône-Alpes","countryId":75,"countryCode":"FR","countryName":"France","latitude":"45.97171000","longitude":"5.25290000","wikiDataId":"Q182134"},{"id":40999,"name":"Châtillon-sur-Chalaronne","stateId":4798,"stateCode":"ARA","stateName":"Auvergne-Rhône-Alpes","countryId":75,"countryCode":"FR","countryName":"France","latitude":"46.11834000","longitude":"4.95656000","wikiDataId":"Q208439"},{"id":41001,"name":"Châtillon-sur-Cluses","stateId":4798,"stateCode":"ARA","stateName":"Auvergne-Rhône-Alpes","countryId":75,"countryCode":"FR","countryName":"France","latitude":"46.08765000","longitude":"6.58041000","wikiDataId":"Q1135644"},{"id":41007,"name":"Châtonnay","stateId":4798,"stateCode":"ARA","stateName":"Auvergne-Rhône-Alpes","countryId":75,"countryCode":"FR","countryName":"France","latitude":"45.48734000","longitude":"5.21168000","wikiDataId":"Q34794570"},{"id":40832,"name":"Chatte","stateId":4798,"stateCode":"ARA","stateName":"Auvergne-Rhône-Alpes","countryId":75,"countryCode":"FR","countryName":"France","latitude":"45.14248000","longitude":"5.28224000","wikiDataId":"Q240752"},{"id":40833,"name":"Chatuzange-le-Goubet","stateId":4798,"stateCode":"ARA","stateName":"Auvergne-Rhône-Alpes","countryId":75,"countryCode":"FR","countryName":"France","latitude":"45.00359000","longitude":"5.09079000","wikiDataId":"Q240752"},{"id":40836,"name":"Chaudes-Aigues","stateId":4798,"stateCode":"ARA","stateName":"Auvergne-Rhône-Alpes","countryId":75,"countryCode":"FR","countryName":"France","latitude":"44.85455000","longitude":"3.00406000","wikiDataId":"Q269112"},{"id":40851,"name":"Chauriat","stateId":4798,"stateCode":"ARA","stateName":"Auvergne-Rhône-Alpes","countryId":75,"countryCode":"FR","countryName":"France","latitude":"45.75127000","longitude":"3.27895000","wikiDataId":"Q34792232"},{"id":40857,"name":"Chavanay","stateId":4798,"stateCode":"ARA","stateName":"Auvergne-Rhône-Alpes","countryId":75,"countryCode":"FR","countryName":"France","latitude":"45.41647000","longitude":"4.72602000","wikiDataId":"Q34792271"},{"id":40858,"name":"Chavanod","stateId":4798,"stateCode":"ARA","stateName":"Auvergne-Rhône-Alpes","countryId":75,"countryCode":"FR","countryName":"France","latitude":"45.89005000","longitude":"6.03928000","wikiDataId":"Q828253"},{"id":40859,"name":"Chavanoz","stateId":4798,"stateCode":"ARA","stateName":"Auvergne-Rhône-Alpes","countryId":75,"countryCode":"FR","countryName":"France","latitude":"45.76846000","longitude":"5.18808000","wikiDataId":"Q1003158"},{"id":40865,"name":"Chazelles-sur-Lyon","stateId":4798,"stateCode":"ARA","stateName":"Auvergne-Rhône-Alpes","countryId":75,"countryCode":"FR","countryName":"France","latitude":"45.63779000","longitude":"4.38890000","wikiDataId":"Q1066107"},{"id":40866,"name":"Chazey-sur-Ain","stateId":4798,"stateCode":"ARA","stateName":"Auvergne-Rhône-Alpes","countryId":75,"countryCode":"FR","countryName":"France","latitude":"45.89300000","longitude":"5.25352000","wikiDataId":"Q838332"},{"id":40876,"name":"Chens-sur-Léman","stateId":4798,"stateCode":"ARA","stateName":"Auvergne-Rhône-Alpes","countryId":75,"countryCode":"FR","countryName":"France","latitude":"46.32459000","longitude":"6.27075000","wikiDataId":"Q1418515"},{"id":40888,"name":"Chessy","stateId":4798,"stateCode":"ARA","stateName":"Auvergne-Rhône-Alpes","countryId":75,"countryCode":"FR","countryName":"France","latitude":"45.88716000","longitude":"4.62339000","wikiDataId":"Q34792701"},{"id":40903,"name":"Chevry","stateId":4798,"stateCode":"ARA","stateName":"Auvergne-Rhône-Alpes","countryId":75,"countryCode":"FR","countryName":"France","latitude":"46.28136000","longitude":"6.03873000","wikiDataId":"Q399366"},{"id":40908,"name":"Chilly","stateId":4798,"stateCode":"ARA","stateName":"Auvergne-Rhône-Alpes","countryId":75,"countryCode":"FR","countryName":"France","latitude":"45.99185000","longitude":"5.95477000","wikiDataId":"Q34793011"},{"id":40910,"name":"Chimilin","stateId":4798,"stateCode":"ARA","stateName":"Auvergne-Rhône-Alpes","countryId":75,"countryCode":"FR","countryName":"France","latitude":"45.57490000","longitude":"5.59569000","wikiDataId":"Q34793011"},{"id":40911,"name":"Chindrieux","stateId":4798,"stateCode":"ARA","stateName":"Auvergne-Rhône-Alpes","countryId":75,"countryCode":"FR","countryName":"France","latitude":"45.81948000","longitude":"5.85024000","wikiDataId":"Q34793011"},{"id":40914,"name":"Chirens","stateId":4798,"stateCode":"ARA","stateName":"Auvergne-Rhône-Alpes","countryId":75,"countryCode":"FR","countryName":"France","latitude":"45.41024000","longitude":"5.55634000","wikiDataId":"Q574297"},{"id":40920,"name":"Choisy","stateId":4798,"stateCode":"ARA","stateName":"Auvergne-Rhône-Alpes","countryId":75,"countryCode":"FR","countryName":"France","latitude":"45.99359000","longitude":"6.05866000","wikiDataId":"Q1161049"},{"id":40925,"name":"Chomérac","stateId":4798,"stateCode":"ARA","stateName":"Auvergne-Rhône-Alpes","countryId":75,"countryCode":"FR","countryName":"France","latitude":"44.70752000","longitude":"4.66164000","wikiDataId":"Q185066"},{"id":40930,"name":"Chuzelles","stateId":4798,"stateCode":"ARA","stateName":"Auvergne-Rhône-Alpes","countryId":75,"countryCode":"FR","countryName":"France","latitude":"45.58481000","longitude":"4.87703000","wikiDataId":"Q681259"},{"id":41030,"name":"Civens","stateId":4798,"stateCode":"ARA","stateName":"Auvergne-Rhône-Alpes","countryId":75,"countryCode":"FR","countryName":"France","latitude":"45.77964000","longitude":"4.25170000","wikiDataId":"Q1147332"},{"id":41033,"name":"Civrieux","stateId":4798,"stateCode":"ARA","stateName":"Auvergne-Rhône-Alpes","countryId":75,"countryCode":"FR","countryName":"France","latitude":"45.92086000","longitude":"4.88249000","wikiDataId":"Q1135868"},{"id":41038,"name":"Claix","stateId":4798,"stateCode":"ARA","stateName":"Auvergne-Rhône-Alpes","countryId":75,"countryCode":"FR","countryName":"France","latitude":"45.11994000","longitude":"5.67292000","wikiDataId":"Q477009"},{"id":41073,"name":"Clérieux","stateId":4798,"stateCode":"ARA","stateName":"Auvergne-Rhône-Alpes","countryId":75,"countryCode":"FR","countryName":"France","latitude":"45.07591000","longitude":"4.95983000","wikiDataId":"Q1078527"},{"id":41049,"name":"Clermont-Ferrand","stateId":4798,"stateCode":"ARA","stateName":"Auvergne-Rhône-Alpes","countryId":75,"countryCode":"FR","countryName":"France","latitude":"45.77969000","longitude":"3.08682000","wikiDataId":"Q1365831"},{"id":41059,"name":"Clonas-sur-Varèze","stateId":4798,"stateCode":"ARA","stateName":"Auvergne-Rhône-Alpes","countryId":75,"countryCode":"FR","countryName":"France","latitude":"45.41382000","longitude":"4.79077000","wikiDataId":"Q34795765"},{"id":41064,"name":"Cluses","stateId":4798,"stateCode":"ARA","stateName":"Auvergne-Rhône-Alpes","countryId":75,"countryCode":"FR","countryName":"France","latitude":"46.06251000","longitude":"6.57497000","wikiDataId":"Q654153"},{"id":41081,"name":"Cognin","stateId":4798,"stateCode":"ARA","stateName":"Auvergne-Rhône-Alpes","countryId":75,"countryCode":"FR","countryName":"France","latitude":"45.55952000","longitude":"5.89113000","wikiDataId":"Q34795924"},{"id":41082,"name":"Cogny","stateId":4798,"stateCode":"ARA","stateName":"Auvergne-Rhône-Alpes","countryId":75,"countryCode":"FR","countryName":"France","latitude":"45.98747000","longitude":"4.62475000","wikiDataId":"Q34795924"},{"id":41086,"name":"Coise","stateId":4798,"stateCode":"ARA","stateName":"Auvergne-Rhône-Alpes","countryId":75,"countryCode":"FR","countryName":"France","latitude":"45.52822000","longitude":"6.14389000","wikiDataId":"Q492333"},{"id":41088,"name":"Coligny","stateId":4798,"stateCode":"ARA","stateName":"Auvergne-Rhône-Alpes","countryId":75,"countryCode":"FR","countryName":"France","latitude":"46.38252000","longitude":"5.34554000","wikiDataId":"Q492333"},{"id":41093,"name":"Collonges","stateId":4798,"stateCode":"ARA","stateName":"Auvergne-Rhône-Alpes","countryId":75,"countryCode":"FR","countryName":"France","latitude":"46.13819000","longitude":"5.90506000","wikiDataId":"Q254829"},{"id":41094,"name":"Collonges-sous-Salève","stateId":4798,"stateCode":"ARA","stateName":"Auvergne-Rhône-Alpes","countryId":75,"countryCode":"FR","countryName":"France","latitude":"46.14160000","longitude":"6.15372000","wikiDataId":"Q34796059"},{"id":41098,"name":"Colombe","stateId":4798,"stateCode":"ARA","stateName":"Auvergne-Rhône-Alpes","countryId":75,"countryCode":"FR","countryName":"France","latitude":"45.40024000","longitude":"5.45441000","wikiDataId":"Q34796059"},{"id":41109,"name":"Combloux","stateId":4798,"stateCode":"ARA","stateName":"Auvergne-Rhône-Alpes","countryId":75,"countryCode":"FR","countryName":"France","latitude":"45.89790000","longitude":"6.64420000","wikiDataId":"Q34796154"},{"id":41113,"name":"Combronde","stateId":4798,"stateCode":"ARA","stateName":"Auvergne-Rhône-Alpes","countryId":75,"countryCode":"FR","countryName":"France","latitude":"45.98099000","longitude":"3.08807000","wikiDataId":"Q34796230"},{"id":41117,"name":"Commelle","stateId":4798,"stateCode":"ARA","stateName":"Auvergne-Rhône-Alpes","countryId":75,"countryCode":"FR","countryName":"France","latitude":"46.00086000","longitude":"4.05794000","wikiDataId":"Q275375"},{"id":41118,"name":"Commentry","stateId":4798,"stateCode":"ARA","stateName":"Auvergne-Rhône-Alpes","countryId":75,"countryCode":"FR","countryName":"France","latitude":"46.28876000","longitude":"2.74163000","wikiDataId":"Q510013"},{"id":41122,"name":"Communay","stateId":4798,"stateCode":"ARA","stateName":"Auvergne-Rhône-Alpes","countryId":75,"countryCode":"FR","countryName":"France","latitude":"45.60442000","longitude":"4.83488000","wikiDataId":"Q212456"},{"id":41130,"name":"Condat","stateId":4798,"stateCode":"ARA","stateName":"Auvergne-Rhône-Alpes","countryId":75,"countryCode":"FR","countryName":"France","latitude":"45.34093000","longitude":"2.75791000","wikiDataId":"Q34796347"},{"id":41134,"name":"Condrieu","stateId":4798,"stateCode":"ARA","stateName":"Auvergne-Rhône-Alpes","countryId":75,"countryCode":"FR","countryName":"France","latitude":"45.46300000","longitude":"4.76765000","wikiDataId":"Q828612"},{"id":41154,"name":"Contamine-sur-Arve","stateId":4798,"stateCode":"ARA","stateName":"Auvergne-Rhône-Alpes","countryId":75,"countryCode":"FR","countryName":"France","latitude":"46.14223000","longitude":"6.33215000","wikiDataId":"Q34796422"},{"id":41162,"name":"Corbas","stateId":4798,"stateCode":"ARA","stateName":"Auvergne-Rhône-Alpes","countryId":75,"countryCode":"FR","countryName":"France","latitude":"45.66798000","longitude":"4.90198000","wikiDataId":"Q1651173"},{"id":41166,"name":"Corbelin","stateId":4798,"stateCode":"ARA","stateName":"Auvergne-Rhône-Alpes","countryId":75,"countryCode":"FR","countryName":"France","latitude":"45.60733000","longitude":"5.54261000","wikiDataId":"Q1651173"},{"id":41175,"name":"Cordon","stateId":4798,"stateCode":"ARA","stateName":"Auvergne-Rhône-Alpes","countryId":75,"countryCode":"FR","countryName":"France","latitude":"45.92099000","longitude":"6.60536000","wikiDataId":"Q34796576"},{"id":41176,"name":"Corenc","stateId":4798,"stateCode":"ARA","stateName":"Auvergne-Rhône-Alpes","countryId":75,"countryCode":"FR","countryName":"France","latitude":"45.21889000","longitude":"5.76497000","wikiDataId":"Q1154568"},{"id":41186,"name":"Cornas","stateId":4798,"stateCode":"ARA","stateName":"Auvergne-Rhône-Alpes","countryId":75,"countryCode":"FR","countryName":"France","latitude":"44.96382000","longitude":"4.84839000","wikiDataId":"Q538779"},{"id":41192,"name":"Cornier","stateId":4798,"stateCode":"ARA","stateName":"Auvergne-Rhône-Alpes","countryId":75,"countryCode":"FR","countryName":"France","latitude":"46.09304000","longitude":"6.29895000","wikiDataId":"Q468229"},{"id":41213,"name":"Coublevie","stateId":4798,"stateCode":"ARA","stateName":"Auvergne-Rhône-Alpes","countryId":75,"countryCode":"FR","countryName":"France","latitude":"45.35856000","longitude":"5.61146000","wikiDataId":"Q1069515"},{"id":41214,"name":"Coubon","stateId":4798,"stateCode":"ARA","stateName":"Auvergne-Rhône-Alpes","countryId":75,"countryCode":"FR","countryName":"France","latitude":"44.99731000","longitude":"3.91783000","wikiDataId":"Q1069515"},{"id":41247,"name":"Courchevel","stateId":4798,"stateCode":"ARA","stateName":"Auvergne-Rhône-Alpes","countryId":75,"countryCode":"FR","countryName":"France","latitude":"45.41538000","longitude":"6.63643000","wikiDataId":"Q189715"},{"id":41255,"name":"Cournon-d’Auvergne","stateId":4798,"stateCode":"ARA","stateName":"Auvergne-Rhône-Alpes","countryId":75,"countryCode":"FR","countryName":"France","latitude":"45.74123000","longitude":"3.19643000","wikiDataId":"Q847122"},{"id":41259,"name":"Courpière","stateId":4798,"stateCode":"ARA","stateName":"Auvergne-Rhône-Alpes","countryId":75,"countryCode":"FR","countryName":"France","latitude":"45.75689000","longitude":"3.54216000","wikiDataId":"Q196035"},{"id":41262,"name":"Cours-la-Ville","stateId":4798,"stateCode":"ARA","stateName":"Auvergne-Rhône-Alpes","countryId":75,"countryCode":"FR","countryName":"France","latitude":"46.10000000","longitude":"4.31667000","wikiDataId":"Q1617140"},{"id":41273,"name":"Courzieu","stateId":4798,"stateCode":"ARA","stateName":"Auvergne-Rhône-Alpes","countryId":75,"countryCode":"FR","countryName":"France","latitude":"45.74270000","longitude":"4.57084000","wikiDataId":"Q1072386"},{"id":41282,"name":"Coutouvre","stateId":4798,"stateCode":"ARA","stateName":"Auvergne-Rhône-Alpes","countryId":75,"countryCode":"FR","countryName":"France","latitude":"46.07303000","longitude":"4.20535000","wikiDataId":"Q941432"},{"id":41285,"name":"Coux","stateId":4798,"stateCode":"ARA","stateName":"Auvergne-Rhône-Alpes","countryId":75,"countryCode":"FR","countryName":"France","latitude":"44.73484000","longitude":"4.62057000","wikiDataId":"Q243898"},{"id":41287,"name":"Couzon-au-Mont-d’Or","stateId":4798,"stateCode":"ARA","stateName":"Auvergne-Rhône-Alpes","countryId":75,"countryCode":"FR","countryName":"France","latitude":"45.84436000","longitude":"4.82883000","wikiDataId":"Q1026495"},{"id":41295,"name":"Cran-Gevrier","stateId":4798,"stateCode":"ARA","stateName":"Auvergne-Rhône-Alpes","countryId":75,"countryCode":"FR","countryName":"France","latitude":"45.90000000","longitude":"6.10000000","wikiDataId":"Q642409"},{"id":41297,"name":"Cranves-Sales","stateId":4798,"stateCode":"ARA","stateName":"Auvergne-Rhône-Alpes","countryId":75,"countryCode":"FR","countryName":"France","latitude":"46.18799000","longitude":"6.29903000","wikiDataId":"Q389500"},{"id":41299,"name":"Craponne","stateId":4798,"stateCode":"ARA","stateName":"Auvergne-Rhône-Alpes","countryId":75,"countryCode":"FR","countryName":"France","latitude":"45.74526000","longitude":"4.72322000","wikiDataId":"Q34797429"},{"id":41300,"name":"Craponne-sur-Arzon","stateId":4798,"stateCode":"ARA","stateName":"Auvergne-Rhône-Alpes","countryId":75,"countryCode":"FR","countryName":"France","latitude":"45.33092000","longitude":"3.84817000","wikiDataId":"Q270654"},{"id":41347,"name":"Crémieu","stateId":4798,"stateCode":"ARA","stateName":"Auvergne-Rhône-Alpes","countryId":75,"countryCode":"FR","countryName":"France","latitude":"45.72557000","longitude":"5.24911000","wikiDataId":"Q460800"},{"id":41309,"name":"Crest","stateId":4798,"stateCode":"ARA","stateName":"Auvergne-Rhône-Alpes","countryId":75,"countryCode":"FR","countryName":"France","latitude":"44.72639000","longitude":"5.01517000","wikiDataId":"Q327259"},{"id":41313,"name":"Creuzier-le-Vieux","stateId":4798,"stateCode":"ARA","stateName":"Auvergne-Rhône-Alpes","countryId":75,"countryCode":"FR","countryName":"France","latitude":"46.16253000","longitude":"3.43311000","wikiDataId":"Q535340"},{"id":41315,"name":"Creys-Mépieu","stateId":4798,"stateCode":"ARA","stateName":"Auvergne-Rhône-Alpes","countryId":75,"countryCode":"FR","countryName":"France","latitude":"45.73333000","longitude":"5.48333000","wikiDataId":"Q34797587"},{"id":41326,"name":"Crolles","stateId":4798,"stateCode":"ARA","stateName":"Auvergne-Rhône-Alpes","countryId":75,"countryCode":"FR","countryName":"France","latitude":"45.27724000","longitude":"5.87837000","wikiDataId":"Q579807"},{"id":41330,"name":"Crottet","stateId":4798,"stateCode":"ARA","stateName":"Auvergne-Rhône-Alpes","countryId":75,"countryCode":"FR","countryName":"France","latitude":"46.27602000","longitude":"4.89388000","wikiDataId":"Q34797705"},{"id":41335,"name":"Cruas","stateId":4798,"stateCode":"ARA","stateName":"Auvergne-Rhône-Alpes","countryId":75,"countryCode":"FR","countryName":"France","latitude":"44.65706000","longitude":"4.76293000","wikiDataId":"Q218058"},{"id":41336,"name":"Cruet","stateId":4798,"stateCode":"ARA","stateName":"Auvergne-Rhône-Alpes","countryId":75,"countryCode":"FR","countryName":"France","latitude":"45.52890000","longitude":"6.09220000","wikiDataId":"Q218058"},{"id":41337,"name":"Cruseilles","stateId":4798,"stateCode":"ARA","stateName":"Auvergne-Rhône-Alpes","countryId":75,"countryCode":"FR","countryName":"France","latitude":"46.02980000","longitude":"6.10831000","wikiDataId":"Q762920"},{"id":41355,"name":"Cublize","stateId":4798,"stateCode":"ARA","stateName":"Auvergne-Rhône-Alpes","countryId":75,"countryCode":"FR","countryName":"France","latitude":"46.01810000","longitude":"4.37738000","wikiDataId":"Q46135"},{"id":41370,"name":"Cuisiat","stateId":4798,"stateCode":"ARA","stateName":"Auvergne-Rhône-Alpes","countryId":75,"countryCode":"FR","countryName":"France","latitude":"46.30021000","longitude":"5.38809000","wikiDataId":"Q34797927"},{"id":41371,"name":"Culhat","stateId":4798,"stateCode":"ARA","stateName":"Auvergne-Rhône-Alpes","countryId":75,"countryCode":"FR","countryName":"France","latitude":"45.86259000","longitude":"3.33676000","wikiDataId":"Q34797927"},{"id":41372,"name":"Culoz","stateId":4798,"stateCode":"ARA","stateName":"Auvergne-Rhône-Alpes","countryId":75,"countryCode":"FR","countryName":"France","latitude":"45.84886000","longitude":"5.78537000","wikiDataId":"Q243597"},{"id":41374,"name":"Cunlhat","stateId":4798,"stateCode":"ARA","stateName":"Auvergne-Rhône-Alpes","countryId":75,"countryCode":"FR","countryName":"France","latitude":"45.63198000","longitude":"3.55927000","wikiDataId":"Q245451"},{"id":41377,"name":"Curtin","stateId":4798,"stateCode":"ARA","stateName":"Auvergne-Rhône-Alpes","countryId":75,"countryCode":"FR","countryName":"France","latitude":"45.64353000","longitude":"5.48982000","wikiDataId":"Q34798024"},{"id":41380,"name":"Cussac-sur-Loire","stateId":4798,"stateCode":"ARA","stateName":"Auvergne-Rhône-Alpes","countryId":75,"countryCode":"FR","countryName":"France","latitude":"44.98807000","longitude":"3.88416000","wikiDataId":"Q34798074"},{"id":41381,"name":"Cusset","stateId":4798,"stateCode":"ARA","stateName":"Auvergne-Rhône-Alpes","countryId":75,"countryCode":"FR","countryName":"France","latitude":"46.13452000","longitude":"3.45639000","wikiDataId":"Q321502"},{"id":41383,"name":"Cusy","stateId":4798,"stateCode":"ARA","stateName":"Auvergne-Rhône-Alpes","countryId":75,"countryCode":"FR","countryName":"France","latitude":"45.76603000","longitude":"6.02825000","wikiDataId":"Q321502"},{"id":41387,"name":"Cuzieu","stateId":4798,"stateCode":"ARA","stateName":"Auvergne-Rhône-Alpes","countryId":75,"countryCode":"FR","countryName":"France","latitude":"45.60764000","longitude":"4.25761000","wikiDataId":"Q1086439"},{"id":41404,"name":"Dagneux","stateId":4798,"stateCode":"ARA","stateName":"Auvergne-Rhône-Alpes","countryId":75,"countryCode":"FR","countryName":"France","latitude":"45.85140000","longitude":"5.07780000","wikiDataId":"Q241543"},{"id":41407,"name":"Dallet","stateId":4798,"stateCode":"ARA","stateName":"Auvergne-Rhône-Alpes","countryId":75,"countryCode":"FR","countryName":"France","latitude":"45.77047000","longitude":"3.23875000","wikiDataId":"Q646289"},{"id":41432,"name":"Dardilly","stateId":4798,"stateCode":"ARA","stateName":"Auvergne-Rhône-Alpes","countryId":75,"countryCode":"FR","countryName":"France","latitude":"45.80558000","longitude":"4.75319000","wikiDataId":"Q8365"},{"id":41442,"name":"Davézieux","stateId":4798,"stateCode":"ARA","stateName":"Auvergne-Rhône-Alpes","countryId":75,"countryCode":"FR","countryName":"France","latitude":"45.25520000","longitude":"4.70744000","wikiDataId":"Q1432210"},{"id":41600,"name":"Décines-Charpieu","stateId":4798,"stateCode":"ARA","stateName":"Auvergne-Rhône-Alpes","countryId":75,"countryCode":"FR","countryName":"France","latitude":"45.76873000","longitude":"4.95883000","wikiDataId":"Q1056120"},{"id":41452,"name":"Denicé","stateId":4798,"stateCode":"ARA","stateName":"Auvergne-Rhône-Alpes","countryId":75,"countryCode":"FR","countryName":"France","latitude":"46.00158000","longitude":"4.64555000","wikiDataId":"Q174061"},{"id":41608,"name":"Département de l'Ain","stateId":4798,"stateCode":"ARA","stateName":"Auvergne-Rhône-Alpes","countryId":75,"countryCode":"FR","countryName":"France","latitude":"46.16667000","longitude":"5.33333000","wikiDataId":"Q3083"},{"id":41610,"name":"Département de l'Allier","stateId":4798,"stateCode":"ARA","stateName":"Auvergne-Rhône-Alpes","countryId":75,"countryCode":"FR","countryName":"France","latitude":"46.50000000","longitude":"3.00000000","wikiDataId":"Q3113"},{"id":41611,"name":"Département de l'Ardèche","stateId":4798,"stateCode":"ARA","stateName":"Auvergne-Rhône-Alpes","countryId":75,"countryCode":"FR","countryName":"France","latitude":"44.66667000","longitude":"4.33333000","wikiDataId":"Q3148"},{"id":41620,"name":"Département de l'Isère","stateId":4798,"stateCode":"ARA","stateName":"Auvergne-Rhône-Alpes","countryId":75,"countryCode":"FR","countryName":"France","latitude":"45.16667000","longitude":"5.83333000","wikiDataId":"Q12559"},{"id":41627,"name":"Département de la Drôme","stateId":4798,"stateCode":"ARA","stateName":"Auvergne-Rhône-Alpes","countryId":75,"countryCode":"FR","countryName":"France","latitude":"44.69971000","longitude":"5.16521000","wikiDataId":"Q3364"},{"id":41630,"name":"Département de la Loire","stateId":4798,"stateCode":"ARA","stateName":"Auvergne-Rhône-Alpes","countryId":75,"countryCode":"FR","countryName":"France","latitude":"45.47169000","longitude":"4.43298000","wikiDataId":"Q12569"},{"id":41643,"name":"Département du Puy-de-Dôme","stateId":4798,"stateCode":"ARA","stateName":"Auvergne-Rhône-Alpes","countryId":75,"countryCode":"FR","countryName":"France","latitude":"45.70549000","longitude":"3.14600000","wikiDataId":"Q12694"},{"id":41644,"name":"Département du Rhône","stateId":4798,"stateCode":"ARA","stateName":"Auvergne-Rhône-Alpes","countryId":75,"countryCode":"FR","countryName":"France","latitude":"45.89126000","longitude":"4.53039000","wikiDataId":"Q46130"},{"id":41648,"name":"Désaignes","stateId":4798,"stateCode":"ARA","stateName":"Auvergne-Rhône-Alpes","countryId":75,"countryCode":"FR","countryName":"France","latitude":"44.99466000","longitude":"4.51695000","wikiDataId":"Q12792"},{"id":41649,"name":"Désertines","stateId":4798,"stateCode":"ARA","stateName":"Auvergne-Rhône-Alpes","countryId":75,"countryCode":"FR","countryName":"France","latitude":"46.35456000","longitude":"2.61924000","wikiDataId":"Q12792"},{"id":41466,"name":"Die","stateId":4798,"stateCode":"ARA","stateName":"Auvergne-Rhône-Alpes","countryId":75,"countryCode":"FR","countryName":"France","latitude":"44.75360000","longitude":"5.37033000","wikiDataId":"Q209773"},{"id":41499,"name":"Diémoz","stateId":4798,"stateCode":"ARA","stateName":"Auvergne-Rhône-Alpes","countryId":75,"countryCode":"FR","countryName":"France","latitude":"45.59099000","longitude":"5.08884000","wikiDataId":"Q536728"},{"id":41473,"name":"Dieulefit","stateId":4798,"stateCode":"ARA","stateName":"Auvergne-Rhône-Alpes","countryId":75,"countryCode":"FR","countryName":"France","latitude":"44.52563000","longitude":"5.06180000","wikiDataId":"Q325414"},{"id":41485,"name":"Dingy-Saint-Clair","stateId":4798,"stateCode":"ARA","stateName":"Auvergne-Rhône-Alpes","countryId":75,"countryCode":"FR","countryName":"France","latitude":"45.90664000","longitude":"6.22554000","wikiDataId":"Q131600"},{"id":41489,"name":"Diou","stateId":4798,"stateCode":"ARA","stateName":"Auvergne-Rhône-Alpes","countryId":75,"countryCode":"FR","countryName":"France","latitude":"46.53432000","longitude":"3.74453000","wikiDataId":"Q221300"},{"id":41497,"name":"Divonne-les-Bains","stateId":4798,"stateCode":"ARA","stateName":"Auvergne-Rhône-Alpes","countryId":75,"countryCode":"FR","countryName":"France","latitude":"46.35710000","longitude":"6.13494000","wikiDataId":"Q536728"},{"id":41506,"name":"Dolomieu","stateId":4798,"stateCode":"ARA","stateName":"Auvergne-Rhône-Alpes","countryId":75,"countryCode":"FR","countryName":"France","latitude":"45.60540000","longitude":"5.48571000","wikiDataId":"Q205586"},{"id":41511,"name":"Domancy","stateId":4798,"stateCode":"ARA","stateName":"Auvergne-Rhône-Alpes","countryId":75,"countryCode":"FR","countryName":"France","latitude":"45.91205000","longitude":"6.65271000","wikiDataId":"Q769276"},{"id":41512,"name":"Domarin","stateId":4798,"stateCode":"ARA","stateName":"Auvergne-Rhône-Alpes","countryId":75,"countryCode":"FR","countryName":"France","latitude":"45.58662000","longitude":"5.24599000","wikiDataId":"Q769276"},{"id":41526,"name":"Domène","stateId":4798,"stateCode":"ARA","stateName":"Auvergne-Rhône-Alpes","countryId":75,"countryCode":"FR","countryName":"France","latitude":"45.20289000","longitude":"5.83335000","wikiDataId":"Q59701"},{"id":41527,"name":"Domérat","stateId":4798,"stateCode":"ARA","stateName":"Auvergne-Rhône-Alpes","countryId":75,"countryCode":"FR","countryName":"France","latitude":"46.36036000","longitude":"2.53455000","wikiDataId":"Q59701"},{"id":41515,"name":"Domessin","stateId":4798,"stateCode":"ARA","stateName":"Auvergne-Rhône-Alpes","countryId":75,"countryCode":"FR","countryName":"France","latitude":"45.54739000","longitude":"5.70495000","wikiDataId":"Q769276"},{"id":41522,"name":"Dompierre-sur-Besbre","stateId":4798,"stateCode":"ARA","stateName":"Auvergne-Rhône-Alpes","countryId":75,"countryCode":"FR","countryName":"France","latitude":"46.52214000","longitude":"3.68106000","wikiDataId":"Q243724"},{"id":41524,"name":"Dompierre-sur-Veyle","stateId":4798,"stateCode":"ARA","stateName":"Auvergne-Rhône-Alpes","countryId":75,"countryCode":"FR","countryName":"France","latitude":"46.07108000","longitude":"5.20232000","wikiDataId":"Q59701"},{"id":41537,"name":"Donzère","stateId":4798,"stateCode":"ARA","stateName":"Auvergne-Rhône-Alpes","countryId":75,"countryCode":"FR","countryName":"France","latitude":"44.44246000","longitude":"4.71134000","wikiDataId":"Q817843"},{"id":41543,"name":"Dortan","stateId":4798,"stateCode":"ARA","stateName":"Auvergne-Rhône-Alpes","countryId":75,"countryCode":"FR","countryName":"France","latitude":"46.31973000","longitude":"5.66028000","wikiDataId":"Q271081"},{"id":41557,"name":"Doussard","stateId":4798,"stateCode":"ARA","stateName":"Auvergne-Rhône-Alpes","countryId":75,"countryCode":"FR","countryName":"France","latitude":"45.77512000","longitude":"6.22553000","wikiDataId":"Q736359"},{"id":41558,"name":"Douvaine","stateId":4798,"stateCode":"ARA","stateName":"Auvergne-Rhône-Alpes","countryId":75,"countryCode":"FR","countryName":"France","latitude":"46.30544000","longitude":"6.30375000","wikiDataId":"Q736359"},{"id":41563,"name":"Doyet","stateId":4798,"stateCode":"ARA","stateName":"Auvergne-Rhône-Alpes","countryId":75,"countryCode":"FR","countryName":"France","latitude":"46.33558000","longitude":"2.79718000","wikiDataId":"Q1103419"},{"id":41580,"name":"Drumettaz","stateId":4798,"stateCode":"ARA","stateName":"Auvergne-Rhône-Alpes","countryId":75,"countryCode":"FR","countryName":"France","latitude":"45.66136000","longitude":"5.92191000","wikiDataId":"Q734567"},{"id":41591,"name":"Dunières","stateId":4798,"stateCode":"ARA","stateName":"Auvergne-Rhône-Alpes","countryId":75,"countryCode":"FR","countryName":"France","latitude":"45.21558000","longitude":"4.34471000","wikiDataId":"Q817409"},{"id":41597,"name":"Durtol","stateId":4798,"stateCode":"ARA","stateName":"Auvergne-Rhône-Alpes","countryId":75,"countryCode":"FR","countryName":"France","latitude":"45.79621000","longitude":"3.05156000","wikiDataId":"Q819837"},{"id":48036,"name":"Ébreuil","stateId":4798,"stateCode":"ARA","stateName":"Auvergne-Rhône-Alpes","countryId":75,"countryCode":"FR","countryName":"France","latitude":"46.11548000","longitude":"3.08677000","wikiDataId":"Q273297"},{"id":48038,"name":"Échalas","stateId":4798,"stateCode":"ARA","stateName":"Auvergne-Rhône-Alpes","countryId":75,"countryCode":"FR","countryName":"France","latitude":"45.55203000","longitude":"4.71544000","wikiDataId":"Q273297"},{"id":48039,"name":"Échenevex","stateId":4798,"stateCode":"ARA","stateName":"Auvergne-Rhône-Alpes","countryId":75,"countryCode":"FR","countryName":"France","latitude":"46.30923000","longitude":"6.03963000","wikiDataId":"Q273297"},{"id":48042,"name":"Échirolles","stateId":4798,"stateCode":"ARA","stateName":"Auvergne-Rhône-Alpes","countryId":75,"countryCode":"FR","countryName":"France","latitude":"45.14603000","longitude":"5.71441000","wikiDataId":"Q273297"},{"id":48056,"name":"Écully","stateId":4798,"stateCode":"ARA","stateName":"Auvergne-Rhône-Alpes","countryId":75,"countryCode":"FR","countryName":"France","latitude":"45.77437000","longitude":"4.77758000","wikiDataId":"Q273748"},{"id":41675,"name":"Ennezat","stateId":4798,"stateCode":"ARA","stateName":"Auvergne-Rhône-Alpes","countryId":75,"countryCode":"FR","countryName":"France","latitude":"45.89772000","longitude":"3.22348000","wikiDataId":"Q333441"},{"id":41682,"name":"Entre-Deux-Guiers","stateId":4798,"stateCode":"ARA","stateName":"Auvergne-Rhône-Alpes","countryId":75,"countryCode":"FR","countryName":"France","latitude":"45.43061000","longitude":"5.75209000","wikiDataId":"Q49349748"},{"id":41684,"name":"Enval","stateId":4798,"stateCode":"ARA","stateName":"Auvergne-Rhône-Alpes","countryId":75,"countryCode":"FR","countryName":"France","latitude":"45.89921000","longitude":"3.04981000","wikiDataId":"Q49349748"},{"id":48069,"name":"Épagny","stateId":4798,"stateCode":"ARA","stateName":"Auvergne-Rhône-Alpes","countryId":75,"countryCode":"FR","countryName":"France","latitude":"45.93584000","longitude":"6.08302000","wikiDataId":"Q274801"},{"id":48082,"name":"Épinouze","stateId":4798,"stateCode":"ARA","stateName":"Auvergne-Rhône-Alpes","countryId":75,"countryCode":"FR","countryName":"France","latitude":"45.31003000","longitude":"4.92936000","wikiDataId":"Q661726"},{"id":41713,"name":"Escoutoux","stateId":4798,"stateCode":"ARA","stateName":"Auvergne-Rhône-Alpes","countryId":75,"countryCode":"FR","countryName":"France","latitude":"45.81942000","longitude":"3.56336000","wikiDataId":"Q511910"},{"id":41717,"name":"Espaly-Saint-Marcel","stateId":4798,"stateCode":"ARA","stateName":"Auvergne-Rhône-Alpes","countryId":75,"countryCode":"FR","countryName":"France","latitude":"45.04790000","longitude":"3.86557000","wikiDataId":"Q326699"},{"id":41735,"name":"Estivareilles","stateId":4798,"stateCode":"ARA","stateName":"Auvergne-Rhône-Alpes","countryId":75,"countryCode":"FR","countryName":"France","latitude":"46.42526000","longitude":"2.61872000","wikiDataId":"Q584743"},{"id":41736,"name":"Estrablin","stateId":4798,"stateCode":"ARA","stateName":"Auvergne-Rhône-Alpes","countryId":75,"countryCode":"FR","countryName":"France","latitude":"45.51546000","longitude":"4.96173000","wikiDataId":"Q1069558"},{"id":41740,"name":"Etaux","stateId":4798,"stateCode":"ARA","stateName":"Auvergne-Rhône-Alpes","countryId":75,"countryCode":"FR","countryName":"France","latitude":"46.06835000","longitude":"6.29533000","wikiDataId":"Q1069558"},{"id":48106,"name":"Étoile-sur-Rhône","stateId":4798,"stateCode":"ARA","stateName":"Auvergne-Rhône-Alpes","countryId":75,"countryCode":"FR","countryName":"France","latitude":"44.83883000","longitude":"4.89050000","wikiDataId":"Q859997"},{"id":48109,"name":"Étrembières","stateId":4798,"stateCode":"ARA","stateName":"Auvergne-Rhône-Alpes","countryId":75,"countryCode":"FR","countryName":"France","latitude":"46.17923000","longitude":"6.22725000","wikiDataId":"Q290880"},{"id":41744,"name":"Eurre","stateId":4798,"stateCode":"ARA","stateName":"Auvergne-Rhône-Alpes","countryId":75,"countryCode":"FR","countryName":"France","latitude":"44.75825000","longitude":"4.98843000","wikiDataId":"Q385700"},{"id":48118,"name":"Évian-les-Bains","stateId":4798,"stateCode":"ARA","stateName":"Auvergne-Rhône-Alpes","countryId":75,"countryCode":"FR","countryName":"France","latitude":"46.40111000","longitude":"6.58793000","wikiDataId":"Q273017"},{"id":48120,"name":"Évires","stateId":4798,"stateCode":"ARA","stateName":"Auvergne-Rhône-Alpes","countryId":75,"countryCode":"FR","countryName":"France","latitude":"46.03783000","longitude":"6.22453000","wikiDataId":"Q273017"},{"id":41751,"name":"Eybens","stateId":4798,"stateCode":"ARA","stateName":"Auvergne-Rhône-Alpes","countryId":75,"countryCode":"FR","countryName":"France","latitude":"45.14771000","longitude":"5.75014000","wikiDataId":"Q1002915"},{"id":41759,"name":"Eyzin-Pinet","stateId":4798,"stateCode":"ARA","stateName":"Auvergne-Rhône-Alpes","countryId":75,"countryCode":"FR","countryName":"France","latitude":"45.47377000","longitude":"4.99845000","wikiDataId":"Q467370"},{"id":41772,"name":"Fareins","stateId":4798,"stateCode":"ARA","stateName":"Auvergne-Rhône-Alpes","countryId":75,"countryCode":"FR","countryName":"France","latitude":"46.01913000","longitude":"4.76136000","wikiDataId":"Q665618"},{"id":41775,"name":"Farnay","stateId":4798,"stateCode":"ARA","stateName":"Auvergne-Rhône-Alpes","countryId":75,"countryCode":"FR","countryName":"France","latitude":"45.49622000","longitude":"4.58311000","wikiDataId":"Q457674"},{"id":41782,"name":"Faverges","stateId":4798,"stateCode":"ARA","stateName":"Auvergne-Rhône-Alpes","countryId":75,"countryCode":"FR","countryName":"France","latitude":"45.75116000","longitude":"6.29151000","wikiDataId":"Q828265"},{"id":41783,"name":"Faverges-de-la-Tour","stateId":4798,"stateCode":"ARA","stateName":"Auvergne-Rhône-Alpes","countryId":75,"countryCode":"FR","countryName":"France","latitude":"45.59068000","longitude":"5.52136000","wikiDataId":"Q828265"},{"id":41793,"name":"Feigères","stateId":4798,"stateCode":"ARA","stateName":"Auvergne-Rhône-Alpes","countryId":75,"countryCode":"FR","countryName":"France","latitude":"46.11228000","longitude":"6.07937000","wikiDataId":"Q640887"},{"id":41794,"name":"Feillens","stateId":4798,"stateCode":"ARA","stateName":"Auvergne-Rhône-Alpes","countryId":75,"countryCode":"FR","countryName":"France","latitude":"46.33426000","longitude":"4.89146000","wikiDataId":"Q640887"},{"id":42002,"name":"Félines","stateId":4798,"stateCode":"ARA","stateName":"Auvergne-Rhône-Alpes","countryId":75,"countryCode":"FR","countryName":"France","latitude":"45.31668000","longitude":"4.72836000","wikiDataId":"Q1168703"},{"id":41801,"name":"Ferney-Voltaire","stateId":4798,"stateCode":"ARA","stateName":"Auvergne-Rhône-Alpes","countryId":75,"countryCode":"FR","countryName":"France","latitude":"46.25858000","longitude":"6.11063000","wikiDataId":"Q233733"},{"id":42008,"name":"Féternes","stateId":4798,"stateCode":"ARA","stateName":"Auvergne-Rhône-Alpes","countryId":75,"countryCode":"FR","countryName":"France","latitude":"46.35582000","longitude":"6.54829000","wikiDataId":"Q71101"},{"id":41814,"name":"Feurs","stateId":4798,"stateCode":"ARA","stateName":"Auvergne-Rhône-Alpes","countryId":75,"countryCode":"FR","countryName":"France","latitude":"45.73337000","longitude":"4.22755000","wikiDataId":"Q273897"},{"id":41816,"name":"Feyzin","stateId":4798,"stateCode":"ARA","stateName":"Auvergne-Rhône-Alpes","countryId":75,"countryCode":"FR","countryName":"France","latitude":"45.67287000","longitude":"4.85894000","wikiDataId":"Q13600"},{"id":41820,"name":"Fillinges","stateId":4798,"stateCode":"ARA","stateName":"Auvergne-Rhône-Alpes","countryId":75,"countryCode":"FR","countryName":"France","latitude":"46.15944000","longitude":"6.34237000","wikiDataId":"Q207614"},{"id":41824,"name":"Firminy","stateId":4798,"stateCode":"ARA","stateName":"Auvergne-Rhône-Alpes","countryId":75,"countryCode":"FR","countryName":"France","latitude":"45.38956000","longitude":"4.28860000","wikiDataId":"Q387642"},{"id":41826,"name":"Fitilieu","stateId":4798,"stateCode":"ARA","stateName":"Auvergne-Rhône-Alpes","countryId":75,"countryCode":"FR","countryName":"France","latitude":"45.54744000","longitude":"5.56194000","wikiDataId":"Q1214970"},{"id":41830,"name":"Flaviac","stateId":4798,"stateCode":"ARA","stateName":"Auvergne-Rhône-Alpes","countryId":75,"countryCode":"FR","countryName":"France","latitude":"44.74777000","longitude":"4.67434000","wikiDataId":"Q840276"},{"id":41842,"name":"Fleurie","stateId":4798,"stateCode":"ARA","stateName":"Auvergne-Rhône-Alpes","countryId":75,"countryCode":"FR","countryName":"France","latitude":"46.19219000","longitude":"4.69747000","wikiDataId":"Q1356894"},{"id":41843,"name":"Fleurieu-sur-Saône","stateId":4798,"stateCode":"ARA","stateName":"Auvergne-Rhône-Alpes","countryId":75,"countryCode":"FR","countryName":"France","latitude":"45.86095000","longitude":"4.84633000","wikiDataId":"Q977460"},{"id":41866,"name":"Foissiat","stateId":4798,"stateCode":"ARA","stateName":"Auvergne-Rhône-Alpes","countryId":75,"countryCode":"FR","countryName":"France","latitude":"46.37150000","longitude":"5.17525000","wikiDataId":"Q20097"},{"id":41876,"name":"Fontaine","stateId":4798,"stateCode":"ARA","stateName":"Auvergne-Rhône-Alpes","countryId":75,"countryCode":"FR","countryName":"France","latitude":"45.19275000","longitude":"5.68821000","wikiDataId":"Q458715"},{"id":41889,"name":"Fontaines-Saint-Martin","stateId":4798,"stateCode":"ARA","stateName":"Auvergne-Rhône-Alpes","countryId":75,"countryCode":"FR","countryName":"France","latitude":"45.84420000","longitude":"4.85305000","wikiDataId":"Q1364086"},{"id":41890,"name":"Fontaines-sur-Saône","stateId":4798,"stateCode":"ARA","stateName":"Auvergne-Rhône-Alpes","countryId":75,"countryCode":"FR","countryName":"France","latitude":"45.83572000","longitude":"4.84490000","wikiDataId":"Q1364086"},{"id":41891,"name":"Fontanil-Cornillon","stateId":4798,"stateCode":"ARA","stateName":"Auvergne-Rhône-Alpes","countryId":75,"countryCode":"FR","countryName":"France","latitude":"45.25280000","longitude":"5.66308000","wikiDataId":"Q1364086"},{"id":41892,"name":"Fontannes","stateId":4798,"stateCode":"ARA","stateName":"Auvergne-Rhône-Alpes","countryId":75,"countryCode":"FR","countryName":"France","latitude":"45.30149000","longitude":"3.76366000","wikiDataId":"Q1364086"},{"id":41944,"name":"Fraisses","stateId":4798,"stateCode":"ARA","stateName":"Auvergne-Rhône-Alpes","countryId":75,"countryCode":"FR","countryName":"France","latitude":"45.38838000","longitude":"4.26373000","wikiDataId":"Q1066090"},{"id":41946,"name":"Francheleins","stateId":4798,"stateCode":"ARA","stateName":"Auvergne-Rhône-Alpes","countryId":75,"countryCode":"FR","countryName":"France","latitude":"46.07440000","longitude":"4.80920000","wikiDataId":"Q957731"},{"id":41947,"name":"Francheville","stateId":4798,"stateCode":"ARA","stateName":"Auvergne-Rhône-Alpes","countryId":75,"countryCode":"FR","countryName":"France","latitude":"45.73637000","longitude":"4.76358000","wikiDataId":"Q957731"},{"id":41950,"name":"Frangy","stateId":4798,"stateCode":"ARA","stateName":"Auvergne-Rhône-Alpes","countryId":75,"countryCode":"FR","countryName":"France","latitude":"46.02000000","longitude":"5.93220000","wikiDataId":"Q762897"},{"id":41952,"name":"Frans","stateId":4798,"stateCode":"ARA","stateName":"Auvergne-Rhône-Alpes","countryId":75,"countryCode":"FR","countryName":"France","latitude":"45.99291000","longitude":"4.77820000","wikiDataId":"Q841585"},{"id":41967,"name":"Froges","stateId":4798,"stateCode":"ARA","stateName":"Auvergne-Rhône-Alpes","countryId":75,"countryCode":"FR","countryName":"France","latitude":"45.27377000","longitude":"5.92098000","wikiDataId":"Q920853"},{"id":41974,"name":"Frontenex","stateId":4798,"stateCode":"ARA","stateName":"Auvergne-Rhône-Alpes","countryId":75,"countryCode":"FR","countryName":"France","latitude":"45.63335000","longitude":"6.31168000","wikiDataId":"Q1149082"},{"id":41977,"name":"Frontonas","stateId":4798,"stateCode":"ARA","stateName":"Auvergne-Rhône-Alpes","countryId":75,"countryCode":"FR","countryName":"France","latitude":"45.64487000","longitude":"5.19701000","wikiDataId":"Q216280"},{"id":42016,"name":"Gaillard","stateId":4798,"stateCode":"ARA","stateName":"Auvergne-Rhône-Alpes","countryId":75,"countryCode":"FR","countryName":"France","latitude":"46.18530000","longitude":"6.20693000","wikiDataId":"Q343613"},{"id":42030,"name":"Gannat","stateId":4798,"stateCode":"ARA","stateName":"Auvergne-Rhône-Alpes","countryId":75,"countryCode":"FR","countryName":"France","latitude":"46.09987000","longitude":"3.19842000","wikiDataId":"Q272347"},{"id":42059,"name":"Gelles","stateId":4798,"stateCode":"ARA","stateName":"Auvergne-Rhône-Alpes","countryId":75,"countryCode":"FR","countryName":"France","latitude":"45.76947000","longitude":"2.76309000","wikiDataId":"Q22643"},{"id":42061,"name":"Genas","stateId":4798,"stateCode":"ARA","stateName":"Auvergne-Rhône-Alpes","countryId":75,"countryCode":"FR","countryName":"France","latitude":"45.73131000","longitude":"5.00211000","wikiDataId":"Q767263"},{"id":42062,"name":"Genay","stateId":4798,"stateCode":"ARA","stateName":"Auvergne-Rhône-Alpes","countryId":75,"countryCode":"FR","countryName":"France","latitude":"45.89681000","longitude":"4.84091000","wikiDataId":"Q767263"},{"id":42297,"name":"Génissieux","stateId":4798,"stateCode":"ARA","stateName":"Auvergne-Rhône-Alpes","countryId":75,"countryCode":"FR","countryName":"France","latitude":"45.08413000","longitude":"5.08133000","wikiDataId":"Q1152941"},{"id":42077,"name":"Gerzat","stateId":4798,"stateCode":"ARA","stateName":"Auvergne-Rhône-Alpes","countryId":75,"countryCode":"FR","countryName":"France","latitude":"45.82581000","longitude":"3.14473000","wikiDataId":"Q1059614"},{"id":42083,"name":"Gex","stateId":4798,"stateCode":"ARA","stateName":"Auvergne-Rhône-Alpes","countryId":75,"countryCode":"FR","countryName":"France","latitude":"46.33323000","longitude":"6.05766000","wikiDataId":"Q52871"},{"id":42111,"name":"Gières","stateId":4798,"stateCode":"ARA","stateName":"Auvergne-Rhône-Alpes","countryId":75,"countryCode":"FR","countryName":"France","latitude":"45.17997000","longitude":"5.78935000","wikiDataId":"Q1104285"},{"id":42095,"name":"Gillonnay","stateId":4798,"stateCode":"ARA","stateName":"Auvergne-Rhône-Alpes","countryId":75,"countryCode":"FR","countryName":"France","latitude":"45.39251000","longitude":"5.29413000","wikiDataId":"Q208851"},{"id":42096,"name":"Gilly-sur-Isère","stateId":4798,"stateCode":"ARA","stateName":"Auvergne-Rhône-Alpes","countryId":75,"countryCode":"FR","countryName":"France","latitude":"45.65917000","longitude":"6.35096000","wikiDataId":"Q208851"},{"id":42108,"name":"Givors","stateId":4798,"stateCode":"ARA","stateName":"Auvergne-Rhône-Alpes","countryId":75,"countryCode":"FR","countryName":"France","latitude":"45.59063000","longitude":"4.76878000","wikiDataId":"Q1976"},{"id":42113,"name":"Gleizé","stateId":4798,"stateCode":"ARA","stateName":"Auvergne-Rhône-Alpes","countryId":75,"countryCode":"FR","countryName":"France","latitude":"45.98916000","longitude":"4.69708000","wikiDataId":"Q1172598"},{"id":42123,"name":"Goncelin","stateId":4798,"stateCode":"ARA","stateName":"Auvergne-Rhône-Alpes","countryId":75,"countryCode":"FR","countryName":"France","latitude":"45.34428000","longitude":"5.97896000","wikiDataId":"Q671869"},{"id":42179,"name":"Grandris","stateId":4798,"stateCode":"ARA","stateName":"Auvergne-Rhône-Alpes","countryId":75,"countryCode":"FR","countryName":"France","latitude":"46.03780000","longitude":"4.47526000","wikiDataId":"Q769160"},{"id":42182,"name":"Grane","stateId":4798,"stateCode":"ARA","stateName":"Auvergne-Rhône-Alpes","countryId":75,"countryCode":"FR","countryName":"France","latitude":"44.73255000","longitude":"4.92203000","wikiDataId":"Q769160"},{"id":42197,"name":"Grenay","stateId":4798,"stateCode":"ARA","stateName":"Auvergne-Rhône-Alpes","countryId":75,"countryCode":"FR","countryName":"France","latitude":"45.66347000","longitude":"5.08031000","wikiDataId":"Q671069"},{"id":42200,"name":"Grenoble","stateId":4798,"stateCode":"ARA","stateName":"Auvergne-Rhône-Alpes","countryId":75,"countryCode":"FR","countryName":"France","latitude":"45.17869000","longitude":"5.71479000","wikiDataId":"Q1289"},{"id":42235,"name":"Grésy-sur-Aix","stateId":4798,"stateCode":"ARA","stateName":"Auvergne-Rhône-Alpes","countryId":75,"countryCode":"FR","countryName":"France","latitude":"45.72311000","longitude":"5.92522000","wikiDataId":"Q455660"},{"id":42236,"name":"Grésy-sur-Isère","stateId":4798,"stateCode":"ARA","stateName":"Auvergne-Rhône-Alpes","countryId":75,"countryCode":"FR","countryName":"France","latitude":"45.59898000","longitude":"6.25358000","wikiDataId":"Q455660"},{"id":42237,"name":"Grézieu-la-Varenne","stateId":4798,"stateCode":"ARA","stateName":"Auvergne-Rhône-Alpes","countryId":75,"countryCode":"FR","countryName":"France","latitude":"45.74736000","longitude":"4.69037000","wikiDataId":"Q581290"},{"id":42217,"name":"Grièges","stateId":4798,"stateCode":"ARA","stateName":"Auvergne-Rhône-Alpes","countryId":75,"countryCode":"FR","countryName":"France","latitude":"46.25619000","longitude":"4.84856000","wikiDataId":"Q384722"},{"id":42208,"name":"Grignan","stateId":4798,"stateCode":"ARA","stateName":"Auvergne-Rhône-Alpes","countryId":75,"countryCode":"FR","countryName":"France","latitude":"44.41967000","longitude":"4.90785000","wikiDataId":"Q384722"},{"id":42210,"name":"Grignon","stateId":4798,"stateCode":"ARA","stateName":"Auvergne-Rhône-Alpes","countryId":75,"countryCode":"FR","countryName":"France","latitude":"45.65122000","longitude":"6.37795000","wikiDataId":"Q384722"},{"id":42211,"name":"Grigny","stateId":4798,"stateCode":"ARA","stateName":"Auvergne-Rhône-Alpes","countryId":75,"countryCode":"FR","countryName":"France","latitude":"45.60843000","longitude":"4.78976000","wikiDataId":"Q384722"},{"id":42219,"name":"Groissiat","stateId":4798,"stateCode":"ARA","stateName":"Auvergne-Rhône-Alpes","countryId":75,"countryCode":"FR","countryName":"France","latitude":"46.22213000","longitude":"5.60775000","wikiDataId":"Q384722"},{"id":42220,"name":"Groisy","stateId":4798,"stateCode":"ARA","stateName":"Auvergne-Rhône-Alpes","countryId":75,"countryCode":"FR","countryName":"France","latitude":"46.01008000","longitude":"6.16983000","wikiDataId":"Q775014"},{"id":42229,"name":"Gruffy","stateId":4798,"stateCode":"ARA","stateName":"Auvergne-Rhône-Alpes","countryId":75,"countryCode":"FR","countryName":"France","latitude":"45.78897000","longitude":"6.05648000","wikiDataId":"Q1416516"},{"id":42286,"name":"Guéreins","stateId":4798,"stateCode":"ARA","stateName":"Auvergne-Rhône-Alpes","countryId":75,"countryCode":"FR","countryName":"France","latitude":"46.10346000","longitude":"4.77275000","wikiDataId":"Q501971"},{"id":42259,"name":"Guilherand-Granges","stateId":4798,"stateCode":"ARA","stateName":"Auvergne-Rhône-Alpes","countryId":75,"countryCode":"FR","countryName":"France","latitude":"44.93278000","longitude":"4.87372000","wikiDataId":"Q328795"},{"id":42343,"name":"Haute-Loire","stateId":4798,"stateCode":"ARA","stateName":"Auvergne-Rhône-Alpes","countryId":75,"countryCode":"FR","countryName":"France","latitude":"45.11001000","longitude":"3.83940000","wikiDataId":"Q12572"},{"id":42345,"name":"Haute-Rivoire","stateId":4798,"stateCode":"ARA","stateName":"Auvergne-Rhône-Alpes","countryId":75,"countryCode":"FR","countryName":"France","latitude":"45.71559000","longitude":"4.39633000","wikiDataId":"Q12607"},{"id":42346,"name":"Haute-Savoie","stateId":4798,"stateCode":"ARA","stateName":"Auvergne-Rhône-Alpes","countryId":75,"countryCode":"FR","countryName":"France","latitude":"46.06143000","longitude":"6.45374000","wikiDataId":"Q12751"},{"id":42349,"name":"Hauterive","stateId":4798,"stateCode":"ARA","stateName":"Auvergne-Rhône-Alpes","countryId":75,"countryCode":"FR","countryName":"France","latitude":"46.08834000","longitude":"3.44626000","wikiDataId":"Q1011350"},