[{"id":16209,"name":"Behchokǫ̀","stateId":878,"stateCode":"NT","stateName":"Northwest Territories","countryId":39,"countryCode":"CA","countryName":"Canada","latitude":"62.80250000","longitude":"-116.04639000","wikiDataId":"Q141987"},{"id":16431,"name":"Fort McPherson","stateId":878,"stateCode":"NT","stateName":"Northwest Territories","countryId":39,"countryCode":"CA","countryName":"Canada","latitude":"67.43863000","longitude":"-134.88543000","wikiDataId":"Q1014119"},{"id":16434,"name":"Fort Smith","stateId":878,"stateCode":"NT","stateName":"Northwest Territories","countryId":39,"countryCode":"CA","countryName":"Canada","latitude":"60.00439000","longitude":"-111.88871000","wikiDataId":"Q686415"},{"id":16498,"name":"Hay River","stateId":878,"stateCode":"NT","stateName":"Northwest Territories","countryId":39,"countryCode":"CA","countryName":"Canada","latitude":"60.81555000","longitude":"-115.79993000","wikiDataId":"Q1013062"},{"id":16522,"name":"Inuvik","stateId":878,"stateCode":"NT","stateName":"Northwest Territories","countryId":39,"countryCode":"CA","countryName":"Canada","latitude":"68.34986000","longitude":"-133.72181000","wikiDataId":"Q338686"},{"id":16753,"name":"Norman Wells","stateId":878,"stateCode":"NT","stateName":"Northwest Territories","countryId":39,"countryCode":"CA","countryName":"Canada","latitude":"65.28201000","longitude":"-126.83290000","wikiDataId":"Q3343828"},{"id":17221,"name":"Yellowknife","stateId":878,"stateCode":"NT","stateName":"Northwest Territories","countryId":39,"countryCode":"CA","countryName":"Canada","latitude":"62.45411000","longitude":"-114.37248000","wikiDataId":"Q2061"}]