[{"id":63213,"name":"Abiko","stateId":821,"stateCode":"12","stateName":"Chiba Prefecture","countryId":109,"countryCode":"JP","countryName":"Japan","latitude":"35.86667000","longitude":"140.01667000","wikiDataId":"Q305640"},{"id":63214,"name":"Abiko-shi","stateId":821,"stateCode":"12","stateName":"Chiba Prefecture","countryId":109,"countryCode":"JP","countryName":"Japan","latitude":"35.86947000","longitude":"140.06510000","wikiDataId":"Q243859"},{"id":63258,"name":"Asahi-shi","stateId":821,"stateCode":"12","stateName":"Chiba Prefecture","countryId":109,"countryCode":"JP","countryName":"Japan","latitude":"35.73443000","longitude":"140.65549000","wikiDataId":"Q637868"},{"id":63293,"name":"Chiba","stateId":821,"stateCode":"12","stateName":"Chiba Prefecture","countryId":109,"countryCode":"JP","countryName":"Japan","latitude":"35.60000000","longitude":"140.11667000","wikiDataId":"Q170616"},{"id":63314,"name":"Chōshi-shi","stateId":821,"stateCode":"12","stateName":"Chiba Prefecture","countryId":109,"countryCode":"JP","countryName":"Japan","latitude":"35.74303000","longitude":"140.77552000","wikiDataId":"Q694317"},{"id":63375,"name":"Funabashi-shi","stateId":821,"stateCode":"12","stateName":"Chiba Prefecture","countryId":109,"countryCode":"JP","countryName":"Japan","latitude":"35.69455000","longitude":"139.98255000","wikiDataId":"Q661038"},{"id":63381,"name":"Futtsu","stateId":821,"stateCode":"12","stateName":"Chiba Prefecture","countryId":109,"countryCode":"JP","countryName":"Japan","latitude":"35.31080000","longitude":"139.81877000","wikiDataId":"Q498023"},{"id":63441,"name":"Hasaki","stateId":821,"stateCode":"12","stateName":"Chiba Prefecture","countryId":109,"countryCode":"JP","countryName":"Japan","latitude":"35.73333000","longitude":"140.83333000","wikiDataId":"Q847565"},{"id":63520,"name":"Honchō","stateId":821,"stateCode":"12","stateName":"Chiba Prefecture","countryId":109,"countryCode":"JP","countryName":"Japan","latitude":"35.70129000","longitude":"139.98648000","wikiDataId":"Q271417"},{"id":63537,"name":"Ichihara","stateId":821,"stateCode":"12","stateName":"Chiba Prefecture","countryId":109,"countryCode":"JP","countryName":"Japan","latitude":"35.51667000","longitude":"140.08333000","wikiDataId":"Q19712"},{"id":63538,"name":"Ichihara Shi","stateId":821,"stateCode":"12","stateName":"Chiba Prefecture","countryId":109,"countryCode":"JP","countryName":"Japan","latitude":"35.42484000","longitude":"140.13725000","wikiDataId":"Q207881"},{"id":63539,"name":"Ichikawa Shi","stateId":821,"stateCode":"12","stateName":"Chiba Prefecture","countryId":109,"countryCode":"JP","countryName":"Japan","latitude":"35.71865000","longitude":"139.93294000","wikiDataId":"Q209785"},{"id":63578,"name":"Inzai-shi","stateId":821,"stateCode":"12","stateName":"Chiba Prefecture","countryId":109,"countryCode":"JP","countryName":"Japan","latitude":"35.81207000","longitude":"140.14098000","wikiDataId":"Q637901"},{"id":63603,"name":"Isumi","stateId":821,"stateCode":"12","stateName":"Chiba Prefecture","countryId":109,"countryCode":"JP","countryName":"Japan","latitude":"35.23005000","longitude":"140.40492000","wikiDataId":"Q840834"},{"id":63604,"name":"Isumi Shi","stateId":821,"stateCode":"12","stateName":"Chiba Prefecture","countryId":109,"countryCode":"JP","countryName":"Japan","latitude":"35.27777000","longitude":"140.34335000","wikiDataId":"Q840834"},{"id":63677,"name":"Kamagaya Shi","stateId":821,"stateCode":"12","stateName":"Chiba Prefecture","countryId":109,"countryCode":"JP","countryName":"Japan","latitude":"35.77289000","longitude":"139.99883000","wikiDataId":"Q387365"},{"id":63702,"name":"Kamogawa","stateId":821,"stateCode":"12","stateName":"Chiba Prefecture","countryId":109,"countryCode":"JP","countryName":"Japan","latitude":"35.09690000","longitude":"140.10030000","wikiDataId":"Q857293"},{"id":63703,"name":"Kamogawa-shi","stateId":821,"stateCode":"12","stateName":"Chiba Prefecture","countryId":109,"countryCode":"JP","countryName":"Japan","latitude":"35.10000000","longitude":"140.10000000","wikiDataId":"Q387211"},{"id":63739,"name":"Kashiwa","stateId":821,"stateCode":"12","stateName":"Chiba Prefecture","countryId":109,"countryCode":"JP","countryName":"Japan","latitude":"35.86224000","longitude":"139.97732000","wikiDataId":"Q319743"},{"id":63740,"name":"Kashiwa Shi","stateId":821,"stateCode":"12","stateName":"Chiba Prefecture","countryId":109,"countryCode":"JP","countryName":"Japan","latitude":"35.86017000","longitude":"139.99386000","wikiDataId":"Q319743"},{"id":63754,"name":"Katori-shi","stateId":821,"stateCode":"12","stateName":"Chiba Prefecture","countryId":109,"countryCode":"JP","countryName":"Japan","latitude":"35.88333000","longitude":"140.51667000","wikiDataId":"Q858357"},{"id":63760,"name":"Katsuura","stateId":821,"stateCode":"12","stateName":"Chiba Prefecture","countryId":109,"countryCode":"JP","countryName":"Japan","latitude":"35.14621000","longitude":"140.31507000","wikiDataId":"Q696418"},{"id":63762,"name":"Katsuura-shi","stateId":821,"stateCode":"12","stateName":"Chiba Prefecture","countryId":109,"countryCode":"JP","countryName":"Japan","latitude":"35.17535000","longitude":"140.26760000","wikiDataId":"Q974969"},{"id":63787,"name":"Kimitsu","stateId":821,"stateCode":"12","stateName":"Chiba Prefecture","countryId":109,"countryCode":"JP","countryName":"Japan","latitude":"35.35043000","longitude":"139.87029000","wikiDataId":"Q637928"},{"id":63793,"name":"Kisarazu","stateId":821,"stateCode":"12","stateName":"Chiba Prefecture","countryId":109,"countryCode":"JP","countryName":"Japan","latitude":"35.38329000","longitude":"139.93254000","wikiDataId":"Q335427"},{"id":63794,"name":"Kisarazu Shi","stateId":821,"stateCode":"12","stateName":"Chiba Prefecture","countryId":109,"countryCode":"JP","countryName":"Japan","latitude":"35.36981000","longitude":"139.98749000","wikiDataId":"Q335427"},{"id":63932,"name":"Matsudo Shi","stateId":821,"stateCode":"12","stateName":"Chiba Prefecture","countryId":109,"countryCode":"JP","countryName":"Japan","latitude":"35.79574000","longitude":"139.92908000","wikiDataId":"Q320943"},{"id":63966,"name":"Minamibōsō Shi","stateId":821,"stateCode":"12","stateName":"Chiba Prefecture","countryId":109,"countryCode":"JP","countryName":"Japan","latitude":"35.03657000","longitude":"139.92847000","wikiDataId":"Q873521"},{"id":64022,"name":"Mobara","stateId":821,"stateCode":"12","stateName":"Chiba Prefecture","countryId":109,"countryCode":"JP","countryName":"Japan","latitude":"35.42583000","longitude":"140.29608000","wikiDataId":"Q502486"},{"id":64023,"name":"Mobara Shi","stateId":821,"stateCode":"12","stateName":"Chiba Prefecture","countryId":109,"countryCode":"JP","countryName":"Japan","latitude":"35.44981000","longitude":"140.30163000","wikiDataId":"Q502486"},{"id":64069,"name":"Nagareyama","stateId":821,"stateCode":"12","stateName":"Chiba Prefecture","countryId":109,"countryCode":"JP","countryName":"Japan","latitude":"35.85630000","longitude":"139.90266000","wikiDataId":"Q861246"},{"id":64070,"name":"Nagareyama-shi","stateId":821,"stateCode":"12","stateName":"Chiba Prefecture","countryId":109,"countryCode":"JP","countryName":"Japan","latitude":"35.85631000","longitude":"139.90266000","wikiDataId":"Q328625"},{"id":64107,"name":"Narashino-shi","stateId":821,"stateCode":"12","stateName":"Chiba Prefecture","countryId":109,"countryCode":"JP","countryName":"Japan","latitude":"35.68091000","longitude":"140.03418000","wikiDataId":"Q318047"},{"id":64108,"name":"Narita","stateId":821,"stateCode":"12","stateName":"Chiba Prefecture","countryId":109,"countryCode":"JP","countryName":"Japan","latitude":"35.78333000","longitude":"140.31667000","wikiDataId":"Q273798"},{"id":64109,"name":"Narita-shi","stateId":821,"stateCode":"12","stateName":"Chiba Prefecture","countryId":109,"countryCode":"JP","countryName":"Japan","latitude":"35.81547000","longitude":"140.35757000","wikiDataId":"Q273798"},{"id":64112,"name":"Narutō","stateId":821,"stateCode":"12","stateName":"Chiba Prefecture","countryId":109,"countryCode":"JP","countryName":"Japan","latitude":"35.60000000","longitude":"140.41667000","wikiDataId":"Q460812"},{"id":64163,"name":"Noda","stateId":821,"stateCode":"12","stateName":"Chiba Prefecture","countryId":109,"countryCode":"JP","countryName":"Japan","latitude":"35.94897000","longitude":"139.86793000","wikiDataId":"Q428989"},{"id":64164,"name":"Noda-shi","stateId":821,"stateCode":"12","stateName":"Chiba Prefecture","countryId":109,"countryCode":"JP","countryName":"Japan","latitude":"35.98516000","longitude":"139.86215000","wikiDataId":"Q328619"},{"id":64712,"name":"Ōami","stateId":821,"stateCode":"12","stateName":"Chiba Prefecture","countryId":109,"countryCode":"JP","countryName":"Japan","latitude":"35.51667000","longitude":"140.31667000","wikiDataId":"Q230843"},{"id":64713,"name":"Ōamishirasato-shi","stateId":821,"stateCode":"12","stateName":"Chiba Prefecture","countryId":109,"countryCode":"JP","countryName":"Japan","latitude":"35.51279000","longitude":"140.34295000","wikiDataId":"Q1203251"},{"id":64724,"name":"Ōhara","stateId":821,"stateCode":"12","stateName":"Chiba Prefecture","countryId":109,"countryCode":"JP","countryName":"Japan","latitude":"35.24761000","longitude":"140.39289000","wikiDataId":"Q8081483"},{"id":64204,"name":"Omigawa","stateId":821,"stateCode":"12","stateName":"Chiba Prefecture","countryId":109,"countryCode":"JP","countryName":"Japan","latitude":"35.85000000","longitude":"140.61667000","wikiDataId":"Q5120061"},{"id":64268,"name":"Sakura","stateId":821,"stateCode":"12","stateName":"Chiba Prefecture","countryId":109,"countryCode":"JP","countryName":"Japan","latitude":"35.71667000","longitude":"140.23333000","wikiDataId":"Q498011"},{"id":64269,"name":"Sakura-shi","stateId":821,"stateCode":"12","stateName":"Chiba Prefecture","countryId":109,"countryCode":"JP","countryName":"Japan","latitude":"35.70619000","longitude":"140.21326000","wikiDataId":"Q498011"},{"id":64275,"name":"Sambu-gun","stateId":821,"stateCode":"12","stateName":"Chiba Prefecture","countryId":109,"countryCode":"JP","countryName":"Japan","latitude":"35.68843000","longitude":"140.45346000","wikiDataId":"Q1153740"},{"id":64279,"name":"Sanmu","stateId":821,"stateCode":"12","stateName":"Chiba Prefecture","countryId":109,"countryCode":"JP","countryName":"Japan","latitude":"35.62756000","longitude":"140.41762000","wikiDataId":"Q873528"},{"id":64280,"name":"Sanmu-shi","stateId":821,"stateCode":"12","stateName":"Chiba Prefecture","countryId":109,"countryCode":"JP","countryName":"Japan","latitude":"35.62397000","longitude":"140.42079000","wikiDataId":"Q873528"},{"id":64295,"name":"Sawara","stateId":821,"stateCode":"12","stateName":"Chiba Prefecture","countryId":109,"countryCode":"JP","countryName":"Japan","latitude":"35.88333000","longitude":"140.50000000","wikiDataId":"Q1203453"},{"id":64357,"name":"Shiroi","stateId":821,"stateCode":"12","stateName":"Chiba Prefecture","countryId":109,"countryCode":"JP","countryName":"Japan","latitude":"35.80000000","longitude":"140.06667000","wikiDataId":"Q1345322"},{"id":64358,"name":"Shiroi-shi","stateId":821,"stateCode":"12","stateName":"Chiba Prefecture","countryId":109,"countryCode":"JP","countryName":"Japan","latitude":"35.80164000","longitude":"140.06005000","wikiDataId":"Q519187"},{"id":64362,"name":"Shisui","stateId":821,"stateCode":"12","stateName":"Chiba Prefecture","countryId":109,"countryCode":"JP","countryName":"Japan","latitude":"35.71667000","longitude":"140.26667000","wikiDataId":"Q823489"},{"id":64373,"name":"Sodegaura-shi","stateId":821,"stateCode":"12","stateName":"Chiba Prefecture","countryId":109,"countryCode":"JP","countryName":"Japan","latitude":"35.41642000","longitude":"140.01771000","wikiDataId":"Q646847"},{"id":64404,"name":"Sōsa-shi","stateId":821,"stateCode":"12","stateName":"Chiba Prefecture","countryId":109,"countryCode":"JP","countryName":"Japan","latitude":"35.69983000","longitude":"140.55366000","wikiDataId":"Q858367"},{"id":64474,"name":"Tateyama","stateId":821,"stateCode":"12","stateName":"Chiba Prefecture","countryId":109,"countryCode":"JP","countryName":"Japan","latitude":"34.98333000","longitude":"139.86667000","wikiDataId":"Q646755"},{"id":64475,"name":"Tateyama-shi","stateId":821,"stateCode":"12","stateName":"Chiba Prefecture","countryId":109,"countryCode":"JP","countryName":"Japan","latitude":"34.97156000","longitude":"139.86163000","wikiDataId":"Q646755"},{"id":64566,"name":"Tōgane","stateId":821,"stateCode":"12","stateName":"Chiba Prefecture","countryId":109,"countryCode":"JP","countryName":"Japan","latitude":"35.55000000","longitude":"140.36667000","wikiDataId":"Q637913"},{"id":64567,"name":"Tōgane-shi","stateId":821,"stateCode":"12","stateName":"Chiba Prefecture","countryId":109,"countryCode":"JP","countryName":"Japan","latitude":"35.56517000","longitude":"140.36707000","wikiDataId":"Q637913"},{"id":64508,"name":"Tomisato-shi","stateId":821,"stateCode":"12","stateName":"Chiba Prefecture","countryId":109,"countryCode":"JP","countryName":"Japan","latitude":"35.72024000","longitude":"140.34080000","wikiDataId":"Q692857"},{"id":64598,"name":"Urayasu-shi","stateId":821,"stateCode":"12","stateName":"Chiba Prefecture","countryId":109,"countryCode":"JP","countryName":"Japan","latitude":"35.64250000","longitude":"139.90192000","wikiDataId":"Q319729"},{"id":64629,"name":"Yachimata","stateId":821,"stateCode":"12","stateName":"Chiba Prefecture","countryId":109,"countryCode":"JP","countryName":"Japan","latitude":"35.65000000","longitude":"140.31667000","wikiDataId":"Q638296"},{"id":64630,"name":"Yachimata-shi","stateId":821,"stateCode":"12","stateName":"Chiba Prefecture","countryId":109,"countryCode":"JP","countryName":"Japan","latitude":"35.64241000","longitude":"140.29686000","wikiDataId":"Q638296"},{"id":64631,"name":"Yachiyo-shi","stateId":821,"stateCode":"12","stateName":"Chiba Prefecture","countryId":109,"countryCode":"JP","countryName":"Japan","latitude":"35.73921000","longitude":"140.10502000","wikiDataId":"Q328651"},{"id":64703,"name":"Yōkaichiba","stateId":821,"stateCode":"12","stateName":"Chiba Prefecture","countryId":109,"countryCode":"JP","countryName":"Japan","latitude":"35.70000000","longitude":"140.55000000","wikiDataId":"Q2611155"},{"id":64690,"name":"Yotsukaidō","stateId":821,"stateCode":"12","stateName":"Chiba Prefecture","countryId":109,"countryCode":"JP","countryName":"Japan","latitude":"35.65000000","longitude":"140.16667000","wikiDataId":"Q429373"},{"id":64691,"name":"Yotsukaidō-shi","stateId":821,"stateCode":"12","stateName":"Chiba Prefecture","countryId":109,"countryCode":"JP","countryName":"Japan","latitude":"35.67167000","longitude":"140.17912000","wikiDataId":"Q429373"}]