[{"id":1911,"name":"Altai Krai","countryId":182,"countryCode":"RU","countryName":"Russia","stateCode":"ALT","type":null,"latitude":"51.79362980","longitude":"82.67585960"},{"id":1876,"name":"Altai Republic","countryId":182,"countryCode":"RU","countryName":"Russia","stateCode":"AL","type":null,"latitude":"50.61819240","longitude":"86.21993080"},{"id":1858,"name":"Amur Oblast","countryId":182,"countryCode":"RU","countryName":"Russia","stateCode":"AMU","type":null,"latitude":"54.60350650","longitude":"127.48017210"},{"id":1849,"name":"Arkhangelsk","countryId":182,"countryCode":"RU","countryName":"Russia","stateCode":"ARK","type":null,"latitude":"64.54585490","longitude":"40.55057690"},{"id":1866,"name":"Astrakhan Oblast","countryId":182,"countryCode":"RU","countryName":"Russia","stateCode":"AST","type":null,"latitude":"46.13211660","longitude":"48.06101150"},{"id":1903,"name":"Belgorod Oblast","countryId":182,"countryCode":"RU","countryName":"Russia","stateCode":"BEL","type":null,"latitude":"50.71069260","longitude":"37.75333770"},{"id":1867,"name":"Bryansk Oblast","countryId":182,"countryCode":"RU","countryName":"Russia","stateCode":"BRY","type":null,"latitude":"53.04085990","longitude":"33.26909000"},{"id":1893,"name":"Chechen Republic","countryId":182,"countryCode":"RU","countryName":"Russia","stateCode":"CE","type":null,"latitude":"43.40233010","longitude":"45.71874680"},{"id":1845,"name":"Chelyabinsk Oblast","countryId":182,"countryCode":"RU","countryName":"Russia","stateCode":"CHE","type":null,"latitude":"54.43194220","longitude":"60.87889630"},{"id":1859,"name":"Chukotka Autonomous Okrug","countryId":182,"countryCode":"RU","countryName":"Russia","stateCode":"CHU","type":null,"latitude":"65.62983550","longitude":"171.69521590"},{"id":1914,"name":"Chuvash Republic","countryId":182,"countryCode":"RU","countryName":"Russia","stateCode":"CU","type":null,"latitude":"55.55959920","longitude":"46.92835350"},{"id":1880,"name":"Irkutsk","countryId":182,"countryCode":"RU","countryName":"Russia","stateCode":"IRK","type":null,"latitude":"52.28548340","longitude":"104.28902220"},{"id":1864,"name":"Ivanovo Oblast","countryId":182,"countryCode":"RU","countryName":"Russia","stateCode":"IVA","type":null,"latitude":"57.10568540","longitude":"41.48300840"},{"id":1835,"name":"Jewish Autonomous Oblast","countryId":182,"countryCode":"RU","countryName":"Russia","stateCode":"YEV","type":null,"latitude":"48.48081470","longitude":"131.76573670"},{"id":1892,"name":"Kabardino-Balkar Republic","countryId":182,"countryCode":"RU","countryName":"Russia","stateCode":"KB","type":null,"latitude":"43.39324690","longitude":"43.56284980"},{"id":1902,"name":"Kaliningrad","countryId":182,"countryCode":"RU","countryName":"Russia","stateCode":"KGD","type":null,"latitude":"54.71042640","longitude":"20.45221440"},{"id":1844,"name":"Kaluga Oblast","countryId":182,"countryCode":"RU","countryName":"Russia","stateCode":"KLU","type":null,"latitude":"54.38726660","longitude":"35.18890940"},{"id":1865,"name":"Kamchatka Krai","countryId":182,"countryCode":"RU","countryName":"Russia","stateCode":"KAM","type":null,"latitude":"61.43439810","longitude":"166.78841310"},{"id":1869,"name":"Karachay-Cherkess Republic","countryId":182,"countryCode":"RU","countryName":"Russia","stateCode":"KC","type":null,"latitude":"43.88451430","longitude":"41.73039390"},{"id":1897,"name":"Kemerovo Oblast","countryId":182,"countryCode":"RU","countryName":"Russia","stateCode":"KEM","type":null,"latitude":"54.75746480","longitude":"87.40552880"},{"id":1873,"name":"Khabarovsk Krai","countryId":182,"countryCode":"RU","countryName":"Russia","stateCode":"KHA","type":null,"latitude":"50.58884310","longitude":"135.00000000"},{"id":1838,"name":"Khanty-Mansi Autonomous Okrug","countryId":182,"countryCode":"RU","countryName":"Russia","stateCode":"KHM","type":null,"latitude":"62.22870620","longitude":"70.64100570"},{"id":1890,"name":"Kirov Oblast","countryId":182,"countryCode":"RU","countryName":"Russia","stateCode":"KIR","type":null,"latitude":"58.41985290","longitude":"50.20972480"},{"id":1899,"name":"Komi Republic","countryId":182,"countryCode":"RU","countryName":"Russia","stateCode":"KO","type":null,"latitude":"63.86305390","longitude":"54.83126900"},{"id":1910,"name":"Kostroma Oblast","countryId":182,"countryCode":"RU","countryName":"Russia","stateCode":"KOS","type":null,"latitude":"58.55010690","longitude":"43.95411020"},{"id":1891,"name":"Krasnodar Krai","countryId":182,"countryCode":"RU","countryName":"Russia","stateCode":"KDA","type":null,"latitude":"45.64152890","longitude":"39.70559770"},{"id":1840,"name":"Krasnoyarsk Krai","countryId":182,"countryCode":"RU","countryName":"Russia","stateCode":"KYA","type":null,"latitude":"64.24797580","longitude":"95.11041760"},{"id":1915,"name":"Kurgan Oblast","countryId":182,"countryCode":"RU","countryName":"Russia","stateCode":"KGN","type":null,"latitude":"55.44815480","longitude":"65.11809750"},{"id":1855,"name":"Kursk Oblast","countryId":182,"countryCode":"RU","countryName":"Russia","stateCode":"KRS","type":null,"latitude":"51.76340260","longitude":"35.38118120"},{"id":1896,"name":"Leningrad Oblast","countryId":182,"countryCode":"RU","countryName":"Russia","stateCode":"LEN","type":null,"latitude":"60.07932080","longitude":"31.89266450"},{"id":1889,"name":"Lipetsk Oblast","countryId":182,"countryCode":"RU","countryName":"Russia","stateCode":"LIP","type":null,"latitude":"52.52647020","longitude":"39.20322690"},{"id":1839,"name":"Magadan Oblast","countryId":182,"countryCode":"RU","countryName":"Russia","stateCode":"MAG","type":null,"latitude":"62.66434170","longitude":"153.91499100"},{"id":1870,"name":"Mari El Republic","countryId":182,"countryCode":"RU","countryName":"Russia","stateCode":"ME","type":null,"latitude":"56.43845700","longitude":"47.96077580"},{"id":1901,"name":"Moscow","countryId":182,"countryCode":"RU","countryName":"Russia","stateCode":"MOW","type":null,"latitude":"55.75582600","longitude":"37.61729990"},{"id":1882,"name":"Moscow Oblast","countryId":182,"countryCode":"RU","countryName":"Russia","stateCode":"MOS","type":null,"latitude":"55.34039600","longitude":"38.29176510"},{"id":1843,"name":"Murmansk Oblast","countryId":182,"countryCode":"RU","countryName":"Russia","stateCode":"MUR","type":null,"latitude":"67.84426740","longitude":"35.08841020"},{"id":1836,"name":"Nenets Autonomous Okrug","countryId":182,"countryCode":"RU","countryName":"Russia","stateCode":"NEN","type":null,"latitude":"67.60783370","longitude":"57.63383310"},{"id":1857,"name":"Nizhny Novgorod Oblast","countryId":182,"countryCode":"RU","countryName":"Russia","stateCode":"NIZ","type":null,"latitude":"55.79951590","longitude":"44.02967690"},{"id":1834,"name":"Novgorod Oblast","countryId":182,"countryCode":"RU","countryName":"Russia","stateCode":"NGR","type":null,"latitude":"58.24275520","longitude":"32.56651900"},{"id":1888,"name":"Novosibirsk","countryId":182,"countryCode":"RU","countryName":"Russia","stateCode":"NVS","type":null,"latitude":"54.98326930","longitude":"82.89638310"},{"id":1846,"name":"Omsk Oblast","countryId":182,"countryCode":"RU","countryName":"Russia","stateCode":"OMS","type":null,"latitude":"55.05546690","longitude":"73.31673420"},{"id":1886,"name":"Orenburg Oblast","countryId":182,"countryCode":"RU","countryName":"Russia","stateCode":"ORE","type":null,"latitude":"51.76340260","longitude":"54.61881880"},{"id":1908,"name":"Oryol Oblast","countryId":182,"countryCode":"RU","countryName":"Russia","stateCode":"ORL","type":null,"latitude":"52.78564140","longitude":"36.92423440"},{"id":1909,"name":"Penza Oblast","countryId":182,"countryCode":"RU","countryName":"Russia","stateCode":"PNZ","type":null,"latitude":"53.14121050","longitude":"44.09400480"},{"id":1871,"name":"Perm Krai","countryId":182,"countryCode":"RU","countryName":"Russia","stateCode":"PER","type":null,"latitude":"58.82319290","longitude":"56.58724810"},{"id":1833,"name":"Primorsky Krai","countryId":182,"countryCode":"RU","countryName":"Russia","stateCode":"PRI","type":null,"latitude":"45.05256410","longitude":"135.00000000"},{"id":1863,"name":"Pskov Oblast","countryId":182,"countryCode":"RU","countryName":"Russia","stateCode":"PSK","type":null,"latitude":"56.77085990","longitude":"29.09400900"},{"id":1852,"name":"Republic of Adygea","countryId":182,"countryCode":"RU","countryName":"Russia","stateCode":"AD","type":null,"latitude":"44.82291550","longitude":"40.17544630"},{"id":1854,"name":"Republic of Bashkortostan","countryId":182,"countryCode":"RU","countryName":"Russia","stateCode":"BA","type":null,"latitude":"54.23121720","longitude":"56.16452570"},{"id":1842,"name":"Republic of Buryatia","countryId":182,"countryCode":"RU","countryName":"Russia","stateCode":"BU","type":null,"latitude":"54.83311460","longitude":"112.40605300"},{"id":1850,"name":"Republic of Dagestan","countryId":182,"countryCode":"RU","countryName":"Russia","stateCode":"DA","type":null,"latitude":"42.14318860","longitude":"47.09497990"},{"id":1884,"name":"Republic of Ingushetia","countryId":182,"countryCode":"RU","countryName":"Russia","stateCode":"IN","type":null,"latitude":"43.40516980","longitude":"44.82029990"},{"id":1883,"name":"Republic of Kalmykia","countryId":182,"countryCode":"RU","countryName":"Russia","stateCode":"KL","type":null,"latitude":"46.18671760","longitude":"45.00000000"},{"id":1841,"name":"Republic of Karelia","countryId":182,"countryCode":"RU","countryName":"Russia","stateCode":"KR","type":null,"latitude":"63.15587020","longitude":"32.99055520"},{"id":1877,"name":"Republic of Khakassia","countryId":182,"countryCode":"RU","countryName":"Russia","stateCode":"KK","type":null,"latitude":"53.04522810","longitude":"90.39821450"},{"id":1898,"name":"Republic of Mordovia","countryId":182,"countryCode":"RU","countryName":"Russia","stateCode":"MO","type":null,"latitude":"54.23694410","longitude":"44.06839700"},{"id":1853,"name":"Republic of North Ossetia-Alania","countryId":182,"countryCode":"RU","countryName":"Russia","stateCode":"SE","type":null,"latitude":"43.04513020","longitude":"44.28709720"},{"id":1861,"name":"Republic of Tatarstan","countryId":182,"countryCode":"RU","countryName":"Russia","stateCode":"TA","type":null,"latitude":"55.18023640","longitude":"50.72639450"},{"id":1837,"name":"Rostov Oblast","countryId":182,"countryCode":"RU","countryName":"Russia","stateCode":"ROS","type":null,"latitude":"47.68532470","longitude":"41.82589520"},{"id":1905,"name":"Ryazan Oblast","countryId":182,"countryCode":"RU","countryName":"Russia","stateCode":"RYA","type":null,"latitude":"54.38759640","longitude":"41.25956610"},{"id":1879,"name":"Saint Petersburg","countryId":182,"countryCode":"RU","countryName":"Russia","stateCode":"SPE","type":null,"latitude":"59.93105840","longitude":"30.36090960"},{"id":1848,"name":"Sakha Republic","countryId":182,"countryCode":"RU","countryName":"Russia","stateCode":"SA","type":null,"latitude":"66.76134510","longitude":"124.12375300"},{"id":1875,"name":"Sakhalin","countryId":182,"countryCode":"RU","countryName":"Russia","stateCode":"SAK","type":null,"latitude":"50.69098480","longitude":"142.95056890"},{"id":1862,"name":"Samara Oblast","countryId":182,"countryCode":"RU","countryName":"Russia","stateCode":"SAM","type":null,"latitude":"53.41838390","longitude":"50.47255280"},{"id":1887,"name":"Saratov Oblast","countryId":182,"countryCode":"RU","countryName":"Russia","stateCode":"SAR","type":null,"latitude":"51.83692630","longitude":"46.75393970"},{"id":1885,"name":"Smolensk Oblast","countryId":182,"countryCode":"RU","countryName":"Russia","stateCode":"SMO","type":null,"latitude":"54.98829940","longitude":"32.66773780"},{"id":1868,"name":"Stavropol Krai","countryId":182,"countryCode":"RU","countryName":"Russia","stateCode":"STA","type":null,"latitude":"44.66809930","longitude":"43.52021400"},{"id":1894,"name":"Sverdlovsk","countryId":182,"countryCode":"RU","countryName":"Russia","stateCode":"SVE","type":null,"latitude":"56.84309930","longitude":"60.64540860"},{"id":1878,"name":"Tambov Oblast","countryId":182,"countryCode":"RU","countryName":"Russia","stateCode":"TAM","type":null,"latitude":"52.64165890","longitude":"41.42164510"},{"id":1872,"name":"Tomsk Oblast","countryId":182,"countryCode":"RU","countryName":"Russia","stateCode":"TOM","type":null,"latitude":"58.89698820","longitude":"82.67655000"},{"id":1895,"name":"Tula Oblast","countryId":182,"countryCode":"RU","countryName":"Russia","stateCode":"TUL","type":null,"latitude":"54.16376800","longitude":"37.56495070"},{"id":1900,"name":"Tuva Republic","countryId":182,"countryCode":"RU","countryName":"Russia","stateCode":"TY","type":null,"latitude":"51.88726690","longitude":"95.62601720"},{"id":1860,"name":"Tver Oblast","countryId":182,"countryCode":"RU","countryName":"Russia","stateCode":"TVE","type":null,"latitude":"57.00216540","longitude":"33.98531420"},{"id":1907,"name":"Tyumen Oblast","countryId":182,"countryCode":"RU","countryName":"Russia","stateCode":"TYU","type":null,"latitude":"56.96343870","longitude":"66.94827800"},{"id":1913,"name":"Udmurt Republic","countryId":182,"countryCode":"RU","countryName":"Russia","stateCode":"UD","type":null,"latitude":"57.06702180","longitude":"53.02779480"},{"id":1856,"name":"Ulyanovsk Oblast","countryId":182,"countryCode":"RU","countryName":"Russia","stateCode":"ULY","type":null,"latitude":"53.97933570","longitude":"47.77624250"},{"id":1881,"name":"Vladimir Oblast","countryId":182,"countryCode":"RU","countryName":"Russia","stateCode":"VLA","type":null,"latitude":"56.15534650","longitude":"40.59266850"},{"id":4916,"name":"Volgograd Oblast","countryId":182,"countryCode":"RU","countryName":"Russia","stateCode":"VGG","type":null,"latitude":"49.25873930","longitude":"39.81544630"},{"id":1874,"name":"Vologda Oblast","countryId":182,"countryCode":"RU","countryName":"Russia","stateCode":"VLG","type":null,"latitude":"59.87067110","longitude":"40.65554110"},{"id":1906,"name":"Voronezh Oblast","countryId":182,"countryCode":"RU","countryName":"Russia","stateCode":"VOR","type":null,"latitude":"50.85897130","longitude":"39.86443740"},{"id":1847,"name":"Yamalo-Nenets Autonomous Okrug","countryId":182,"countryCode":"RU","countryName":"Russia","stateCode":"YAN","type":null,"latitude":"66.06530570","longitude":"76.93451930"},{"id":1851,"name":"Yaroslavl Oblast","countryId":182,"countryCode":"RU","countryName":"Russia","stateCode":"YAR","type":null,"latitude":"57.89915230","longitude":"38.83886330"},{"id":1904,"name":"Zabaykalsky Krai","countryId":182,"countryCode":"RU","countryName":"Russia","stateCode":"ZAB","type":null,"latitude":"53.09287710","longitude":"116.96765610"}]