[{"id":105213,"name":"Amphoe Ban Phraek","stateId":3494,"stateCode":"14","stateName":"Phra Nakhon Si Ayutthaya","countryId":219,"countryCode":"TH","countryName":"Thailand","latitude":"14.64381000","longitude":"100.54883000","wikiDataId":"Q475161"},{"id":105221,"name":"Amphoe Bang Ban","stateId":3494,"stateCode":"14","stateName":"Phra Nakhon Si Ayutthaya","countryId":219,"countryCode":"TH","countryName":"Thailand","latitude":"14.38333000","longitude":"100.46667000","wikiDataId":"Q186421"},{"id":105234,"name":"Amphoe Bang Pa-in","stateId":3494,"stateCode":"14","stateName":"Phra Nakhon Si Ayutthaya","countryId":219,"countryCode":"TH","countryName":"Thailand","latitude":"14.23482000","longitude":"100.59410000","wikiDataId":"Q475224"},{"id":105235,"name":"Amphoe Bang Pahan","stateId":3494,"stateCode":"14","stateName":"Phra Nakhon Si Ayutthaya","countryId":219,"countryCode":"TH","countryName":"Thailand","latitude":"14.47174000","longitude":"100.54731000","wikiDataId":"Q475226"},{"id":105242,"name":"Amphoe Bang Sai","stateId":3494,"stateCode":"14","stateName":"Phra Nakhon Si Ayutthaya","countryId":219,"countryCode":"TH","countryName":"Thailand","latitude":"14.21043000","longitude":"100.49422000","wikiDataId":"Q475250"},{"id":105487,"name":"Amphoe Lat Bua Luang","stateId":3494,"stateCode":"14","stateName":"Phra Nakhon Si Ayutthaya","countryId":219,"countryCode":"TH","countryName":"Thailand","latitude":"14.16810000","longitude":"100.34892000","wikiDataId":"Q475900"},{"id":105521,"name":"Amphoe Maha Rat","stateId":3494,"stateCode":"14","stateName":"Phra Nakhon Si Ayutthaya","countryId":219,"countryCode":"TH","countryName":"Thailand","latitude":"14.57064000","longitude":"100.54089000","wikiDataId":"Q475983"},{"id":105632,"name":"Amphoe Nakhon Luang","stateId":3494,"stateCode":"14","stateName":"Phra Nakhon Si Ayutthaya","countryId":219,"countryCode":"TH","countryName":"Thailand","latitude":"14.46703000","longitude":"100.62572000","wikiDataId":"Q476173"},{"id":105717,"name":"Amphoe Phachi","stateId":3494,"stateCode":"14","stateName":"Phra Nakhon Si Ayutthaya","countryId":219,"countryCode":"TH","countryName":"Thailand","latitude":"14.43795000","longitude":"100.72780000","wikiDataId":"Q476359"},{"id":105719,"name":"Amphoe Phak Hai","stateId":3494,"stateCode":"14","stateName":"Phra Nakhon Si Ayutthaya","countryId":219,"countryCode":"TH","countryName":"Thailand","latitude":"14.45073000","longitude":"100.33949000","wikiDataId":"Q476361"},{"id":105760,"name":"Amphoe Phra Nakhon Si Ayutthaya","stateId":3494,"stateCode":"14","stateName":"Phra Nakhon Si Ayutthaya","countryId":219,"countryCode":"TH","countryName":"Thailand","latitude":"14.35172000","longitude":"100.56719000","wikiDataId":"Q476434"},{"id":106207,"name":"Amphoe Sena","stateId":3494,"stateCode":"14","stateName":"Phra Nakhon Si Ayutthaya","countryId":219,"countryCode":"TH","countryName":"Thailand","latitude":"14.29605000","longitude":"100.37486000","wikiDataId":"Q476680"},{"id":106282,"name":"Amphoe Tha Ruea","stateId":3494,"stateCode":"14","stateName":"Phra Nakhon Si Ayutthaya","countryId":219,"countryCode":"TH","countryName":"Thailand","latitude":"14.53587000","longitude":"100.71268000","wikiDataId":"Q476847"},{"id":106327,"name":"Amphoe Uthai","stateId":3494,"stateCode":"14","stateName":"Phra Nakhon Si Ayutthaya","countryId":219,"countryCode":"TH","countryName":"Thailand","latitude":"14.35321000","longitude":"100.69643000","wikiDataId":"Q476975"},{"id":106341,"name":"Amphoe Wang Noi","stateId":3494,"stateCode":"14","stateName":"Phra Nakhon Si Ayutthaya","countryId":219,"countryCode":"TH","countryName":"Thailand","latitude":"14.24348000","longitude":"100.72500000","wikiDataId":"Q477014"},{"id":106384,"name":"Ban Bang Kadi Pathum Thani","stateId":3494,"stateCode":"14","stateName":"Phra Nakhon Si Ayutthaya","countryId":219,"countryCode":"TH","countryName":"Thailand","latitude":"13.99904000","longitude":"100.54962000","wikiDataId":"Q4784166"},{"id":106420,"name":"Bang Ban","stateId":3494,"stateCode":"14","stateName":"Phra Nakhon Si Ayutthaya","countryId":219,"countryCode":"TH","countryName":"Thailand","latitude":"14.37395000","longitude":"100.48528000","wikiDataId":"Q28737753"},{"id":106438,"name":"Bang Pa-in","stateId":3494,"stateCode":"14","stateName":"Phra Nakhon Si Ayutthaya","countryId":219,"countryCode":"TH","countryName":"Thailand","latitude":"14.22783000","longitude":"100.57589000","wikiDataId":"Q2658511"},{"id":106579,"name":"Nakhon Luang","stateId":3494,"stateCode":"14","stateName":"Phra Nakhon Si Ayutthaya","countryId":219,"countryCode":"TH","countryName":"Thailand","latitude":"14.46281000","longitude":"100.60832000","wikiDataId":"Q28737728"},{"id":106619,"name":"Phak Hai","stateId":3494,"stateCode":"14","stateName":"Phra Nakhon Si Ayutthaya","countryId":219,"countryCode":"TH","countryName":"Thailand","latitude":"14.45736000","longitude":"100.36989000","wikiDataId":"Q28737739"},{"id":106644,"name":"Phra Nakhon Si Ayutthaya","stateId":3494,"stateCode":"14","stateName":"Phra Nakhon Si Ayutthaya","countryId":219,"countryCode":"TH","countryName":"Thailand","latitude":"14.35167000","longitude":"100.57739000","wikiDataId":"Q203370"},{"id":106724,"name":"Tha Ruea","stateId":3494,"stateCode":"14","stateName":"Phra Nakhon Si Ayutthaya","countryId":219,"countryCode":"TH","countryName":"Thailand","latitude":"14.56739000","longitude":"100.72598000","wikiDataId":"Q15980706"},{"id":106744,"name":"Wang Noi","stateId":3494,"stateCode":"14","stateName":"Phra Nakhon Si Ayutthaya","countryId":219,"countryCode":"TH","countryName":"Thailand","latitude":"14.22689000","longitude":"100.71550000","wikiDataId":"Q13025388"}]