[{"id":57645,"name":"Along","stateId":4024,"stateCode":"AR","stateName":"Arunachal Pradesh","countryId":101,"countryCode":"IN","countryName":"India","latitude":"28.16951000","longitude":"94.80060000","wikiDataId":"Q519770"},{"id":57708,"name":"Anjaw","stateId":4024,"stateCode":"AR","stateName":"Arunachal Pradesh","countryId":101,"countryCode":"IN","countryName":"India","latitude":"28.06549000","longitude":"96.82878000","wikiDataId":"Q15413"},{"id":58151,"name":"Basar","stateId":4024,"stateCode":"AR","stateName":"Arunachal Pradesh","countryId":101,"countryCode":"IN","countryName":"India","latitude":"27.99008000","longitude":"94.69451000","wikiDataId":"Q712428"},{"id":58080,"name":"Bomdila","stateId":4024,"stateCode":"AR","stateName":"Arunachal Pradesh","countryId":101,"countryCode":"IN","countryName":"India","latitude":"27.26475000","longitude":"92.42472000","wikiDataId":"Q859141"},{"id":58196,"name":"Changlang","stateId":4024,"stateCode":"AR","stateName":"Arunachal Pradesh","countryId":101,"countryCode":"IN","countryName":"India","latitude":"27.36265000","longitude":"96.34518000","wikiDataId":"Q15427"},{"id":131763,"name":"Dibang Valley","stateId":4024,"stateCode":"AR","stateName":"Arunachal Pradesh","countryId":101,"countryCode":"IN","countryName":"India","latitude":"28.70000000","longitude":"95.70000000","wikiDataId":"Q42479"},{"id":131826,"name":"East Kameng","stateId":4024,"stateCode":"AR","stateName":"Arunachal Pradesh","countryId":101,"countryCode":"IN","countryName":"India","latitude":"27.30000000","longitude":"93.05000000","wikiDataId":"Q15424"},{"id":131828,"name":"East Siang","stateId":4024,"stateCode":"AR","stateName":"Arunachal Pradesh","countryId":101,"countryCode":"IN","countryName":"India","latitude":"28.12379000","longitude":"95.16339000","wikiDataId":"Q1945304"},{"id":132090,"name":"Hayuliang","stateId":4024,"stateCode":"AR","stateName":"Arunachal Pradesh","countryId":101,"countryCode":"IN","countryName":"India","latitude":"28.07301000","longitude":"96.54305000","wikiDataId":"Q18348790"},{"id":132178,"name":"Itanagar","stateId":4024,"stateCode":"AR","stateName":"Arunachal Pradesh","countryId":101,"countryCode":"IN","countryName":"India","latitude":"27.08694000","longitude":"93.60987000","wikiDataId":"Q41128"},{"id":132499,"name":"Khonsa","stateId":4024,"stateCode":"AR","stateName":"Arunachal Pradesh","countryId":101,"countryCode":"IN","countryName":"India","latitude":"27.01667000","longitude":"95.56667000","wikiDataId":"Q2231406"},{"id":132663,"name":"Kurung Kumey","stateId":4024,"stateCode":"AR","stateName":"Arunachal Pradesh","countryId":101,"countryCode":"IN","countryName":"India","latitude":"27.99983000","longitude":"93.39240000","wikiDataId":"Q2449506"},{"id":132769,"name":"Lohit District","stateId":4024,"stateCode":"AR","stateName":"Arunachal Pradesh","countryId":101,"countryCode":"IN","countryName":"India","latitude":"27.84012000","longitude":"96.19521000","wikiDataId":"Q15438"},{"id":132779,"name":"Lower Dibang Valley","stateId":4024,"stateCode":"AR","stateName":"Arunachal Pradesh","countryId":101,"countryCode":"IN","countryName":"India","latitude":"28.37258000","longitude":"95.88040000","wikiDataId":"Q2373368"},{"id":132780,"name":"Lower Subansiri","stateId":4024,"stateCode":"AR","stateName":"Arunachal Pradesh","countryId":101,"countryCode":"IN","countryName":"India","latitude":"27.62554000","longitude":"93.93908000","wikiDataId":"Q15436"},{"id":132934,"name":"Margherita","stateId":4024,"stateCode":"AR","stateName":"Arunachal Pradesh","countryId":101,"countryCode":"IN","countryName":"India","latitude":"27.28482000","longitude":"95.66796000","wikiDataId":"Q1924981"},{"id":133121,"name":"Naharlagun","stateId":4024,"stateCode":"AR","stateName":"Arunachal Pradesh","countryId":101,"countryCode":"IN","countryName":"India","latitude":"27.10467000","longitude":"93.69518000","wikiDataId":"Q2576091"},{"id":133551,"name":"Pasighat","stateId":4024,"stateCode":"AR","stateName":"Arunachal Pradesh","countryId":101,"countryCode":"IN","countryName":"India","latitude":"28.06631000","longitude":"95.32678000","wikiDataId":"Q1936930"},{"id":134120,"name":"Tawang","stateId":4024,"stateCode":"AR","stateName":"Arunachal Pradesh","countryId":101,"countryCode":"IN","countryName":"India","latitude":"27.57417000","longitude":"91.92437000","wikiDataId":"Q1006270"},{"id":134135,"name":"Tezu","stateId":4024,"stateCode":"AR","stateName":"Arunachal Pradesh","countryId":101,"countryCode":"IN","countryName":"India","latitude":"27.91256000","longitude":"96.12882000","wikiDataId":"Q13221"},{"id":134199,"name":"Tirap","stateId":4024,"stateCode":"AR","stateName":"Arunachal Pradesh","countryId":101,"countryCode":"IN","countryName":"India","latitude":"27.01917000","longitude":"95.51788000","wikiDataId":"Q15448"},{"id":134288,"name":"Upper Siang","stateId":4024,"stateCode":"AR","stateName":"Arunachal Pradesh","countryId":101,"countryCode":"IN","countryName":"India","latitude":"28.83355000","longitude":"94.91806000","wikiDataId":"Q15465"},{"id":134289,"name":"Upper Subansiri","stateId":4024,"stateCode":"AR","stateName":"Arunachal Pradesh","countryId":101,"countryCode":"IN","countryName":"India","latitude":"28.30000000","longitude":"94.00000000","wikiDataId":"Q15464"},{"id":134409,"name":"West Kameng","stateId":4024,"stateCode":"AR","stateName":"Arunachal Pradesh","countryId":101,"countryCode":"IN","countryName":"India","latitude":"27.40000000","longitude":"92.35000000","wikiDataId":"Q15459"},{"id":134411,"name":"West Siang","stateId":4024,"stateCode":"AR","stateName":"Arunachal Pradesh","countryId":101,"countryCode":"IN","countryName":"India","latitude":"28.40000000","longitude":"94.55000000","wikiDataId":"Q15453"},{"id":134444,"name":"Ziro","stateId":4024,"stateCode":"AR","stateName":"Arunachal Pradesh","countryId":101,"countryCode":"IN","countryName":"India","latitude":"27.59497000","longitude":"93.83854000","wikiDataId":"Q663062"}]