[{"id":15709,"name":"Jakar","stateId":240,"stateCode":"33","stateName":"Bumthang District","countryId":26,"countryCode":"BT","countryName":"Bhutan","latitude":"27.54918000","longitude":"90.75250000","wikiDataId":"Q2468415"},{"id":15706,"name":"Daphu","stateId":239,"stateCode":"12","stateName":"Chukha District","countryId":26,"countryCode":"BT","countryName":"Bhutan","latitude":"26.96667000","longitude":"89.38333000","wikiDataId":"Q5221776"},{"id":15716,"name":"Phuntsholing","stateId":239,"stateCode":"12","stateName":"Chukha District","countryId":26,"countryCode":"BT","countryName":"Bhutan","latitude":"26.85164000","longitude":"89.38837000","wikiDataId":"Q856162"},{"id":15726,"name":"Tsimasham","stateId":239,"stateCode":"12","stateName":"Chukha District","countryId":26,"countryCode":"BT","countryName":"Bhutan","latitude":"27.09890000","longitude":"89.53604000","wikiDataId":"Q1019534"},{"id":15705,"name":"Daga","stateId":238,"stateCode":"22","stateName":"Dagana District","countryId":26,"countryCode":"BT","countryName":"Bhutan","latitude":"27.07529000","longitude":"89.87688000","wikiDataId":"Q2487656"},{"id":15728,"name":"Wangdue Phodrang","stateId":238,"stateCode":"22","stateName":"Dagana District","countryId":26,"countryCode":"BT","countryName":"Bhutan","latitude":"27.48615000","longitude":"89.89915000","wikiDataId":"Q1019534"},{"id":15707,"name":"Gasa","stateId":229,"stateCode":"GA","stateName":"Gasa District","countryId":26,"countryCode":"BT","countryName":"Bhutan","latitude":"27.90372000","longitude":"89.72689000","wikiDataId":"Q5221776"},{"id":15708,"name":"Ha","stateId":232,"stateCode":"13","stateName":"Haa District","countryId":26,"countryCode":"BT","countryName":"Bhutan","latitude":"27.38747000","longitude":"89.28074000","wikiDataId":"Q2059058"},{"id":15710,"name":"Lhuentse","stateId":234,"stateCode":"44","stateName":"Lhuntse District","countryId":26,"countryCode":"BT","countryName":"Bhutan","latitude":"27.66787000","longitude":"91.18393000","wikiDataId":"Q2468415"},{"id":15711,"name":"Mongar","stateId":242,"stateCode":"42","stateName":"Mongar District","countryId":26,"countryCode":"BT","countryName":"Bhutan","latitude":"27.27471000","longitude":"91.23963000","wikiDataId":"Q2582611"},{"id":15714,"name":"Paro","stateId":237,"stateCode":"11","stateName":"Paro District","countryId":26,"countryCode":"BT","countryName":"Bhutan","latitude":"27.43050000","longitude":"89.41334000","wikiDataId":"Q862041"},{"id":15715,"name":"Pemagatshel","stateId":244,"stateCode":"43","stateName":"Pemagatshel District","countryId":26,"countryCode":"BT","countryName":"Bhutan","latitude":"27.03795000","longitude":"91.40305000","wikiDataId":"Q2665353"},{"id":15712,"name":"Pajo","stateId":235,"stateCode":"23","stateName":"Punakha District","countryId":26,"countryCode":"BT","countryName":"Bhutan","latitude":"27.53333000","longitude":"89.88333000","wikiDataId":"Q2394786"},{"id":15717,"name":"PunƒÅkha","stateId":235,"stateCode":"23","stateName":"Punakha District","countryId":26,"countryCode":"BT","countryName":"Bhutan","latitude":"27.59137000","longitude":"89.87743000","wikiDataId":"Q826112"},{"id":15718,"name":"Samdrup Jongkhar","stateId":243,"stateCode":"45","stateName":"Samdrup Jongkhar District","countryId":26,"countryCode":"BT","countryName":"Bhutan","latitude":"26.80069000","longitude":"91.50519000","wikiDataId":"Q2380103"},{"id":15719,"name":"Samtse","stateId":246,"stateCode":"14","stateName":"Samtse District","countryId":26,"countryCode":"BT","countryName":"Bhutan","latitude":"26.89903000","longitude":"89.09951000","wikiDataId":"Q2315241"},{"id":15720,"name":"Sarpang","stateId":247,"stateCode":"31","stateName":"Sarpang District","countryId":26,"countryCode":"BT","countryName":"Bhutan","latitude":"26.86395000","longitude":"90.26745000","wikiDataId":"Q366969"},{"id":15722,"name":"Thimphu","stateId":241,"stateCode":"15","stateName":"Thimphu District","countryId":26,"countryCode":"BT","countryName":"Bhutan","latitude":"27.46609000","longitude":"89.64191000","wikiDataId":"Q9270"},{"id":15724,"name":"Trashigang","stateId":236,"stateCode":"41","stateName":"Trashigang District","countryId":26,"countryCode":"BT","countryName":"Bhutan","latitude":"27.33310000","longitude":"91.55424000","wikiDataId":"Q1149819"},{"id":15725,"name":"Trongsa","stateId":230,"stateCode":"21","stateName":"Tsirang District","countryId":26,"countryCode":"BT","countryName":"Bhutan","latitude":"27.50260000","longitude":"90.50716000","wikiDataId":"Q1019534"},{"id":15727,"name":"Tsirang","stateId":230,"stateCode":"21","stateName":"Tsirang District","countryId":26,"countryCode":"BT","countryName":"Bhutan","latitude":"27.02190000","longitude":"90.12291000","wikiDataId":"Q1019534"},{"id":15723,"name":"Trashi Yangtse","stateId":231,"stateCode":"24","stateName":"Wangdue Phodrang District","countryId":26,"countryCode":"BT","countryName":"Bhutan","latitude":"27.61160000","longitude":"91.49800000","wikiDataId":"Q2566021"},{"id":15713,"name":"Panbang","stateId":233,"stateCode":"34","stateName":"Zhemgang District","countryId":26,"countryCode":"BT","countryName":"Bhutan","latitude":"26.86667000","longitude":"90.98333000","wikiDataId":"Q7130169"},{"id":15721,"name":"Shemgang","stateId":233,"stateCode":"34","stateName":"Zhemgang District","countryId":26,"countryCode":"BT","countryName":"Bhutan","latitude":"27.21689000","longitude":"90.65793000","wikiDataId":"Q2158280"}]