[{"id":31486,"name":"Bahía de Caráquez","stateId":2913,"stateCode":"M","stateName":"Manabí","countryId":64,"countryCode":"EC","countryName":"Ecuador","latitude":"-0.59792000","longitude":"-80.42367000","wikiDataId":"Q2749246"},{"id":31491,"name":"Calceta","stateId":2913,"stateCode":"M","stateName":"Manabí","countryId":64,"countryCode":"EC","countryName":"Ecuador","latitude":"-0.84582000","longitude":"-80.16389000","wikiDataId":"Q5018764"},{"id":31492,"name":"Cantón Portoviejo","stateId":2913,"stateCode":"M","stateName":"Manabí","countryId":64,"countryCode":"EC","countryName":"Ecuador","latitude":"-1.05000000","longitude":"-80.45000000","wikiDataId":"Q617905"},{"id":31497,"name":"Chone","stateId":2913,"stateCode":"M","stateName":"Manabí","countryId":64,"countryCode":"EC","countryName":"Ecuador","latitude":"-0.69819000","longitude":"-80.09361000","wikiDataId":"Q2756591"},{"id":31514,"name":"Jipijapa","stateId":2913,"stateCode":"M","stateName":"Manabí","countryId":64,"countryCode":"EC","countryName":"Ecuador","latitude":"-1.34872000","longitude":"-80.57875000","wikiDataId":"Q11249733"},{"id":31515,"name":"Junín","stateId":2913,"stateCode":"M","stateName":"Manabí","countryId":64,"countryCode":"EC","countryName":"Ecuador","latitude":"-0.92777000","longitude":"-80.20583000","wikiDataId":"Q13189564"},{"id":31527,"name":"Manta","stateId":2913,"stateCode":"M","stateName":"Manabí","countryId":64,"countryCode":"EC","countryName":"Ecuador","latitude":"-0.96212000","longitude":"-80.71271000","wikiDataId":"Q990738"},{"id":31530,"name":"Montecristi","stateId":2913,"stateCode":"M","stateName":"Manabí","countryId":64,"countryCode":"EC","countryName":"Ecuador","latitude":"-1.04576000","longitude":"-80.65889000","wikiDataId":"Q1014493"},{"id":31537,"name":"Paján","stateId":2913,"stateCode":"M","stateName":"Manabí","countryId":64,"countryCode":"EC","countryName":"Ecuador","latitude":"-1.55238000","longitude":"-80.42958000","wikiDataId":"Q7125333"},{"id":31543,"name":"Pedernales","stateId":2913,"stateCode":"M","stateName":"Manabí","countryId":64,"countryCode":"EC","countryName":"Ecuador","latitude":"0.07167000","longitude":"-80.05250000","wikiDataId":"Q23858165"},{"id":31550,"name":"Portoviejo","stateId":2913,"stateCode":"M","stateName":"Manabí","countryId":64,"countryCode":"EC","countryName":"Ecuador","latitude":"-1.05458000","longitude":"-80.45445000","wikiDataId":"Q990716"},{"id":31563,"name":"Rocafuerte","stateId":2913,"stateCode":"M","stateName":"Manabí","countryId":64,"countryCode":"EC","countryName":"Ecuador","latitude":"-0.92360000","longitude":"-80.44946000","wikiDataId":"Q7846193"},{"id":31571,"name":"San Vicente","stateId":2913,"stateCode":"M","stateName":"Manabí","countryId":64,"countryCode":"EC","countryName":"Ecuador","latitude":"-0.60435000","longitude":"-80.40267000","wikiDataId":"Q2198509"},{"id":31573,"name":"Santa Ana","stateId":2913,"stateCode":"M","stateName":"Manabí","countryId":64,"countryCode":"EC","countryName":"Ecuador","latitude":"-1.20726000","longitude":"-80.37132000","wikiDataId":"Q23871398"},{"id":31579,"name":"Sucre","stateId":2913,"stateCode":"M","stateName":"Manabí","countryId":64,"countryCode":"EC","countryName":"Ecuador","latitude":"-1.27974000","longitude":"-80.41885000","wikiDataId":"Q7633158"},{"id":31582,"name":"Tosagua","stateId":2913,"stateCode":"M","stateName":"Manabí","countryId":64,"countryCode":"EC","countryName":"Ecuador","latitude":"-0.78679000","longitude":"-80.23473000","wikiDataId":"Q5835883"}]