[{"id":135236,"name":"Abbadia Cerreto","stateId":1705,"stateCode":"25","stateName":"Lombardy","countryId":107,"countryCode":"IT","countryName":"Italy","latitude":"45.31217000","longitude":"9.59416000","wikiDataId":"Q335596"},{"id":135237,"name":"Abbadia Lariana","stateId":1705,"stateCode":"25","stateName":"Lombardy","countryId":107,"countryCode":"IT","countryName":"Italy","latitude":"45.89947000","longitude":"9.33518000","wikiDataId":"Q335596"},{"id":135241,"name":"Abbazia","stateId":1705,"stateCode":"25","stateName":"Lombardy","countryId":107,"countryCode":"IT","countryName":"Italy","latitude":"45.74800000","longitude":"9.84205000","wikiDataId":"Q1968106"},{"id":135243,"name":"Abbiategrasso","stateId":1705,"stateCode":"25","stateName":"Lombardy","countryId":107,"countryCode":"IT","countryName":"Italy","latitude":"45.39821000","longitude":"8.91678000","wikiDataId":"Q3321966"},{"id":135266,"name":"Acquafredda","stateId":1705,"stateCode":"25","stateName":"Lombardy","countryId":107,"countryCode":"IT","countryName":"Italy","latitude":"45.30697000","longitude":"10.41343000","wikiDataId":"Q18461170"},{"id":135268,"name":"Acquanegra Cremonese","stateId":1705,"stateCode":"25","stateName":"Lombardy","countryId":107,"countryCode":"IT","countryName":"Italy","latitude":"45.16864000","longitude":"9.89074000","wikiDataId":"Q18461170"},{"id":135269,"name":"Acquanegra sul Chiese","stateId":1705,"stateCode":"25","stateName":"Lombardy","countryId":107,"countryCode":"IT","countryName":"Italy","latitude":"45.16404000","longitude":"10.43323000","wikiDataId":"Q18461170"},{"id":135288,"name":"Adrara San Martino","stateId":1705,"stateCode":"25","stateName":"Lombardy","countryId":107,"countryCode":"IT","countryName":"Italy","latitude":"45.70228000","longitude":"9.94896000","wikiDataId":"Q2175750"},{"id":135289,"name":"Adrara San Rocco","stateId":1705,"stateCode":"25","stateName":"Lombardy","countryId":107,"countryCode":"IT","countryName":"Italy","latitude":"45.71578000","longitude":"9.95906000","wikiDataId":"Q2175750"},{"id":135291,"name":"Adro","stateId":1705,"stateCode":"25","stateName":"Lombardy","countryId":107,"countryCode":"IT","countryName":"Italy","latitude":"45.62059000","longitude":"9.96159000","wikiDataId":"Q2175750"},{"id":135308,"name":"Agnadello","stateId":1705,"stateCode":"25","stateName":"Lombardy","countryId":107,"countryCode":"IT","countryName":"Italy","latitude":"45.44516000","longitude":"9.55408000","wikiDataId":"Q18497212"},{"id":135311,"name":"Agnosine","stateId":1705,"stateCode":"25","stateName":"Lombardy","countryId":107,"countryCode":"IT","countryName":"Italy","latitude":"45.64969000","longitude":"10.35267000","wikiDataId":"Q18497212"},{"id":135314,"name":"Agra","stateId":1705,"stateCode":"25","stateName":"Lombardy","countryId":107,"countryCode":"IT","countryName":"Italy","latitude":"46.03668000","longitude":"8.76833000","wikiDataId":"Q18497212"},{"id":135316,"name":"Agrate Brianza","stateId":1705,"stateCode":"25","stateName":"Lombardy","countryId":107,"countryCode":"IT","countryName":"Italy","latitude":"45.57431000","longitude":"9.34793000","wikiDataId":"Q18441360"},{"id":135322,"name":"Aicurzio","stateId":1705,"stateCode":"25","stateName":"Lombardy","countryId":107,"countryCode":"IT","countryName":"Italy","latitude":"45.63998000","longitude":"9.41495000","wikiDataId":"Q16112"},{"id":135336,"name":"Airuno","stateId":1705,"stateCode":"25","stateName":"Lombardy","countryId":107,"countryCode":"IT","countryName":"Italy","latitude":"45.75352000","longitude":"9.42765000","wikiDataId":"Q18441902"},{"id":135340,"name":"Alagna","stateId":1705,"stateCode":"25","stateName":"Lombardy","countryId":107,"countryCode":"IT","countryName":"Italy","latitude":"45.16917000","longitude":"8.88947000","wikiDataId":"Q18441902"},{"id":135349,"name":"Albairate","stateId":1705,"stateCode":"25","stateName":"Lombardy","countryId":107,"countryCode":"IT","countryName":"Italy","latitude":"45.41957000","longitude":"8.93744000","wikiDataId":"Q18441902"},{"id":135352,"name":"Albano Sant'Alessandro","stateId":1705,"stateCode":"25","stateName":"Lombardy","countryId":107,"countryCode":"IT","countryName":"Italy","latitude":"45.68762000","longitude":"9.76651000","wikiDataId":"Q18441902"},{"id":135356,"name":"Albaredo","stateId":1705,"stateCode":"25","stateName":"Lombardy","countryId":107,"countryCode":"IT","countryName":"Italy","latitude":"46.10293000","longitude":"9.59046000","wikiDataId":"Q18500583"},{"id":135357,"name":"Albaredo Arnaboldi","stateId":1705,"stateCode":"25","stateName":"Lombardy","countryId":107,"countryCode":"IT","countryName":"Italy","latitude":"45.10666000","longitude":"9.24296000","wikiDataId":"Q18500583"},{"id":135361,"name":"Albavilla","stateId":1705,"stateCode":"25","stateName":"Lombardy","countryId":107,"countryCode":"IT","countryName":"Italy","latitude":"45.80038000","longitude":"9.18504000","wikiDataId":"Q18500583"},{"id":135367,"name":"Albese Con Cassano","stateId":1705,"stateCode":"25","stateName":"Lombardy","countryId":107,"countryCode":"IT","countryName":"Italy","latitude":"45.79488000","longitude":"9.16364000","wikiDataId":"Q3607972"},{"id":135373,"name":"Albiate","stateId":1705,"stateCode":"25","stateName":"Lombardy","countryId":107,"countryCode":"IT","countryName":"Italy","latitude":"45.65537000","longitude":"9.25035000","wikiDataId":"Q3608754"},{"id":135375,"name":"Albignano","stateId":1705,"stateCode":"25","stateName":"Lombardy","countryId":107,"countryCode":"IT","countryName":"Italy","latitude":"45.50054000","longitude":"9.49299000","wikiDataId":"Q3608760"},{"id":135379,"name":"Albino","stateId":1705,"stateCode":"25","stateName":"Lombardy","countryId":107,"countryCode":"IT","countryName":"Italy","latitude":"45.76444000","longitude":"9.79904000","wikiDataId":"Q2439920"},{"id":135380,"name":"Albiolo","stateId":1705,"stateCode":"25","stateName":"Lombardy","countryId":107,"countryCode":"IT","countryName":"Italy","latitude":"45.80558000","longitude":"8.93924000","wikiDataId":"Q2439920"},{"id":135383,"name":"Albizzate","stateId":1705,"stateCode":"25","stateName":"Lombardy","countryId":107,"countryCode":"IT","countryName":"Italy","latitude":"45.72698000","longitude":"8.80312000","wikiDataId":"Q2439920"},{"id":135384,"name":"Albonese","stateId":1705,"stateCode":"25","stateName":"Lombardy","countryId":107,"countryCode":"IT","countryName":"Italy","latitude":"45.29285000","longitude":"8.70615000","wikiDataId":"Q2439920"},{"id":135385,"name":"Albosaggia","stateId":1705,"stateCode":"25","stateName":"Lombardy","countryId":107,"countryCode":"IT","countryName":"Italy","latitude":"46.14749000","longitude":"9.85405000","wikiDataId":"Q2439920"},{"id":135388,"name":"Albuzzano","stateId":1705,"stateCode":"25","stateName":"Lombardy","countryId":107,"countryCode":"IT","countryName":"Italy","latitude":"45.18719000","longitude":"9.27383000","wikiDataId":"Q18454404"},{"id":135401,"name":"Alfianello","stateId":1705,"stateCode":"25","stateName":"Lombardy","countryId":107,"countryCode":"IT","countryName":"Italy","latitude":"45.26698000","longitude":"10.14817000","wikiDataId":"Q18454404"},{"id":135405,"name":"Algua","stateId":1705,"stateCode":"25","stateName":"Lombardy","countryId":107,"countryCode":"IT","countryName":"Italy","latitude":"45.82584000","longitude":"9.72225000","wikiDataId":"Q18454404"},{"id":135423,"name":"Almè","stateId":1705,"stateCode":"25","stateName":"Lombardy","countryId":107,"countryCode":"IT","countryName":"Italy","latitude":"45.73883000","longitude":"9.61558000","wikiDataId":"Q18441933"},{"id":135420,"name":"Almenno San Bartolomeo","stateId":1705,"stateCode":"25","stateName":"Lombardy","countryId":107,"countryCode":"IT","countryName":"Italy","latitude":"45.73912000","longitude":"9.58082000","wikiDataId":"Q18454404"},{"id":135421,"name":"Almenno San Salvatore","stateId":1705,"stateCode":"25","stateName":"Lombardy","countryId":107,"countryCode":"IT","countryName":"Italy","latitude":"45.74971000","longitude":"9.59699000","wikiDataId":"Q18454404"},{"id":135429,"name":"Alserio","stateId":1705,"stateCode":"25","stateName":"Lombardy","countryId":107,"countryCode":"IT","countryName":"Italy","latitude":"45.77888000","longitude":"9.20014000","wikiDataId":"Q18503836"},{"id":135450,"name":"Alzano Lombardo","stateId":1705,"stateCode":"25","stateName":"Lombardy","countryId":107,"countryCode":"IT","countryName":"Italy","latitude":"45.73681000","longitude":"9.72638000","wikiDataId":"Q3613147"},{"id":135452,"name":"Alzate Brianza","stateId":1705,"stateCode":"25","stateName":"Lombardy","countryId":107,"countryCode":"IT","countryName":"Italy","latitude":"45.76978000","longitude":"9.18204000","wikiDataId":"Q3613147"},{"id":135464,"name":"Ambivere","stateId":1705,"stateCode":"25","stateName":"Lombardy","countryId":107,"countryCode":"IT","countryName":"Italy","latitude":"45.71958000","longitude":"9.55015000","wikiDataId":"Q18431752"},{"id":135482,"name":"Andalo Valtellino","stateId":1705,"stateCode":"25","stateName":"Lombardy","countryId":107,"countryCode":"IT","countryName":"Italy","latitude":"46.13599000","longitude":"9.47384000","wikiDataId":"Q18490629"},{"id":135495,"name":"Anfo","stateId":1705,"stateCode":"25","stateName":"Lombardy","countryId":107,"countryCode":"IT","countryName":"Italy","latitude":"45.76575000","longitude":"10.49382000","wikiDataId":"Q18448265"},{"id":135496,"name":"Angera","stateId":1705,"stateCode":"25","stateName":"Lombardy","countryId":107,"countryCode":"IT","countryName":"Italy","latitude":"45.77555000","longitude":"8.57861000","wikiDataId":"Q18448265"},{"id":135499,"name":"Angolo Terme","stateId":1705,"stateCode":"25","stateName":"Lombardy","countryId":107,"countryCode":"IT","countryName":"Italy","latitude":"45.89168000","longitude":"10.14963000","wikiDataId":"Q18448265"},{"id":135505,"name":"Annicco","stateId":1705,"stateCode":"25","stateName":"Lombardy","countryId":107,"countryCode":"IT","countryName":"Italy","latitude":"45.24344000","longitude":"9.87905000","wikiDataId":"Q2613526"},{"id":135507,"name":"Annone di Brianza","stateId":1705,"stateCode":"25","stateName":"Lombardy","countryId":107,"countryCode":"IT","countryName":"Italy","latitude":"45.80216000","longitude":"9.33119000","wikiDataId":"Q2613526"},{"id":135512,"name":"Antegnate","stateId":1705,"stateCode":"25","stateName":"Lombardy","countryId":107,"countryCode":"IT","countryName":"Italy","latitude":"45.48648000","longitude":"9.79146000","wikiDataId":"Q2852539"},{"id":135524,"name":"Anzano del Parco","stateId":1705,"stateCode":"25","stateName":"Lombardy","countryId":107,"countryCode":"IT","countryName":"Italy","latitude":"45.77006000","longitude":"9.19752000","wikiDataId":"Q18445825"},{"id":135535,"name":"Appiano Gentile","stateId":1705,"stateCode":"25","stateName":"Lombardy","countryId":107,"countryCode":"IT","countryName":"Italy","latitude":"45.73499000","longitude":"8.98103000","wikiDataId":"Q18435824"},{"id":135538,"name":"Aprica","stateId":1705,"stateCode":"25","stateName":"Lombardy","countryId":107,"countryCode":"IT","countryName":"Italy","latitude":"46.15220000","longitude":"10.14884000","wikiDataId":"Q18435824"},{"id":135562,"name":"Arcene","stateId":1705,"stateCode":"25","stateName":"Lombardy","countryId":107,"countryCode":"IT","countryName":"Italy","latitude":"45.57717000","longitude":"9.61461000","wikiDataId":"Q18429554"},{"id":135569,"name":"Arcisate","stateId":1705,"stateCode":"25","stateName":"Lombardy","countryId":107,"countryCode":"IT","countryName":"Italy","latitude":"45.85578000","longitude":"8.86823000","wikiDataId":"Q18454414"},{"id":135573,"name":"Arconate","stateId":1705,"stateCode":"25","stateName":"Lombardy","countryId":107,"countryCode":"IT","countryName":"Italy","latitude":"45.54134000","longitude":"8.84891000","wikiDataId":"Q18454414"},{"id":135574,"name":"Arcore","stateId":1705,"stateCode":"25","stateName":"Lombardy","countryId":107,"countryCode":"IT","countryName":"Italy","latitude":"45.62675000","longitude":"9.32454000","wikiDataId":"Q18454414"},{"id":135579,"name":"Ardenno","stateId":1705,"stateCode":"25","stateName":"Lombardy","countryId":107,"countryCode":"IT","countryName":"Italy","latitude":"46.16714000","longitude":"9.64729000","wikiDataId":"Q18454414"},{"id":135580,"name":"Ardesio","stateId":1705,"stateCode":"25","stateName":"Lombardy","countryId":107,"countryCode":"IT","countryName":"Italy","latitude":"45.93613000","longitude":"9.92950000","wikiDataId":"Q18454414"},{"id":135581,"name":"Ardole San Marino","stateId":1705,"stateCode":"25","stateName":"Lombardy","countryId":107,"countryCode":"IT","countryName":"Italy","latitude":"45.15633000","longitude":"10.10546000","wikiDataId":"Q3621906"},{"id":135586,"name":"Arena Po","stateId":1705,"stateCode":"25","stateName":"Lombardy","countryId":107,"countryCode":"IT","countryName":"Italy","latitude":"45.09427000","longitude":"9.36312000","wikiDataId":"Q18454415"},{"id":135589,"name":"Arese","stateId":1705,"stateCode":"25","stateName":"Lombardy","countryId":107,"countryCode":"IT","countryName":"Italy","latitude":"45.55048000","longitude":"9.07741000","wikiDataId":"Q18454415"},{"id":135591,"name":"Argegno","stateId":1705,"stateCode":"25","stateName":"Lombardy","countryId":107,"countryCode":"IT","countryName":"Italy","latitude":"45.94218000","longitude":"9.12635000","wikiDataId":"Q18454415"},{"id":135609,"name":"Arlate","stateId":1705,"stateCode":"25","stateName":"Lombardy","countryId":107,"countryCode":"IT","countryName":"Italy","latitude":"45.72363000","longitude":"9.44242000","wikiDataId":"Q3622781"},{"id":135612,"name":"Arluno","stateId":1705,"stateCode":"25","stateName":"Lombardy","countryId":107,"countryCode":"IT","countryName":"Italy","latitude":"45.50344000","longitude":"8.94222000","wikiDataId":"Q18497242"},{"id":135625,"name":"Arosio","stateId":1705,"stateCode":"25","stateName":"Lombardy","countryId":107,"countryCode":"IT","countryName":"Italy","latitude":"45.71933000","longitude":"9.20816000","wikiDataId":"Q18436872"},{"id":135636,"name":"Arsago Seprio","stateId":1705,"stateCode":"25","stateName":"Lombardy","countryId":107,"countryCode":"IT","countryName":"Italy","latitude":"45.68764000","longitude":"8.73509000","wikiDataId":"Q18436874"},{"id":135644,"name":"Artogne","stateId":1705,"stateCode":"25","stateName":"Lombardy","countryId":107,"countryCode":"IT","countryName":"Italy","latitude":"45.85437000","longitude":"10.16646000","wikiDataId":"Q18436874"},{"id":135647,"name":"Arzago d'Adda","stateId":1705,"stateCode":"25","stateName":"Lombardy","countryId":107,"countryCode":"IT","countryName":"Italy","latitude":"45.48137000","longitude":"9.56415000","wikiDataId":"Q18436874"},{"id":135661,"name":"Asola","stateId":1705,"stateCode":"25","stateName":"Lombardy","countryId":107,"countryCode":"IT","countryName":"Italy","latitude":"45.22018000","longitude":"10.41214000","wikiDataId":"Q53150"},{"id":135664,"name":"Assago","stateId":1705,"stateCode":"25","stateName":"Lombardy","countryId":107,"countryCode":"IT","countryName":"Italy","latitude":"45.40887000","longitude":"9.12565000","wikiDataId":"Q3625263"},{"id":135667,"name":"Asso","stateId":1705,"stateCode":"25","stateName":"Lombardy","countryId":107,"countryCode":"IT","countryName":"Italy","latitude":"45.86061000","longitude":"9.26730000","wikiDataId":"Q3625263"},{"id":135692,"name":"Aurogna","stateId":1705,"stateCode":"25","stateName":"Lombardy","countryId":107,"countryCode":"IT","countryName":"Italy","latitude":"46.17147000","longitude":"9.35536000","wikiDataId":"Q18478564"},{"id":135701,"name":"Averara","stateId":1705,"stateCode":"25","stateName":"Lombardy","countryId":107,"countryCode":"IT","countryName":"Italy","latitude":"45.98847000","longitude":"9.63160000","wikiDataId":"Q18328180"},{"id":135707,"name":"Aviatico","stateId":1705,"stateCode":"25","stateName":"Lombardy","countryId":107,"countryCode":"IT","countryName":"Italy","latitude":"45.79758000","longitude":"9.77145000","wikiDataId":"Q18448272"},{"id":135719,"name":"Azzanello","stateId":1705,"stateCode":"25","stateName":"Lombardy","countryId":107,"countryCode":"IT","countryName":"Italy","latitude":"45.31312000","longitude":"9.91973000","wikiDataId":"Q18448272"},{"id":135720,"name":"Azzano","stateId":1705,"stateCode":"25","stateName":"Lombardy","countryId":107,"countryCode":"IT","countryName":"Italy","latitude":"45.98096000","longitude":"9.20284000","wikiDataId":"Q18448272"},{"id":135722,"name":"Azzano Mella","stateId":1705,"stateCode":"25","stateName":"Lombardy","countryId":107,"countryCode":"IT","countryName":"Italy","latitude":"45.45458000","longitude":"10.11717000","wikiDataId":"Q18448272"},{"id":135723,"name":"Azzano San Paolo","stateId":1705,"stateCode":"25","stateName":"Lombardy","countryId":107,"countryCode":"IT","countryName":"Italy","latitude":"45.65798000","longitude":"9.67305000","wikiDataId":"Q18448272"},{"id":135725,"name":"Azzate","stateId":1705,"stateCode":"25","stateName":"Lombardy","countryId":107,"countryCode":"IT","countryName":"Italy","latitude":"45.77803000","longitude":"8.79414000","wikiDataId":"Q18448272"},{"id":135726,"name":"Azzio","stateId":1705,"stateCode":"25","stateName":"Lombardy","countryId":107,"countryCode":"IT","countryName":"Italy","latitude":"45.88468000","longitude":"8.70853000","wikiDataId":"Q18448272"},{"id":135727,"name":"Azzone","stateId":1705,"stateCode":"25","stateName":"Lombardy","countryId":107,"countryCode":"IT","countryName":"Italy","latitude":"45.97903000","longitude":"10.11284000","wikiDataId":"Q18448272"},{"id":135731,"name":"Badalasco","stateId":1705,"stateCode":"25","stateName":"Lombardy","countryId":107,"countryCode":"IT","countryName":"Italy","latitude":"45.54217000","longitude":"9.55494000","wikiDataId":"Q18508845"},{"id":135736,"name":"Badia Pavese","stateId":1705,"stateCode":"25","stateName":"Lombardy","countryId":107,"countryCode":"IT","countryName":"Italy","latitude":"45.12087000","longitude":"9.46866000","wikiDataId":"Q18508845"},{"id":135740,"name":"Badile","stateId":1705,"stateCode":"25","stateName":"Lombardy","countryId":107,"countryCode":"IT","countryName":"Italy","latitude":"45.35061000","longitude":"9.12705000","wikiDataId":"Q3632812"},{"id":135751,"name":"Bagnaria","stateId":1705,"stateCode":"25","stateName":"Lombardy","countryId":107,"countryCode":"IT","countryName":"Italy","latitude":"44.82726000","longitude":"9.12256000","wikiDataId":"Q18440466"},{"id":135756,"name":"Bagnatica","stateId":1705,"stateCode":"25","stateName":"Lombardy","countryId":107,"countryCode":"IT","countryName":"Italy","latitude":"45.66088000","longitude":"9.78106000","wikiDataId":"Q18448282"},{"id":135767,"name":"Bagnolo Cremasco","stateId":1705,"stateCode":"25","stateName":"Lombardy","countryId":107,"countryCode":"IT","countryName":"Italy","latitude":"45.36117000","longitude":"9.61296000","wikiDataId":"Q18503883"},{"id":135768,"name":"Bagnolo Mella","stateId":1705,"stateCode":"25","stateName":"Lombardy","countryId":107,"countryCode":"IT","countryName":"Italy","latitude":"45.42765000","longitude":"10.18638000","wikiDataId":"Q18503883"},{"id":135770,"name":"Bagnolo San Vito","stateId":1705,"stateCode":"25","stateName":"Lombardy","countryId":107,"countryCode":"IT","countryName":"Italy","latitude":"45.08892000","longitude":"10.87747000","wikiDataId":"Q18503883"},{"id":135776,"name":"Bagolino","stateId":1705,"stateCode":"25","stateName":"Lombardy","countryId":107,"countryCode":"IT","countryName":"Italy","latitude":"45.82519000","longitude":"10.46183000","wikiDataId":"Q30022515"},{"id":135789,"name":"Ballabio","stateId":1705,"stateCode":"25","stateName":"Lombardy","countryId":107,"countryCode":"IT","countryName":"Italy","latitude":"45.89629000","longitude":"9.42294000","wikiDataId":"Q18436446"},{"id":135809,"name":"Baraggia","stateId":1705,"stateCode":"25","stateName":"Lombardy","countryId":107,"countryCode":"IT","countryName":"Italy","latitude":"45.85516000","longitude":"8.90885000","wikiDataId":"Q18494885"},{"id":135813,"name":"Baranzate","stateId":1705,"stateCode":"25","stateName":"Lombardy","countryId":107,"countryCode":"IT","countryName":"Italy","latitude":"45.52717000","longitude":"9.11724000","wikiDataId":"Q18494885"},{"id":135814,"name":"Barasso","stateId":1705,"stateCode":"25","stateName":"Lombardy","countryId":107,"countryCode":"IT","countryName":"Italy","latitude":"45.84048000","longitude":"8.75683000","wikiDataId":"Q18494885"},{"id":135824,"name":"Barbariga","stateId":1705,"stateCode":"25","stateName":"Lombardy","countryId":107,"countryCode":"IT","countryName":"Italy","latitude":"45.40508000","longitude":"10.05437000","wikiDataId":"Q18489270"},{"id":135825,"name":"Barbata","stateId":1705,"stateCode":"25","stateName":"Lombardy","countryId":107,"countryCode":"IT","countryName":"Italy","latitude":"45.47498000","longitude":"9.77736000","wikiDataId":"Q18489270"},{"id":135829,"name":"Barbianello","stateId":1705,"stateCode":"25","stateName":"Lombardy","countryId":107,"countryCode":"IT","countryName":"Italy","latitude":"45.07571000","longitude":"9.20602000","wikiDataId":"Q18427151"},{"id":135839,"name":"Bardello","stateId":1705,"stateCode":"25","stateName":"Lombardy","countryId":107,"countryCode":"IT","countryName":"Italy","latitude":"45.83597000","longitude":"8.69683000","wikiDataId":"Q3634893"},{"id":135844,"name":"Bareggio","stateId":1705,"stateCode":"25","stateName":"Lombardy","countryId":107,"countryCode":"IT","countryName":"Italy","latitude":"45.47927000","longitude":"8.99789000","wikiDataId":"Q3634893"},{"id":135850,"name":"Bargano","stateId":1705,"stateCode":"25","stateName":"Lombardy","countryId":107,"countryCode":"IT","countryName":"Italy","latitude":"45.24031000","longitude":"9.44689000","wikiDataId":"Q3634964"},{"id":135852,"name":"Barghe","stateId":1705,"stateCode":"25","stateName":"Lombardy","countryId":107,"countryCode":"IT","countryName":"Italy","latitude":"45.67833000","longitude":"10.40775000","wikiDataId":"Q3634964"},{"id":135855,"name":"Bariano","stateId":1705,"stateCode":"25","stateName":"Lombardy","countryId":107,"countryCode":"IT","countryName":"Italy","latitude":"45.51258000","longitude":"9.70366000","wikiDataId":"Q18241854"},{"id":135859,"name":"Barlassina","stateId":1705,"stateCode":"25","stateName":"Lombardy","countryId":107,"countryCode":"IT","countryName":"Italy","latitude":"45.65558000","longitude":"9.12878000","wikiDataId":"Q18241854"},{"id":135861,"name":"Barni","stateId":1705,"stateCode":"25","stateName":"Lombardy","countryId":107,"countryCode":"IT","countryName":"Italy","latitude":"45.91111000","longitude":"9.26592000","wikiDataId":"Q18241854"},{"id":135873,"name":"Barzago","stateId":1705,"stateCode":"25","stateName":"Lombardy","countryId":107,"countryCode":"IT","countryName":"Italy","latitude":"45.75548000","longitude":"9.31424000","wikiDataId":"Q808771"},{"id":135874,"name":"Barzana","stateId":1705,"stateCode":"25","stateName":"Lombardy","countryId":107,"countryCode":"IT","countryName":"Italy","latitude":"45.73340000","longitude":"9.56842000","wikiDataId":"Q808771"},{"id":135875,"name":"Barzanò","stateId":1705,"stateCode":"25","stateName":"Lombardy","countryId":107,"countryCode":"IT","countryName":"Italy","latitude":"45.73257000","longitude":"9.31360000","wikiDataId":"Q808771"},{"id":135876,"name":"Barzio","stateId":1705,"stateCode":"25","stateName":"Lombardy","countryId":107,"countryCode":"IT","countryName":"Italy","latitude":"45.94349000","longitude":"9.46694000","wikiDataId":"Q808771"},{"id":135879,"name":"Bascapè","stateId":1705,"stateCode":"25","stateName":"Lombardy","countryId":107,"countryCode":"IT","countryName":"Italy","latitude":"45.30598000","longitude":"9.31397000","wikiDataId":"Q3635515"},{"id":135884,"name":"Basiano","stateId":1705,"stateCode":"25","stateName":"Lombardy","countryId":107,"countryCode":"IT","countryName":"Italy","latitude":"45.58248000","longitude":"9.46325000","wikiDataId":"Q3635515"},{"id":135886,"name":"Basiglio","stateId":1705,"stateCode":"25","stateName":"Lombardy","countryId":107,"countryCode":"IT","countryName":"Italy","latitude":"45.35917000","longitude":"9.15855000","wikiDataId":"Q3635515"},{"id":135891,"name":"Bassano Bresciano","stateId":1705,"stateCode":"25","stateName":"Lombardy","countryId":107,"countryCode":"IT","countryName":"Italy","latitude":"45.32827000","longitude":"10.12869000","wikiDataId":"Q3635788"},{"id":135903,"name":"Bastida de' Dossi","stateId":1705,"stateCode":"25","stateName":"Lombardy","countryId":107,"countryCode":"IT","countryName":"Italy","latitude":"45.03976000","longitude":"8.92155000","wikiDataId":"Q40707"},{"id":135902,"name":"Bastida Pancarana","stateId":1705,"stateCode":"25","stateName":"Lombardy","countryId":107,"countryCode":"IT","countryName":"Italy","latitude":"45.08606000","longitude":"9.08515000","wikiDataId":"Q18497308"},{"id":135906,"name":"Battaglione-Bagnara","stateId":1705,"stateCode":"25","stateName":"Lombardy","countryId":107,"countryCode":"IT","countryName":"Italy","latitude":"45.11638000","longitude":"10.06726000","wikiDataId":"Q18487959"},{"id":135910,"name":"Battuda","stateId":1705,"stateCode":"25","stateName":"Lombardy","countryId":107,"countryCode":"IT","countryName":"Italy","latitude":"45.27466000","longitude":"9.07805000","wikiDataId":"Q18484109"},{"id":135917,"name":"Bedero","stateId":1705,"stateCode":"25","stateName":"Lombardy","countryId":107,"countryCode":"IT","countryName":"Italy","latitude":"45.97776000","longitude":"8.71852000","wikiDataId":"Q18494900"},{"id":135918,"name":"Bedero Valcuvia","stateId":1705,"stateCode":"25","stateName":"Lombardy","countryId":107,"countryCode":"IT","countryName":"Italy","latitude":"45.91088000","longitude":"8.79553000","wikiDataId":"Q18494900"},{"id":135919,"name":"Bedizzole","stateId":1705,"stateCode":"25","stateName":"Lombardy","countryId":107,"countryCode":"IT","countryName":"Italy","latitude":"45.51038000","longitude":"10.42327000","wikiDataId":"Q18494900"},{"id":135921,"name":"Bedulita","stateId":1705,"stateCode":"25","stateName":"Lombardy","countryId":107,"countryCode":"IT","countryName":"Italy","latitude":"45.79138000","longitude":"9.55165000","wikiDataId":"Q18494900"},{"id":135929,"name":"Belforte","stateId":1705,"stateCode":"25","stateName":"Lombardy","countryId":107,"countryCode":"IT","countryName":"Italy","latitude":"45.08097000","longitude":"10.56156000","wikiDataId":"Q18489946"},{"id":135932,"name":"Belgioioso","stateId":1705,"stateCode":"25","stateName":"Lombardy","countryId":107,"countryCode":"IT","countryName":"Italy","latitude":"45.15933000","longitude":"9.31347000","wikiDataId":"Q18489946"},{"id":135936,"name":"Bellagio","stateId":1705,"stateCode":"25","stateName":"Lombardy","countryId":107,"countryCode":"IT","countryName":"Italy","latitude":"45.98772000","longitude":"9.26182000","wikiDataId":"Q18453643"},{"id":135937,"name":"Bellano","stateId":1705,"stateCode":"25","stateName":"Lombardy","countryId":107,"countryCode":"IT","countryName":"Italy","latitude":"46.04426000","longitude":"9.30734000","wikiDataId":"Q18453643"},{"id":135943,"name":"Bellinzago Lombardo","stateId":1705,"stateCode":"25","stateName":"Lombardy","countryId":107,"countryCode":"IT","countryName":"Italy","latitude":"45.54207000","longitude":"9.44595000","wikiDataId":"Q18491452"},{"id":135950,"name":"Bellusco","stateId":1705,"stateCode":"25","stateName":"Lombardy","countryId":107,"countryCode":"IT","countryName":"Italy","latitude":"45.61958000","longitude":"9.41905000","wikiDataId":"Q18498108"},{"id":135970,"name":"Bema","stateId":1705,"stateCode":"25","stateName":"Lombardy","countryId":107,"countryCode":"IT","countryName":"Italy","latitude":"46.10819000","longitude":"9.56414000","wikiDataId":"Q18491454"},{"id":135971,"name":"Bene Lario","stateId":1705,"stateCode":"25","stateName":"Lombardy","countryId":107,"countryCode":"IT","countryName":"Italy","latitude":"46.02898000","longitude":"9.18414000","wikiDataId":"Q18491454"},{"id":135979,"name":"Berbenno","stateId":1705,"stateCode":"25","stateName":"Lombardy","countryId":107,"countryCode":"IT","countryName":"Italy","latitude":"45.81478000","longitude":"9.57105000","wikiDataId":"Q18491454"},{"id":135980,"name":"Berbenno di Valtellina","stateId":1705,"stateCode":"25","stateName":"Lombardy","countryId":107,"countryCode":"IT","countryName":"Italy","latitude":"46.16641000","longitude":"9.74734000","wikiDataId":"Q18491454"},{"id":135983,"name":"Beregazzo","stateId":1705,"stateCode":"25","stateName":"Lombardy","countryId":107,"countryCode":"IT","countryName":"Italy","latitude":"45.77019000","longitude":"8.95869000","wikiDataId":"Q18478581"},{"id":135984,"name":"Beregazzo con Figliaro","stateId":1705,"stateCode":"25","stateName":"Lombardy","countryId":107,"countryCode":"IT","countryName":"Italy","latitude":"45.78068000","longitude":"8.94414000","wikiDataId":"Q18478581"},{"id":135985,"name":"Bereguardo","stateId":1705,"stateCode":"25","stateName":"Lombardy","countryId":107,"countryCode":"IT","countryName":"Italy","latitude":"45.25706000","longitude":"9.02735000","wikiDataId":"Q18478581"},{"id":135987,"name":"Bergamo","stateId":1705,"stateCode":"25","stateName":"Lombardy","countryId":107,"countryCode":"IT","countryName":"Italy","latitude":"45.69601000","longitude":"9.66721000","wikiDataId":"Q18478581"},{"id":135991,"name":"Berlingo","stateId":1705,"stateCode":"25","stateName":"Lombardy","countryId":107,"countryCode":"IT","countryName":"Italy","latitude":"45.50281000","longitude":"10.03436000","wikiDataId":"Q18478581"},{"id":135993,"name":"Bernareggio","stateId":1705,"stateCode":"25","stateName":"Lombardy","countryId":107,"countryCode":"IT","countryName":"Italy","latitude":"45.64778000","longitude":"9.40505000","wikiDataId":"Q18478581"},{"id":135994,"name":"Bernate Ticino","stateId":1705,"stateCode":"25","stateName":"Lombardy","countryId":107,"countryCode":"IT","countryName":"Italy","latitude":"45.47873000","longitude":"8.81834000","wikiDataId":"Q18478581"},{"id":136003,"name":"Bertonico","stateId":1705,"stateCode":"25","stateName":"Lombardy","countryId":107,"countryCode":"IT","countryName":"Italy","latitude":"45.23307000","longitude":"9.66806000","wikiDataId":"Q18497330"},{"id":136007,"name":"Berzo","stateId":1705,"stateCode":"25","stateName":"Lombardy","countryId":107,"countryCode":"IT","countryName":"Italy","latitude":"46.09287000","longitude":"10.33303000","wikiDataId":"Q18438009"},{"id":136008,"name":"Berzo Inferiore","stateId":1705,"stateCode":"25","stateName":"Lombardy","countryId":107,"countryCode":"IT","countryName":"Italy","latitude":"45.93027000","longitude":"10.27696000","wikiDataId":"Q18438009"},{"id":136009,"name":"Berzo San Fermo","stateId":1705,"stateCode":"25","stateName":"Lombardy","countryId":107,"countryCode":"IT","countryName":"Italy","latitude":"45.71938000","longitude":"9.90316000","wikiDataId":"Q18438009"},{"id":136010,"name":"Besana in Brianza","stateId":1705,"stateCode":"25","stateName":"Lombardy","countryId":107,"countryCode":"IT","countryName":"Italy","latitude":"45.70235000","longitude":"9.29470000","wikiDataId":"Q18438009"},{"id":136011,"name":"Besano","stateId":1705,"stateCode":"25","stateName":"Lombardy","countryId":107,"countryCode":"IT","countryName":"Italy","latitude":"45.88949000","longitude":"8.89068000","wikiDataId":"Q18438009"},{"id":136012,"name":"Besate","stateId":1705,"stateCode":"25","stateName":"Lombardy","countryId":107,"countryCode":"IT","countryName":"Italy","latitude":"45.31296000","longitude":"8.96964000","wikiDataId":"Q18438009"},{"id":136015,"name":"Besnate","stateId":1705,"stateCode":"25","stateName":"Lombardy","countryId":107,"countryCode":"IT","countryName":"Italy","latitude":"45.69858000","longitude":"8.76734000","wikiDataId":"Q18438009"},{"id":136016,"name":"Besozzo","stateId":1705,"stateCode":"25","stateName":"Lombardy","countryId":107,"countryCode":"IT","countryName":"Italy","latitude":"45.84889000","longitude":"8.66517000","wikiDataId":"Q18438009"},{"id":136019,"name":"Bettola","stateId":1705,"stateCode":"25","stateName":"Lombardy","countryId":107,"countryCode":"IT","countryName":"Italy","latitude":"45.33173000","longitude":"9.02080000","wikiDataId":"Q18491117"},{"id":136020,"name":"Bettola-Zeloforomagno","stateId":1705,"stateCode":"25","stateName":"Lombardy","countryId":107,"countryCode":"IT","countryName":"Italy","latitude":"45.43080000","longitude":"9.30870000","wikiDataId":"Q18491119"},{"id":136032,"name":"Biandronno","stateId":1705,"stateCode":"25","stateName":"Lombardy","countryId":107,"countryCode":"IT","countryName":"Italy","latitude":"45.81281000","longitude":"8.70882000","wikiDataId":"Q3639404"},{"id":136033,"name":"Bianzano","stateId":1705,"stateCode":"25","stateName":"Lombardy","countryId":107,"countryCode":"IT","countryName":"Italy","latitude":"45.77309000","longitude":"9.91816000","wikiDataId":"Q3639404"},{"id":136034,"name":"Bianzone","stateId":1705,"stateCode":"25","stateName":"Lombardy","countryId":107,"countryCode":"IT","countryName":"Italy","latitude":"46.18665000","longitude":"10.10934000","wikiDataId":"Q3639404"},{"id":136036,"name":"Biassono","stateId":1705,"stateCode":"25","stateName":"Lombardy","countryId":107,"countryCode":"IT","countryName":"Italy","latitude":"45.62864000","longitude":"9.27124000","wikiDataId":"Q3639404"},{"id":136047,"name":"Bienno","stateId":1705,"stateCode":"25","stateName":"Lombardy","countryId":107,"countryCode":"IT","countryName":"Italy","latitude":"45.93526000","longitude":"10.29232000","wikiDataId":"Q3512102"},{"id":136051,"name":"Binago","stateId":1705,"stateCode":"25","stateName":"Lombardy","countryId":107,"countryCode":"IT","countryName":"Italy","latitude":"45.78218000","longitude":"8.92234000","wikiDataId":"Q3639879"},{"id":136052,"name":"Binasco","stateId":1705,"stateCode":"25","stateName":"Lombardy","countryId":107,"countryCode":"IT","countryName":"Italy","latitude":"45.33102000","longitude":"9.09440000","wikiDataId":"Q3639879"},{"id":136056,"name":"Bione","stateId":1705,"stateCode":"25","stateName":"Lombardy","countryId":107,"countryCode":"IT","countryName":"Italy","latitude":"45.67279000","longitude":"10.33887000","wikiDataId":"Q18503920"},{"id":136066,"name":"Bisuschio","stateId":1705,"stateCode":"25","stateName":"Lombardy","countryId":107,"countryCode":"IT","countryName":"Italy","latitude":"45.87148000","longitude":"8.86843000","wikiDataId":"Q18434573"},{"id":136077,"name":"Bizzarone","stateId":1705,"stateCode":"25","stateName":"Lombardy","countryId":107,"countryCode":"IT","countryName":"Italy","latitude":"45.83428000","longitude":"8.94274000","wikiDataId":"Q18454425"},{"id":136079,"name":"Blello","stateId":1705,"stateCode":"25","stateName":"Lombardy","countryId":107,"countryCode":"IT","countryName":"Italy","latitude":"45.83778000","longitude":"9.57105000","wikiDataId":"Q18454425"},{"id":136081,"name":"Blessagno","stateId":1705,"stateCode":"25","stateName":"Lombardy","countryId":107,"countryCode":"IT","countryName":"Italy","latitude":"45.95908000","longitude":"9.09754000","wikiDataId":"Q18454425"},{"id":136082,"name":"Blevio","stateId":1705,"stateCode":"25","stateName":"Lombardy","countryId":107,"countryCode":"IT","countryName":"Italy","latitude":"45.84218000","longitude":"9.10514000","wikiDataId":"Q18454425"},{"id":136092,"name":"Bodio","stateId":1705,"stateCode":"25","stateName":"Lombardy","countryId":107,"countryCode":"IT","countryName":"Italy","latitude":"45.78989000","longitude":"8.75146000","wikiDataId":"Q18494924"},{"id":136093,"name":"Bodio Lomnago","stateId":1705,"stateCode":"25","stateName":"Lombardy","countryId":107,"countryCode":"IT","countryName":"Italy","latitude":"45.78867000","longitude":"8.75083000","wikiDataId":"Q18494924"},{"id":136095,"name":"Boffalora d'Adda","stateId":1705,"stateCode":"25","stateName":"Lombardy","countryId":107,"countryCode":"IT","countryName":"Italy","latitude":"45.35851000","longitude":"9.49628000","wikiDataId":"Q18494924"},{"id":136094,"name":"Boffalora Sopra Ticino","stateId":1705,"stateCode":"25","stateName":"Lombardy","countryId":107,"countryCode":"IT","countryName":"Italy","latitude":"45.46735000","longitude":"8.83095000","wikiDataId":"Q18494924"},{"id":136103,"name":"Bolgare","stateId":1705,"stateCode":"25","stateName":"Lombardy","countryId":107,"countryCode":"IT","countryName":"Italy","latitude":"45.63242000","longitude":"9.81412000","wikiDataId":"Q18502872"},{"id":136104,"name":"Bolladello-Peveranza","stateId":1705,"stateCode":"25","stateName":"Lombardy","countryId":107,"countryCode":"IT","countryName":"Italy","latitude":"45.68649000","longitude":"8.84517000","wikiDataId":"Q18494926"},{"id":136105,"name":"Bollate","stateId":1705,"stateCode":"25","stateName":"Lombardy","countryId":107,"countryCode":"IT","countryName":"Italy","latitude":"45.54647000","longitude":"9.12054000","wikiDataId":"Q18494926"},{"id":136114,"name":"Boltiere","stateId":1705,"stateCode":"25","stateName":"Lombardy","countryId":107,"countryCode":"IT","countryName":"Italy","latitude":"45.60088000","longitude":"9.57845000","wikiDataId":"Q18478734"},{"id":136125,"name":"Bonate Sopra","stateId":1705,"stateCode":"25","stateName":"Lombardy","countryId":107,"countryCode":"IT","countryName":"Italy","latitude":"45.68179000","longitude":"9.55956000","wikiDataId":"Q15124"},{"id":136126,"name":"Bonate Sotto","stateId":1705,"stateCode":"25","stateName":"Lombardy","countryId":107,"countryCode":"IT","countryName":"Italy","latitude":"45.66818000","longitude":"9.55865000","wikiDataId":"Q15124"},{"id":136130,"name":"Bondeno","stateId":1705,"stateCode":"25","stateName":"Lombardy","countryId":107,"countryCode":"IT","countryName":"Italy","latitude":"44.93569000","longitude":"10.86035000","wikiDataId":"Q16533137"},{"id":136131,"name":"Bondione","stateId":1705,"stateCode":"25","stateName":"Lombardy","countryId":107,"countryCode":"IT","countryName":"Italy","latitude":"46.03541000","longitude":"10.00832000","wikiDataId":"Q18464487"},{"id":136136,"name":"Bonemerse","stateId":1705,"stateCode":"25","stateName":"Lombardy","countryId":107,"countryCode":"IT","countryName":"Italy","latitude":"45.11367000","longitude":"10.07747000","wikiDataId":"Q18464487"},{"id":136149,"name":"Bordolano","stateId":1705,"stateCode":"25","stateName":"Lombardy","countryId":107,"countryCode":"IT","countryName":"Italy","latitude":"45.29170000","longitude":"9.98731000","wikiDataId":"Q18439865"},{"id":136154,"name":"Borgarello","stateId":1705,"stateCode":"25","stateName":"Lombardy","countryId":107,"countryCode":"IT","countryName":"Italy","latitude":"45.24066000","longitude":"9.14055000","wikiDataId":"Q893524"},{"id":136159,"name":"Borghetto Lodigiano","stateId":1705,"stateCode":"25","stateName":"Lombardy","countryId":107,"countryCode":"IT","countryName":"Italy","latitude":"45.21326000","longitude":"9.49946000","wikiDataId":"Q18495567"},{"id":136201,"name":"Borgo di Terzo","stateId":1705,"stateCode":"25","stateName":"Lombardy","countryId":107,"countryCode":"IT","countryName":"Italy","latitude":"45.72078000","longitude":"9.89096000","wikiDataId":"Q18459652"},{"id":136179,"name":"Borgo Priolo","stateId":1705,"stateCode":"25","stateName":"Lombardy","countryId":107,"countryCode":"IT","countryName":"Italy","latitude":"44.96632000","longitude":"9.14835000","wikiDataId":"Q1120731"},{"id":136182,"name":"Borgo San Giacomo","stateId":1705,"stateCode":"25","stateName":"Lombardy","countryId":107,"countryCode":"IT","countryName":"Italy","latitude":"45.34798000","longitude":"9.96817000","wikiDataId":"Q18453656"},{"id":136183,"name":"Borgo San Giovanni","stateId":1705,"stateCode":"25","stateName":"Lombardy","countryId":107,"countryCode":"IT","countryName":"Italy","latitude":"45.27787000","longitude":"9.43496000","wikiDataId":"Q18453656"},{"id":136187,"name":"Borgo San Siro","stateId":1705,"stateCode":"25","stateName":"Lombardy","countryId":107,"countryCode":"IT","countryName":"Italy","latitude":"45.23506000","longitude":"8.91334000","wikiDataId":"Q16255215"},{"id":136202,"name":"Borgoforte","stateId":1705,"stateCode":"25","stateName":"Lombardy","countryId":107,"countryCode":"IT","countryName":"Italy","latitude":"45.05185000","longitude":"10.75018000","wikiDataId":"Q42337"},{"id":136204,"name":"Borgofranco sul Po","stateId":1705,"stateCode":"25","stateName":"Lombardy","countryId":107,"countryCode":"IT","countryName":"Italy","latitude":"45.04658000","longitude":"11.20930000","wikiDataId":"Q42337"},{"id":136214,"name":"Borgoratto Mormorolo","stateId":1705,"stateCode":"25","stateName":"Lombardy","countryId":107,"countryCode":"IT","countryName":"Italy","latitude":"44.92889000","longitude":"9.19402000","wikiDataId":"Q2460647"},{"id":136217,"name":"Borgosatollo","stateId":1705,"stateCode":"25","stateName":"Lombardy","countryId":107,"countryCode":"IT","countryName":"Italy","latitude":"45.47690000","longitude":"10.24030000","wikiDataId":"Q2460647"},{"id":136221,"name":"Bormio","stateId":1705,"stateCode":"25","stateName":"Lombardy","countryId":107,"countryCode":"IT","countryName":"Italy","latitude":"46.46717000","longitude":"10.37008000","wikiDataId":"Q18461343"},{"id":136222,"name":"Bornasco","stateId":1705,"stateCode":"25","stateName":"Lombardy","countryId":107,"countryCode":"IT","countryName":"Italy","latitude":"45.26657000","longitude":"9.21795000","wikiDataId":"Q18461343"},{"id":136223,"name":"Bornato","stateId":1705,"stateCode":"25","stateName":"Lombardy","countryId":107,"countryCode":"IT","countryName":"Italy","latitude":"45.59368000","longitude":"10.04090000","wikiDataId":"Q3642684"},{"id":136224,"name":"Borno","stateId":1705,"stateCode":"25","stateName":"Lombardy","countryId":107,"countryCode":"IT","countryName":"Italy","latitude":"45.94748000","longitude":"10.20243000","wikiDataId":"Q3642684"},{"id":136238,"name":"Boschetto","stateId":1705,"stateCode":"25","stateName":"Lombardy","countryId":107,"countryCode":"IT","countryName":"Italy","latitude":"45.16591000","longitude":"10.02656000","wikiDataId":"Q18488003"},{"id":136242,"name":"Bosco Ex Parmigiano","stateId":1705,"stateCode":"25","stateName":"Lombardy","countryId":107,"countryCode":"IT","countryName":"Italy","latitude":"45.10697000","longitude":"10.03870000","wikiDataId":"Q18488006"},{"id":136252,"name":"Bosisio Parini","stateId":1705,"stateCode":"25","stateName":"Lombardy","countryId":107,"countryCode":"IT","countryName":"Italy","latitude":"45.80075000","longitude":"9.29000000","wikiDataId":"Q18478748"},{"id":136253,"name":"Bosnasco","stateId":1705,"stateCode":"25","stateName":"Lombardy","countryId":107,"countryCode":"IT","countryName":"Italy","latitude":"45.06400000","longitude":"9.35692000","wikiDataId":"Q18478748"},{"id":136254,"name":"Bossico","stateId":1705,"stateCode":"25","stateName":"Lombardy","countryId":107,"countryCode":"IT","countryName":"Italy","latitude":"45.82839000","longitude":"10.04506000","wikiDataId":"Q18478748"},{"id":136258,"name":"Botta","stateId":1705,"stateCode":"25","stateName":"Lombardy","countryId":107,"countryCode":"IT","countryName":"Italy","latitude":"45.83222000","longitude":"9.53257000","wikiDataId":"Q18478748"},{"id":136259,"name":"Bottanuco","stateId":1705,"stateCode":"25","stateName":"Lombardy","countryId":107,"countryCode":"IT","countryName":"Italy","latitude":"45.63931000","longitude":"9.50903000","wikiDataId":"Q18478748"},{"id":136261,"name":"Botticino","stateId":1705,"stateCode":"25","stateName":"Lombardy","countryId":107,"countryCode":"IT","countryName":"Italy","latitude":"45.52972000","longitude":"10.31085000","wikiDataId":"Q18498128"},{"id":136268,"name":"Bovegno","stateId":1705,"stateCode":"25","stateName":"Lombardy","countryId":107,"countryCode":"IT","countryName":"Italy","latitude":"45.79121000","longitude":"10.27012000","wikiDataId":"Q18431918"},{"id":136270,"name":"Bovezzo","stateId":1705,"stateCode":"25","stateName":"Lombardy","countryId":107,"countryCode":"IT","countryName":"Italy","latitude":"45.58998000","longitude":"10.24184000","wikiDataId":"Q18431918"},{"id":136273,"name":"Bovisio-Masciago","stateId":1705,"stateCode":"25","stateName":"Lombardy","countryId":107,"countryCode":"IT","countryName":"Italy","latitude":"45.61019000","longitude":"9.15301000","wikiDataId":"Q18431918"},{"id":136277,"name":"Bozzolo","stateId":1705,"stateCode":"25","stateName":"Lombardy","countryId":107,"countryCode":"IT","countryName":"Italy","latitude":"45.10324000","longitude":"10.47988000","wikiDataId":"Q18431918"},{"id":136279,"name":"Bracca","stateId":1705,"stateCode":"25","stateName":"Lombardy","countryId":107,"countryCode":"IT","countryName":"Italy","latitude":"45.82267000","longitude":"9.70784000","wikiDataId":"Q18431918"},{"id":136287,"name":"Brandico","stateId":1705,"stateCode":"25","stateName":"Lombardy","countryId":107,"countryCode":"IT","countryName":"Italy","latitude":"45.45418000","longitude":"10.05267000","wikiDataId":"Q18431929"},{"id":136289,"name":"Branzi","stateId":1705,"stateCode":"25","stateName":"Lombardy","countryId":107,"countryCode":"IT","countryName":"Italy","latitude":"46.00249000","longitude":"9.75935000","wikiDataId":"Q18431929"},{"id":136290,"name":"Braone","stateId":1705,"stateCode":"25","stateName":"Lombardy","countryId":107,"countryCode":"IT","countryName":"Italy","latitude":"45.99011000","longitude":"10.34178000","wikiDataId":"Q18431929"},{"id":136291,"name":"Brebbia","stateId":1705,"stateCode":"25","stateName":"Lombardy","countryId":107,"countryCode":"IT","countryName":"Italy","latitude":"45.82983000","longitude":"8.65042000","wikiDataId":"Q18431929"},{"id":136293,"name":"Bregano","stateId":1705,"stateCode":"25","stateName":"Lombardy","countryId":107,"countryCode":"IT","countryName":"Italy","latitude":"45.82578000","longitude":"8.68773000","wikiDataId":"Q18431929"},{"id":136295,"name":"Bregnano","stateId":1705,"stateCode":"25","stateName":"Lombardy","countryId":107,"countryCode":"IT","countryName":"Italy","latitude":"45.69778000","longitude":"9.05934000","wikiDataId":"Q18431929"},{"id":136298,"name":"Brembate","stateId":1705,"stateCode":"25","stateName":"Lombardy","countryId":107,"countryCode":"IT","countryName":"Italy","latitude":"45.60468000","longitude":"9.55480000","wikiDataId":"Q24908"},{"id":136299,"name":"Brembate di Sopra","stateId":1705,"stateCode":"25","stateName":"Lombardy","countryId":107,"countryCode":"IT","countryName":"Italy","latitude":"45.71668000","longitude":"9.57945000","wikiDataId":"Q24908"},{"id":136300,"name":"Brembilla","stateId":1705,"stateCode":"25","stateName":"Lombardy","countryId":107,"countryCode":"IT","countryName":"Italy","latitude":"45.82154000","longitude":"9.59679000","wikiDataId":"Q24908"},{"id":136301,"name":"Brembio","stateId":1705,"stateCode":"25","stateName":"Lombardy","countryId":107,"countryCode":"IT","countryName":"Italy","latitude":"45.21234000","longitude":"9.57244000","wikiDataId":"Q24908"},{"id":136302,"name":"Breme","stateId":1705,"stateCode":"25","stateName":"Lombardy","countryId":107,"countryCode":"IT","countryName":"Italy","latitude":"45.12756000","longitude":"8.62564000","wikiDataId":"Q24908"},{"id":136304,"name":"Brenna","stateId":1705,"stateCode":"25","stateName":"Lombardy","countryId":107,"countryCode":"IT","countryName":"Italy","latitude":"45.74338000","longitude":"9.18657000","wikiDataId":"Q24908"},{"id":136306,"name":"Brenno Useria","stateId":1705,"stateCode":"25","stateName":"Lombardy","countryId":107,"countryCode":"IT","countryName":"Italy","latitude":"45.86148000","longitude":"8.87801000","wikiDataId":"Q646588"},{"id":136307,"name":"Breno","stateId":1705,"stateCode":"25","stateName":"Lombardy","countryId":107,"countryCode":"IT","countryName":"Italy","latitude":"45.95889000","longitude":"10.30648000","wikiDataId":"Q646588"},{"id":136308,"name":"Brenta","stateId":1705,"stateCode":"25","stateName":"Lombardy","countryId":107,"countryCode":"IT","countryName":"Italy","latitude":"45.89418000","longitude":"8.68373000","wikiDataId":"Q646588"},{"id":136314,"name":"Brescia","stateId":1705,"stateCode":"25","stateName":"Lombardy","countryId":107,"countryCode":"IT","countryName":"Italy","latitude":"45.53558000","longitude":"10.21472000","wikiDataId":"Q18505066"},{"id":136317,"name":"Bressana","stateId":1705,"stateCode":"25","stateName":"Lombardy","countryId":107,"countryCode":"IT","countryName":"Italy","latitude":"45.07807000","longitude":"9.13119000","wikiDataId":"Q3644339"},{"id":136320,"name":"Bresso","stateId":1705,"stateCode":"25","stateName":"Lombardy","countryId":107,"countryCode":"IT","countryName":"Italy","latitude":"45.53792000","longitude":"9.18921000","wikiDataId":"Q3644339"},{"id":136323,"name":"Brezzo di Bedero","stateId":1705,"stateCode":"25","stateName":"Lombardy","countryId":107,"countryCode":"IT","countryName":"Italy","latitude":"45.97838000","longitude":"8.71743000","wikiDataId":"Q18436455"},{"id":136328,"name":"Brienno","stateId":1705,"stateCode":"25","stateName":"Lombardy","countryId":107,"countryCode":"IT","countryName":"Italy","latitude":"45.91175000","longitude":"9.13142000","wikiDataId":"Q18505077"},{"id":136333,"name":"Brignano Gera d'Adda","stateId":1705,"stateCode":"25","stateName":"Lombardy","countryId":107,"countryCode":"IT","countryName":"Italy","latitude":"45.54324000","longitude":"9.64424000","wikiDataId":"Q18505077"},{"id":136336,"name":"Brinzio","stateId":1705,"stateCode":"25","stateName":"Lombardy","countryId":107,"countryCode":"IT","countryName":"Italy","latitude":"45.88914000","longitude":"8.78683000","wikiDataId":"Q18505077"},{"id":136338,"name":"Brione","stateId":1705,"stateCode":"25","stateName":"Lombardy","countryId":107,"countryCode":"IT","countryName":"Italy","latitude":"45.64228000","longitude":"10.14846000","wikiDataId":"Q18505077"},{"id":136340,"name":"Briosco","stateId":1705,"stateCode":"25","stateName":"Lombardy","countryId":107,"countryCode":"IT","countryName":"Italy","latitude":"45.71008000","longitude":"9.24064000","wikiDataId":"Q18505077"},{"id":136342,"name":"Brissago-Valtravaglia","stateId":1705,"stateCode":"25","stateName":"Lombardy","countryId":107,"countryCode":"IT","countryName":"Italy","latitude":"45.94921000","longitude":"8.74590000","wikiDataId":"Q18505077"},{"id":136344,"name":"Brivio","stateId":1705,"stateCode":"25","stateName":"Lombardy","countryId":107,"countryCode":"IT","countryName":"Italy","latitude":"45.73725000","longitude":"9.44249000","wikiDataId":"Q18505077"},{"id":136351,"name":"Brongio","stateId":1705,"stateCode":"25","stateName":"Lombardy","countryId":107,"countryCode":"IT","countryName":"Italy","latitude":"45.76535000","longitude":"9.31251000","wikiDataId":"Q18488889"},{"id":136352,"name":"Broni","stateId":1705,"stateCode":"25","stateName":"Lombardy","countryId":107,"countryCode":"IT","countryName":"Italy","latitude":"45.06394000","longitude":"9.25993000","wikiDataId":"Q18488889"},{"id":136360,"name":"Brozzo","stateId":1705,"stateCode":"25","stateName":"Lombardy","countryId":107,"countryCode":"IT","countryName":"Italy","latitude":"45.72019000","longitude":"10.23092000","wikiDataId":"Q18472745"},{"id":136362,"name":"Brugherio","stateId":1705,"stateCode":"25","stateName":"Lombardy","countryId":107,"countryCode":"IT","countryName":"Italy","latitude":"45.55301000","longitude":"9.29907000","wikiDataId":"Q952146"},{"id":136367,"name":"Brumano","stateId":1705,"stateCode":"25","stateName":"Lombardy","countryId":107,"countryCode":"IT","countryName":"Italy","latitude":"45.85463000","longitude":"9.50064000","wikiDataId":"Q952146"},{"id":136369,"name":"Brunate","stateId":1705,"stateCode":"25","stateName":"Lombardy","countryId":107,"countryCode":"IT","countryName":"Italy","latitude":"45.82096000","longitude":"9.09869000","wikiDataId":"Q3645550"},{"id":136370,"name":"Brunello","stateId":1705,"stateCode":"25","stateName":"Lombardy","countryId":107,"countryCode":"IT","countryName":"Italy","latitude":"45.76497000","longitude":"8.79533000","wikiDataId":"Q3645550"},{"id":136373,"name":"Brusaporto","stateId":1705,"stateCode":"25","stateName":"Lombardy","countryId":107,"countryCode":"IT","countryName":"Italy","latitude":"45.67140000","longitude":"9.76041000","wikiDataId":"Q3645550"},{"id":136376,"name":"Brusimpiano","stateId":1705,"stateCode":"25","stateName":"Lombardy","countryId":107,"countryCode":"IT","countryName":"Italy","latitude":"45.94468000","longitude":"8.88953000","wikiDataId":"Q3645550"},{"id":136382,"name":"Bubbiano","stateId":1705,"stateCode":"25","stateName":"Lombardy","countryId":107,"countryCode":"IT","countryName":"Italy","latitude":"45.32727000","longitude":"9.01455000","wikiDataId":"Q18438069"},{"id":136387,"name":"Buccinasco","stateId":1705,"stateCode":"25","stateName":"Lombardy","countryId":107,"countryCode":"IT","countryName":"Italy","latitude":"45.40703000","longitude":"9.10830000","wikiDataId":"Q18438069"},{"id":136394,"name":"Buffalora-Bettole","stateId":1705,"stateCode":"25","stateName":"Lombardy","countryId":107,"countryCode":"IT","countryName":"Italy","latitude":"45.49681000","longitude":"10.27518000","wikiDataId":"Q18472764"},{"id":136396,"name":"Buglio in Monte","stateId":1705,"stateCode":"25","stateName":"Lombardy","countryId":107,"countryCode":"IT","countryName":"Italy","latitude":"46.18336000","longitude":"9.67542000","wikiDataId":"Q18472764"},{"id":136398,"name":"Buguggiate","stateId":1705,"stateCode":"25","stateName":"Lombardy","countryId":107,"countryCode":"IT","countryName":"Italy","latitude":"45.78227000","longitude":"8.81063000","wikiDataId":"Q18472764"},{"id":136400,"name":"Bulciago","stateId":1705,"stateCode":"25","stateName":"Lombardy","countryId":107,"countryCode":"IT","countryName":"Italy","latitude":"45.75058000","longitude":"9.28534000","wikiDataId":"Q18472764"},{"id":136401,"name":"Bulgarograsso","stateId":1705,"stateCode":"25","stateName":"Lombardy","countryId":107,"countryCode":"IT","countryName":"Italy","latitude":"45.74708000","longitude":"9.00644000","wikiDataId":"Q18472764"},{"id":136402,"name":"Bulgorello","stateId":1705,"stateCode":"25","stateName":"Lombardy","countryId":107,"countryCode":"IT","countryName":"Italy","latitude":"45.72433000","longitude":"9.05524000","wikiDataId":"Q18478626"},{"id":136409,"name":"Burago di Molgora","stateId":1705,"stateCode":"25","stateName":"Lombardy","countryId":107,"countryCode":"IT","countryName":"Italy","latitude":"45.59648000","longitude":"9.38165000","wikiDataId":"Q18478626"},{"id":136422,"name":"Buscate","stateId":1705,"stateCode":"25","stateName":"Lombardy","countryId":107,"countryCode":"IT","countryName":"Italy","latitude":"45.54353000","longitude":"8.81297000","wikiDataId":"Q18446439"},{"id":136424,"name":"Buscoldo","stateId":1705,"stateCode":"25","stateName":"Lombardy","countryId":107,"countryCode":"IT","countryName":"Italy","latitude":"45.09430000","longitude":"10.69581000","wikiDataId":"Q3013233"},{"id":136426,"name":"Busnago","stateId":1705,"stateCode":"25","stateName":"Lombardy","countryId":107,"countryCode":"IT","countryName":"Italy","latitude":"45.61648000","longitude":"9.46375000","wikiDataId":"Q3013233"},{"id":136428,"name":"Bussero","stateId":1705,"stateCode":"25","stateName":"Lombardy","countryId":107,"countryCode":"IT","countryName":"Italy","latitude":"45.53407000","longitude":"9.37205000","wikiDataId":"Q3647593"},{"id":136434,"name":"Busto Arsizio","stateId":1705,"stateCode":"25","stateName":"Lombardy","countryId":107,"countryCode":"IT","countryName":"Italy","latitude":"45.61128000","longitude":"8.84914000","wikiDataId":"Q12360475"},{"id":136435,"name":"Busto Garolfo","stateId":1705,"stateCode":"25","stateName":"Lombardy","countryId":107,"countryCode":"IT","countryName":"Italy","latitude":"45.54809000","longitude":"8.88298000","wikiDataId":"Q12360475"},{"id":136445,"name":"Ca' d'Andrea","stateId":1705,"stateCode":"25","stateName":"Lombardy","countryId":107,"countryCode":"IT","countryName":"Italy","latitude":"45.11957000","longitude":"10.27748000","wikiDataId":"Q18499365"},{"id":136449,"name":"Cabiate","stateId":1705,"stateCode":"25","stateName":"Lombardy","countryId":107,"countryCode":"IT","countryName":"Italy","latitude":"45.67418000","longitude":"9.17374000","wikiDataId":"Q18440594"},{"id":136453,"name":"Cadegliano-Viconago","stateId":1705,"stateCode":"25","stateName":"Lombardy","countryId":107,"countryCode":"IT","countryName":"Italy","latitude":"45.95948000","longitude":"8.84343000","wikiDataId":"Q18440594"},{"id":136456,"name":"Cadenabbia","stateId":1705,"stateCode":"25","stateName":"Lombardy","countryId":107,"countryCode":"IT","countryName":"Italy","latitude":"45.98861000","longitude":"9.23615000","wikiDataId":"Q1025108"},{"id":136461,"name":"Cadorago-Caslino al Piano","stateId":1705,"stateCode":"25","stateName":"Lombardy","countryId":107,"countryCode":"IT","countryName":"Italy","latitude":"45.72728000","longitude":"9.03784000","wikiDataId":"Q18478643"},{"id":136462,"name":"Cadrezzate","stateId":1705,"stateCode":"25","stateName":"Lombardy","countryId":107,"countryCode":"IT","countryName":"Italy","latitude":"45.79927000","longitude":"8.64333000","wikiDataId":"Q18478643"},{"id":136469,"name":"Caglio","stateId":1705,"stateCode":"25","stateName":"Lombardy","countryId":107,"countryCode":"IT","countryName":"Italy","latitude":"45.87146000","longitude":"9.23719000","wikiDataId":"Q3649521"},{"id":136472,"name":"Cagno","stateId":1705,"stateCode":"25","stateName":"Lombardy","countryId":107,"countryCode":"IT","countryName":"Italy","latitude":"45.81108000","longitude":"8.91733000","wikiDataId":"Q3649521"},{"id":136478,"name":"Caino","stateId":1705,"stateCode":"25","stateName":"Lombardy","countryId":107,"countryCode":"IT","countryName":"Italy","latitude":"45.60939000","longitude":"10.31317000","wikiDataId":"Q18472904"},{"id":136479,"name":"Caiolo","stateId":1705,"stateCode":"25","stateName":"Lombardy","countryId":107,"countryCode":"IT","countryName":"Italy","latitude":"46.14999000","longitude":"9.81455000","wikiDataId":"Q18472904"},{"id":136482,"name":"Cairate","stateId":1705,"stateCode":"25","stateName":"Lombardy","countryId":107,"countryCode":"IT","countryName":"Italy","latitude":"45.68750000","longitude":"8.86807000","wikiDataId":"Q18452728"},{"id":136502,"name":"Calchera-Frontale","stateId":1705,"stateCode":"25","stateName":"Lombardy","countryId":107,"countryCode":"IT","countryName":"Italy","latitude":"45.83415000","longitude":"9.51155000","wikiDataId":"Q18465272"},{"id":136506,"name":"Calcinate","stateId":1705,"stateCode":"25","stateName":"Lombardy","countryId":107,"countryCode":"IT","countryName":"Italy","latitude":"45.61975000","longitude":"9.79843000","wikiDataId":"Q18465272"},{"id":136507,"name":"Calcinato","stateId":1705,"stateCode":"25","stateName":"Lombardy","countryId":107,"countryCode":"IT","countryName":"Italy","latitude":"45.45739000","longitude":"10.40949000","wikiDataId":"Q18465272"},{"id":136509,"name":"Calcio","stateId":1705,"stateCode":"25","stateName":"Lombardy","countryId":107,"countryCode":"IT","countryName":"Italy","latitude":"45.50826000","longitude":"9.84902000","wikiDataId":"Q2675936"},{"id":136510,"name":"Calco","stateId":1705,"stateCode":"25","stateName":"Lombardy","countryId":107,"countryCode":"IT","countryName":"Italy","latitude":"45.72418000","longitude":"9.41255000","wikiDataId":"Q2675936"},{"id":136523,"name":"Caleppio","stateId":1705,"stateCode":"25","stateName":"Lombardy","countryId":107,"countryCode":"IT","countryName":"Italy","latitude":"45.43436000","longitude":"9.38250000","wikiDataId":"Q678311"},{"id":136565,"name":"Calò","stateId":1705,"stateCode":"25","stateName":"Lombardy","countryId":107,"countryCode":"IT","countryName":"Italy","latitude":"45.67908000","longitude":"9.26309000","wikiDataId":"Q3651103"},{"id":136535,"name":"Calolziocorte","stateId":1705,"stateCode":"25","stateName":"Lombardy","countryId":107,"countryCode":"IT","countryName":"Italy","latitude":"45.79538000","longitude":"9.43765000","wikiDataId":"Q18504139"},{"id":136539,"name":"Calozzo","stateId":1705,"stateCode":"25","stateName":"Lombardy","countryId":107,"countryCode":"IT","countryName":"Italy","latitude":"46.10055000","longitude":"9.27531000","wikiDataId":"Q18478648"},{"id":136548,"name":"Calusco d'Adda","stateId":1705,"stateCode":"25","stateName":"Lombardy","countryId":107,"countryCode":"IT","countryName":"Italy","latitude":"45.68841000","longitude":"9.47109000","wikiDataId":"Q18503049"},{"id":136550,"name":"Calvagese della Riviera","stateId":1705,"stateCode":"25","stateName":"Lombardy","countryId":107,"countryCode":"IT","countryName":"Italy","latitude":"45.53922000","longitude":"10.44605000","wikiDataId":"Q18503049"},{"id":136552,"name":"Calvatone","stateId":1705,"stateCode":"25","stateName":"Lombardy","countryId":107,"countryCode":"IT","countryName":"Italy","latitude":"45.12697000","longitude":"10.44057000","wikiDataId":"Q18503049"},{"id":136555,"name":"Calvenzano","stateId":1705,"stateCode":"25","stateName":"Lombardy","countryId":107,"countryCode":"IT","countryName":"Italy","latitude":"45.49621000","longitude":"9.59953000","wikiDataId":"Q18503049"},{"id":136560,"name":"Calvignano","stateId":1705,"stateCode":"25","stateName":"Lombardy","countryId":107,"countryCode":"IT","countryName":"Italy","latitude":"44.98306000","longitude":"9.16876000","wikiDataId":"Q18503049"},{"id":136561,"name":"Calvignasco","stateId":1705,"stateCode":"25","stateName":"Lombardy","countryId":107,"countryCode":"IT","countryName":"Italy","latitude":"45.32597000","longitude":"9.02775000","wikiDataId":"Q18503049"},{"id":136562,"name":"Calvisano","stateId":1705,"stateCode":"25","stateName":"Lombardy","countryId":107,"countryCode":"IT","countryName":"Italy","latitude":"45.34529000","longitude":"10.34266000","wikiDataId":"Q18503049"},{"id":136568,"name":"Camairago","stateId":1705,"stateCode":"25","stateName":"Lombardy","countryId":107,"countryCode":"IT","countryName":"Italy","latitude":"45.20527000","longitude":"9.72746000","wikiDataId":"Q3651103"},{"id":136572,"name":"Cambiago","stateId":1705,"stateCode":"25","stateName":"Lombardy","countryId":107,"countryCode":"IT","countryName":"Italy","latitude":"45.58035000","longitude":"9.43528000","wikiDataId":"Q3651123"},{"id":136580,"name":"Camerata Cornello","stateId":1705,"stateCode":"25","stateName":"Lombardy","countryId":107,"countryCode":"IT","countryName":"Italy","latitude":"45.89956000","longitude":"9.65569000","wikiDataId":"Q18502811"},{"id":136592,"name":"Camisano","stateId":1705,"stateCode":"25","stateName":"Lombardy","countryId":107,"countryCode":"IT","countryName":"Italy","latitude":"45.44484000","longitude":"9.74526000","wikiDataId":"Q18453662"},{"id":136595,"name":"Camnago-Boscone","stateId":1705,"stateCode":"25","stateName":"Lombardy","countryId":107,"countryCode":"IT","countryName":"Italy","latitude":"45.80472000","longitude":"8.97934000","wikiDataId":"Q18478651"},{"id":136598,"name":"Camoneone","stateId":1705,"stateCode":"25","stateName":"Lombardy","countryId":107,"countryCode":"IT","countryName":"Italy","latitude":"45.78547000","longitude":"9.56910000","wikiDataId":"Q18465414"},{"id":136604,"name":"Campagnola Cremasca","stateId":1705,"stateCode":"25","stateName":"Lombardy","countryId":107,"countryCode":"IT","countryName":"Italy","latitude":"45.39847000","longitude":"9.66946000","wikiDataId":"Q18497523"},{"id":136610,"name":"Camparada","stateId":1705,"stateCode":"25","stateName":"Lombardy","countryId":107,"countryCode":"IT","countryName":"Italy","latitude":"45.65489000","longitude":"9.32328000","wikiDataId":"Q18469409"},{"id":136622,"name":"Campione","stateId":1705,"stateCode":"25","stateName":"Lombardy","countryId":107,"countryCode":"IT","countryName":"Italy","latitude":"45.96818000","longitude":"8.97181000","wikiDataId":"Q18496861"},{"id":136623,"name":"Campitello","stateId":1705,"stateCode":"25","stateName":"Lombardy","countryId":107,"countryCode":"IT","countryName":"Italy","latitude":"45.08750000","longitude":"10.60632000","wikiDataId":"Q18490086"},{"id":136648,"name":"Campodolcino","stateId":1705,"stateCode":"25","stateName":"Lombardy","countryId":107,"countryCode":"IT","countryName":"Italy","latitude":"46.40290000","longitude":"9.35185000","wikiDataId":"Q3654723"},{"id":136653,"name":"Campofiorenzo-California","stateId":1705,"stateCode":"25","stateName":"Lombardy","countryId":107,"countryCode":"IT","countryName":"Italy","latitude":"45.66768000","longitude":"9.31708000","wikiDataId":"Q18488916"},{"id":136682,"name":"Campospinoso","stateId":1705,"stateCode":"25","stateName":"Lombardy","countryId":107,"countryCode":"IT","countryName":"Italy","latitude":"45.09403000","longitude":"9.24585000","wikiDataId":"Q37672"},{"id":136701,"name":"Candia Lomellina","stateId":1705,"stateCode":"25","stateName":"Lombardy","countryId":107,"countryCode":"IT","countryName":"Italy","latitude":"45.17670000","longitude":"8.59550000","wikiDataId":"Q18501043"},{"id":136707,"name":"Canegrate","stateId":1705,"stateCode":"25","stateName":"Lombardy","countryId":107,"countryCode":"IT","countryName":"Italy","latitude":"45.56825000","longitude":"8.92689000","wikiDataId":"Q18501043"},{"id":136722,"name":"Canneto","stateId":1705,"stateCode":"25","stateName":"Lombardy","countryId":107,"countryCode":"IT","countryName":"Italy","latitude":"45.05116000","longitude":"9.28101000","wikiDataId":"Q18492205"},{"id":136723,"name":"Canneto Pavese","stateId":1705,"stateCode":"25","stateName":"Lombardy","countryId":107,"countryCode":"IT","countryName":"Italy","latitude":"45.05046000","longitude":"9.27876000","wikiDataId":"Q18492205"},{"id":136724,"name":"Canneto sull'Oglio","stateId":1705,"stateCode":"25","stateName":"Lombardy","countryId":107,"countryCode":"IT","countryName":"Italy","latitude":"45.15163000","longitude":"10.38282000","wikiDataId":"Q18492205"},{"id":136729,"name":"Canonica","stateId":1705,"stateCode":"25","stateName":"Lombardy","countryId":107,"countryCode":"IT","countryName":"Italy","latitude":"45.65587000","longitude":"9.28749000","wikiDataId":"Q3655514"},{"id":136730,"name":"Canonica d'Adda","stateId":1705,"stateCode":"25","stateName":"Lombardy","countryId":107,"countryCode":"IT","countryName":"Italy","latitude":"45.57568000","longitude":"9.54165000","wikiDataId":"Q3655514"},{"id":136734,"name":"Canova-San Zeno","stateId":1705,"stateCode":"25","stateName":"Lombardy","countryId":107,"countryCode":"IT","countryName":"Italy","latitude":"45.72116000","longitude":"9.40030000","wikiDataId":"Q18488924"},{"id":136741,"name":"Cantalupo","stateId":1705,"stateCode":"25","stateName":"Lombardy","countryId":107,"countryCode":"IT","countryName":"Italy","latitude":"45.57813000","longitude":"8.98261000","wikiDataId":"Q1320551"},{"id":136746,"name":"Cantello","stateId":1705,"stateCode":"25","stateName":"Lombardy","countryId":107,"countryCode":"IT","countryName":"Italy","latitude":"45.82248000","longitude":"8.89593000","wikiDataId":"Q18502825"},{"id":136751,"name":"Cantù","stateId":1705,"stateCode":"25","stateName":"Lombardy","countryId":107,"countryCode":"IT","countryName":"Italy","latitude":"45.74096000","longitude":"9.13084000","wikiDataId":"Q18429629"},{"id":136753,"name":"Canzo","stateId":1705,"stateCode":"25","stateName":"Lombardy","countryId":107,"countryCode":"IT","countryName":"Italy","latitude":"45.84867000","longitude":"9.27063000","wikiDataId":"Q18429629"},{"id":136764,"name":"Capergnanica","stateId":1705,"stateCode":"25","stateName":"Lombardy","countryId":107,"countryCode":"IT","countryName":"Italy","latitude":"45.33869000","longitude":"9.64475000","wikiDataId":"Q3677266"},{"id":136768,"name":"Capiago-Intimiano-Olmeda","stateId":1705,"stateCode":"25","stateName":"Lombardy","countryId":107,"countryCode":"IT","countryName":"Italy","latitude":"45.76898000","longitude":"9.12764000","wikiDataId":"Q18478671"},{"id":136779,"name":"Capo di Ponte","stateId":1705,"stateCode":"25","stateName":"Lombardy","countryId":107,"countryCode":"IT","countryName":"Italy","latitude":"46.03000000","longitude":"10.34283000","wikiDataId":"Q3657166"},{"id":136785,"name":"Caponago","stateId":1705,"stateCode":"25","stateName":"Lombardy","countryId":107,"countryCode":"IT","countryName":"Italy","latitude":"45.56647000","longitude":"9.37585000","wikiDataId":"Q18496863"},{"id":136789,"name":"Capovalle","stateId":1705,"stateCode":"25","stateName":"Lombardy","countryId":107,"countryCode":"IT","countryName":"Italy","latitude":"45.75339000","longitude":"10.54447000","wikiDataId":"Q18496863"},{"id":136791,"name":"Cappella Cantone","stateId":1705,"stateCode":"25","stateName":"Lombardy","countryId":107,"countryCode":"IT","countryName":"Italy","latitude":"45.24657000","longitude":"9.83826000","wikiDataId":"Q18426527"},{"id":136793,"name":"Cappella de' Picenardi","stateId":1705,"stateCode":"25","stateName":"Lombardy","countryId":107,"countryCode":"IT","countryName":"Italy","latitude":"45.15857000","longitude":"10.22998000","wikiDataId":"Q18426527"},{"id":136795,"name":"Cappelletta","stateId":1705,"stateCode":"25","stateName":"Lombardy","countryId":107,"countryCode":"IT","countryName":"Italy","latitude":"45.10514000","longitude":"10.77847000","wikiDataId":"Q18490128"},{"id":136800,"name":"Capralba","stateId":1705,"stateCode":"25","stateName":"Lombardy","countryId":107,"countryCode":"IT","countryName":"Italy","latitude":"45.44352000","longitude":"9.64417000","wikiDataId":"Q18498262"},{"id":136812,"name":"Capriano","stateId":1705,"stateCode":"25","stateName":"Lombardy","countryId":107,"countryCode":"IT","countryName":"Italy","latitude":"45.72298000","longitude":"9.25526000","wikiDataId":"Q2642726"},{"id":136813,"name":"Capriano del Colle","stateId":1705,"stateCode":"25","stateName":"Lombardy","countryId":107,"countryCode":"IT","countryName":"Italy","latitude":"45.47478000","longitude":"10.13227000","wikiDataId":"Q2642726"},{"id":136815,"name":"Capriate San Gervasio","stateId":1705,"stateCode":"25","stateName":"Lombardy","countryId":107,"countryCode":"IT","countryName":"Italy","latitude":"45.61281000","longitude":"9.52974000","wikiDataId":"Q2642726"},{"id":136821,"name":"Caprino","stateId":1705,"stateCode":"25","stateName":"Lombardy","countryId":107,"countryCode":"IT","countryName":"Italy","latitude":"45.74903000","longitude":"9.49235000","wikiDataId":"Q18509327"},{"id":136823,"name":"Capriolo","stateId":1705,"stateCode":"25","stateName":"Lombardy","countryId":107,"countryCode":"IT","countryName":"Italy","latitude":"45.63333000","longitude":"9.93189000","wikiDataId":"Q18509327"},{"id":136838,"name":"Carate Brianza","stateId":1705,"stateCode":"25","stateName":"Lombardy","countryId":107,"countryCode":"IT","countryName":"Italy","latitude":"45.67574000","longitude":"9.23723000","wikiDataId":"Q583609"},{"id":136839,"name":"Carate Urio","stateId":1705,"stateCode":"25","stateName":"Lombardy","countryId":107,"countryCode":"IT","countryName":"Italy","latitude":"45.87178000","longitude":"9.12214000","wikiDataId":"Q583609"},{"id":136840,"name":"Caravaggio","stateId":1705,"stateCode":"25","stateName":"Lombardy","countryId":107,"countryCode":"IT","countryName":"Italy","latitude":"45.49627000","longitude":"9.64165000","wikiDataId":"Q583609"},{"id":136841,"name":"Caravate","stateId":1705,"stateCode":"25","stateName":"Lombardy","countryId":107,"countryCode":"IT","countryName":"Italy","latitude":"45.87862000","longitude":"8.65431000","wikiDataId":"Q583609"},{"id":136846,"name":"Carbonara al Ticino","stateId":1705,"stateCode":"25","stateName":"Lombardy","countryId":107,"countryCode":"IT","countryName":"Italy","latitude":"45.16374000","longitude":"9.06490000","wikiDataId":"Q583609"},{"id":136848,"name":"Carbonara di Po","stateId":1705,"stateCode":"25","stateName":"Lombardy","countryId":107,"countryCode":"IT","countryName":"Italy","latitude":"45.03537000","longitude":"11.22923000","wikiDataId":"Q583609"},{"id":136849,"name":"Carbonate","stateId":1705,"stateCode":"25","stateName":"Lombardy","countryId":107,"countryCode":"IT","countryName":"Italy","latitude":"45.68507000","longitude":"8.93814000","wikiDataId":"Q583609"},{"id":136858,"name":"Cardano al Campo","stateId":1705,"stateCode":"25","stateName":"Lombardy","countryId":107,"countryCode":"IT","countryName":"Italy","latitude":"45.64887000","longitude":"8.76933000","wikiDataId":"Q18473181"},{"id":136866,"name":"Carenno","stateId":1705,"stateCode":"25","stateName":"Lombardy","countryId":107,"countryCode":"IT","countryName":"Italy","latitude":"45.80155000","longitude":"9.46301000","wikiDataId":"Q18473181"},{"id":136878,"name":"Carimate","stateId":1705,"stateCode":"25","stateName":"Lombardy","countryId":107,"countryCode":"IT","countryName":"Italy","latitude":"45.70659000","longitude":"9.10751000","wikiDataId":"Q18437250"},{"id":136885,"name":"Carlazzo","stateId":1705,"stateCode":"25","stateName":"Lombardy","countryId":107,"countryCode":"IT","countryName":"Italy","latitude":"46.04222000","longitude":"9.16498000","wikiDataId":"Q18467565"},{"id":136894,"name":"Carnago","stateId":1705,"stateCode":"25","stateName":"Lombardy","countryId":107,"countryCode":"IT","countryName":"Italy","latitude":"45.72207000","longitude":"8.83423000","wikiDataId":"Q18467565"},{"id":136895,"name":"Carnate","stateId":1705,"stateCode":"25","stateName":"Lombardy","countryId":107,"countryCode":"IT","countryName":"Italy","latitude":"45.64843000","longitude":"9.37813000","wikiDataId":"Q18467565"},{"id":136896,"name":"Carobbio","stateId":1705,"stateCode":"25","stateName":"Lombardy","countryId":107,"countryCode":"IT","countryName":"Italy","latitude":"45.66424000","longitude":"9.83027000","wikiDataId":"Q18465915"},{"id":136897,"name":"Carobbio degli Angeli","stateId":1705,"stateCode":"25","stateName":"Lombardy","countryId":107,"countryCode":"IT","countryName":"Italy","latitude":"45.66518000","longitude":"9.82916000","wikiDataId":"Q18465915"},{"id":136899,"name":"Carona","stateId":1705,"stateCode":"25","stateName":"Lombardy","countryId":107,"countryCode":"IT","countryName":"Italy","latitude":"46.02149000","longitude":"9.78494000","wikiDataId":"Q18465915"},{"id":136901,"name":"Caronno Pertusella","stateId":1705,"stateCode":"25","stateName":"Lombardy","countryId":107,"countryCode":"IT","countryName":"Italy","latitude":"45.59777000","longitude":"9.04634000","wikiDataId":"Q18465915"},{"id":136902,"name":"Caronno Varesino","stateId":1705,"stateCode":"25","stateName":"Lombardy","countryId":107,"countryCode":"IT","countryName":"Italy","latitude":"45.73577000","longitude":"8.83173000","wikiDataId":"Q18465915"},{"id":136910,"name":"Carpenedolo","stateId":1705,"stateCode":"25","stateName":"Lombardy","countryId":107,"countryCode":"IT","countryName":"Italy","latitude":"45.36169000","longitude":"10.43124000","wikiDataId":"Q18465915"},{"id":136914,"name":"Carpiano","stateId":1705,"stateCode":"25","stateName":"Lombardy","countryId":107,"countryCode":"IT","countryName":"Italy","latitude":"45.34027000","longitude":"9.27401000","wikiDataId":"Q3660665"},{"id":136943,"name":"Carugate","stateId":1705,"stateCode":"25","stateName":"Lombardy","countryId":107,"countryCode":"IT","countryName":"Italy","latitude":"45.54983000","longitude":"9.34044000","wikiDataId":"Q18452794"},{"id":136944,"name":"Carugo","stateId":1705,"stateCode":"25","stateName":"Lombardy","countryId":107,"countryCode":"IT","countryName":"Italy","latitude":"45.70848000","longitude":"9.19684000","wikiDataId":"Q18452794"},{"id":136946,"name":"Carvico","stateId":1705,"stateCode":"25","stateName":"Lombardy","countryId":107,"countryCode":"IT","countryName":"Italy","latitude":"45.70193000","longitude":"9.48580000","wikiDataId":"Q18452794"},{"id":136947,"name":"Carzago Riviera","stateId":1705,"stateCode":"25","stateName":"Lombardy","countryId":107,"countryCode":"IT","countryName":"Italy","latitude":"45.52440000","longitude":"10.46052000","wikiDataId":"Q3661025"},{"id":136949,"name":"Casa Ponte","stateId":1705,"stateCode":"25","stateName":"Lombardy","countryId":107,"countryCode":"IT","countryName":"Italy","latitude":"44.87777000","longitude":"9.16509000","wikiDataId":"Q18492315"},{"id":136969,"name":"Casalbuttano","stateId":1705,"stateCode":"25","stateName":"Lombardy","countryId":107,"countryCode":"IT","countryName":"Italy","latitude":"45.25187000","longitude":"9.96167000","wikiDataId":"Q18488132"},{"id":136975,"name":"Casale Cremasco","stateId":1705,"stateCode":"25","stateName":"Lombardy","countryId":107,"countryCode":"IT","countryName":"Italy","latitude":"45.43187000","longitude":"9.71416000","wikiDataId":"Q18442111"},{"id":136976,"name":"Casale Litta","stateId":1705,"stateCode":"25","stateName":"Lombardy","countryId":107,"countryCode":"IT","countryName":"Italy","latitude":"45.76787000","longitude":"8.74133000","wikiDataId":"Q18442111"},{"id":136985,"name":"Casaletto Ceredano","stateId":1705,"stateCode":"25","stateName":"Lombardy","countryId":107,"countryCode":"IT","countryName":"Italy","latitude":"45.31831000","longitude":"9.61701000","wikiDataId":"Q18442111"},{"id":136989,"name":"Casaletto di Sopra","stateId":1705,"stateCode":"25","stateName":"Lombardy","countryId":107,"countryCode":"IT","countryName":"Italy","latitude":"45.41918000","longitude":"9.78256000","wikiDataId":"Q18442111"},{"id":136986,"name":"Casaletto Lodigiano","stateId":1705,"stateCode":"25","stateName":"Lombardy","countryId":107,"countryCode":"IT","countryName":"Italy","latitude":"45.29337000","longitude":"9.36194000","wikiDataId":"Q18442111"},{"id":136988,"name":"Casaletto Vaprio","stateId":1705,"stateCode":"25","stateName":"Lombardy","countryId":107,"countryCode":"IT","countryName":"Italy","latitude":"45.40817000","longitude":"9.62876000","wikiDataId":"Q18442111"},{"id":136998,"name":"Casalmaggiore","stateId":1705,"stateCode":"25","stateName":"Lombardy","countryId":107,"countryCode":"IT","countryName":"Italy","latitude":"44.98981000","longitude":"10.42055000","wikiDataId":"Q3661449"},{"id":136999,"name":"Casalmaiocco","stateId":1705,"stateCode":"25","stateName":"Lombardy","countryId":107,"countryCode":"IT","countryName":"Italy","latitude":"45.35238000","longitude":"9.37088000","wikiDataId":"Q3661449"},{"id":137000,"name":"Casalmorano","stateId":1705,"stateCode":"25","stateName":"Lombardy","countryId":107,"countryCode":"IT","countryName":"Italy","latitude":"45.28766000","longitude":"9.89860000","wikiDataId":"Q3661449"},{"id":137001,"name":"Casalmoro","stateId":1705,"stateCode":"25","stateName":"Lombardy","countryId":107,"countryCode":"IT","countryName":"Italy","latitude":"45.26115000","longitude":"10.41118000","wikiDataId":"Q3661449"},{"id":137005,"name":"Casaloldo","stateId":1705,"stateCode":"25","stateName":"Lombardy","countryId":107,"countryCode":"IT","countryName":"Italy","latitude":"45.25436000","longitude":"10.47691000","wikiDataId":"Q3661449"},{"id":137006,"name":"Casalpusterlengo","stateId":1705,"stateCode":"25","stateName":"Lombardy","countryId":107,"countryCode":"IT","countryName":"Italy","latitude":"45.17921000","longitude":"9.64834000","wikiDataId":"Q3661449"},{"id":137007,"name":"Casalromano","stateId":1705,"stateCode":"25","stateName":"Lombardy","countryId":107,"countryCode":"IT","countryName":"Italy","latitude":"45.19808000","longitude":"10.36640000","wikiDataId":"Q3661449"},{"id":137014,"name":"Casalzuigno","stateId":1705,"stateCode":"25","stateName":"Lombardy","countryId":107,"countryCode":"IT","countryName":"Italy","latitude":"45.90508000","longitude":"8.70883000","wikiDataId":"Q3661449"},{"id":137024,"name":"Casanova Lonati","stateId":1705,"stateCode":"25","stateName":"Lombardy","countryId":107,"countryCode":"IT","countryName":"Italy","latitude":"45.09446000","longitude":"9.21345000","wikiDataId":"Q18436501"},{"id":137032,"name":"Casargo","stateId":1705,"stateCode":"25","stateName":"Lombardy","countryId":107,"countryCode":"IT","countryName":"Italy","latitude":"46.03950000","longitude":"9.38717000","wikiDataId":"Q18436901"},{"id":137033,"name":"Casarile","stateId":1705,"stateCode":"25","stateName":"Lombardy","countryId":107,"countryCode":"IT","countryName":"Italy","latitude":"45.31683000","longitude":"9.10383000","wikiDataId":"Q18436901"},{"id":137037,"name":"Casasco Intelvi","stateId":1705,"stateCode":"25","stateName":"Lombardy","countryId":107,"countryCode":"IT","countryName":"Italy","latitude":"45.94368000","longitude":"9.07574000","wikiDataId":"Q244334"},{"id":137038,"name":"Casate","stateId":1705,"stateCode":"25","stateName":"Lombardy","countryId":107,"countryCode":"IT","countryName":"Italy","latitude":"45.49203000","longitude":"8.82776000","wikiDataId":"Q18491153"},{"id":137039,"name":"Casatenovo","stateId":1705,"stateCode":"25","stateName":"Lombardy","countryId":107,"countryCode":"IT","countryName":"Italy","latitude":"45.69514000","longitude":"9.31338000","wikiDataId":"Q18491153"},{"id":137040,"name":"Casatisma","stateId":1705,"stateCode":"25","stateName":"Lombardy","countryId":107,"countryCode":"IT","countryName":"Italy","latitude":"45.04569000","longitude":"9.13099000","wikiDataId":"Q18491153"},{"id":137043,"name":"Casazza","stateId":1705,"stateCode":"25","stateName":"Lombardy","countryId":107,"countryCode":"IT","countryName":"Italy","latitude":"45.74855000","longitude":"9.90627000","wikiDataId":"Q18456865"},{"id":137046,"name":"Casciago","stateId":1705,"stateCode":"25","stateName":"Lombardy","countryId":107,"countryCode":"IT","countryName":"Italy","latitude":"45.83248000","longitude":"8.78333000","wikiDataId":"Q3661528"},{"id":137049,"name":"Cascina Elisa","stateId":1705,"stateCode":"25","stateName":"Lombardy","countryId":107,"countryCode":"IT","countryName":"Italy","latitude":"45.60425000","longitude":"8.79978000","wikiDataId":"Q18495032"},{"id":137053,"name":"Casco","stateId":1705,"stateCode":"25","stateName":"Lombardy","countryId":107,"countryCode":"IT","countryName":"Italy","latitude":"45.71078000","longitude":"9.82483000","wikiDataId":"Q18466579"},{"id":137055,"name":"Case Nuove","stateId":1705,"stateCode":"25","stateName":"Lombardy","countryId":107,"countryCode":"IT","countryName":"Italy","latitude":"45.60998000","longitude":"10.39416000","wikiDataId":"Q18473124"},{"id":137056,"name":"Casei","stateId":1705,"stateCode":"25","stateName":"Lombardy","countryId":107,"countryCode":"IT","countryName":"Italy","latitude":"45.00756000","longitude":"8.92675000","wikiDataId":"Q18492556"},{"id":137060,"name":"Caselle Landi","stateId":1705,"stateCode":"25","stateName":"Lombardy","countryId":107,"countryCode":"IT","countryName":"Italy","latitude":"45.10257000","longitude":"9.79557000","wikiDataId":"Q18501464"},{"id":137061,"name":"Caselle Lurani","stateId":1705,"stateCode":"25","stateName":"Lombardy","countryId":107,"countryCode":"IT","countryName":"Italy","latitude":"45.28044000","longitude":"9.36016000","wikiDataId":"Q18501464"},{"id":137064,"name":"Caseo","stateId":1705,"stateCode":"25","stateName":"Lombardy","countryId":107,"countryCode":"IT","countryName":"Italy","latitude":"44.94369000","longitude":"9.27504000","wikiDataId":"Q18492558"},{"id":137073,"name":"Casirate d'Adda","stateId":1705,"stateCode":"25","stateName":"Lombardy","countryId":107,"countryCode":"IT","countryName":"Italy","latitude":"45.49535000","longitude":"9.56932000","wikiDataId":"Q18498311"},{"id":137074,"name":"Caslino d'Erba","stateId":1705,"stateCode":"25","stateName":"Lombardy","countryId":107,"countryCode":"IT","countryName":"Italy","latitude":"45.83899000","longitude":"9.22554000","wikiDataId":"Q18498311"},{"id":137075,"name":"Casnate Con Bernate","stateId":1705,"stateCode":"25","stateName":"Lombardy","countryId":107,"countryCode":"IT","countryName":"Italy","latitude":"45.75628000","longitude":"9.07264000","wikiDataId":"Q18498311"},{"id":137076,"name":"Casnigo","stateId":1705,"stateCode":"25","stateName":"Lombardy","countryId":107,"countryCode":"IT","countryName":"Italy","latitude":"45.81307000","longitude":"9.86878000","wikiDataId":"Q18498311"},{"id":137084,"name":"Casone","stateId":1705,"stateCode":"25","stateName":"Lombardy","countryId":107,"countryCode":"IT","countryName":"Italy","latitude":"45.49818000","longitude":"8.87635000","wikiDataId":"Q18427985"},{"id":137086,"name":"Casorate Primo","stateId":1705,"stateCode":"25","stateName":"Lombardy","countryId":107,"countryCode":"IT","countryName":"Italy","latitude":"45.31142000","longitude":"9.01703000","wikiDataId":"Q13212147"},{"id":137087,"name":"Casorate Sempione","stateId":1705,"stateCode":"25","stateName":"Lombardy","countryId":107,"countryCode":"IT","countryName":"Italy","latitude":"45.67079000","longitude":"8.74513000","wikiDataId":"Q13212147"},{"id":137088,"name":"Casorezzo","stateId":1705,"stateCode":"25","stateName":"Lombardy","countryId":107,"countryCode":"IT","countryName":"Italy","latitude":"45.52265000","longitude":"8.90186000","wikiDataId":"Q13212147"},{"id":137092,"name":"Caspoggio","stateId":1705,"stateCode":"25","stateName":"Lombardy","countryId":107,"countryCode":"IT","countryName":"Italy","latitude":"46.26424000","longitude":"9.86165000","wikiDataId":"Q13212147"},{"id":137094,"name":"Cassago Brianza","stateId":1705,"stateCode":"25","stateName":"Lombardy","countryId":107,"countryCode":"IT","countryName":"Italy","latitude":"45.73808000","longitude":"9.29344000","wikiDataId":"Q13212147"},{"id":137100,"name":"Cassano d'Adda","stateId":1705,"stateCode":"25","stateName":"Lombardy","countryId":107,"countryCode":"IT","countryName":"Italy","latitude":"45.52637000","longitude":"9.51528000","wikiDataId":"Q13212147"},{"id":137097,"name":"Cassano Magnago","stateId":1705,"stateCode":"25","stateName":"Lombardy","countryId":107,"countryCode":"IT","countryName":"Italy","latitude":"45.67206000","longitude":"8.82691000","wikiDataId":"Q13212147"},{"id":137099,"name":"Cassano Valcuvia","stateId":1705,"stateCode":"25","stateName":"Lombardy","countryId":107,"countryCode":"IT","countryName":"Italy","latitude":"45.93238000","longitude":"8.76843000","wikiDataId":"Q13212147"},{"id":137104,"name":"Cassiglio","stateId":1705,"stateCode":"25","stateName":"Lombardy","countryId":107,"countryCode":"IT","countryName":"Italy","latitude":"45.96679000","longitude":"9.61215000","wikiDataId":"Q1012526"},{"id":137107,"name":"Cassina de' Pecchi","stateId":1705,"stateCode":"25","stateName":"Lombardy","countryId":107,"countryCode":"IT","countryName":"Italy","latitude":"45.51637000","longitude":"9.35975000","wikiDataId":"Q1012526"},{"id":137105,"name":"Cassina Rizzardi","stateId":1705,"stateCode":"25","stateName":"Lombardy","countryId":107,"countryCode":"IT","countryName":"Italy","latitude":"45.75228000","longitude":"9.02454000","wikiDataId":"Q1012526"},{"id":137106,"name":"Cassina Valsassina","stateId":1705,"stateCode":"25","stateName":"Lombardy","countryId":107,"countryCode":"IT","countryName":"Italy","latitude":"45.93209000","longitude":"9.47894000","wikiDataId":"Q1012526"},{"id":137111,"name":"Cassinetta di Lugagnano","stateId":1705,"stateCode":"25","stateName":"Lombardy","countryId":107,"countryCode":"IT","countryName":"Italy","latitude":"45.42247000","longitude":"8.90604000","wikiDataId":"Q1012526"},{"id":137113,"name":"Cassino d'Alberi","stateId":1705,"stateCode":"25","stateName":"Lombardy","countryId":107,"countryCode":"IT","countryName":"Italy","latitude":"45.39208000","longitude":"9.39090000","wikiDataId":"Q3662014"},{"id":137115,"name":"Cassolnovo","stateId":1705,"stateCode":"25","stateName":"Lombardy","countryId":107,"countryCode":"IT","countryName":"Italy","latitude":"45.36106000","longitude":"8.81230000","wikiDataId":"Q3662014"},{"id":137124,"name":"Castana","stateId":1705,"stateCode":"25","stateName":"Lombardy","countryId":107,"countryCode":"IT","countryName":"Italy","latitude":"45.02676000","longitude":"9.27246000","wikiDataId":"Q3662063"},{"id":137126,"name":"Castano Primo","stateId":1705,"stateCode":"25","stateName":"Lombardy","countryId":107,"countryCode":"IT","countryName":"Italy","latitude":"45.55175000","longitude":"8.77562000","wikiDataId":"Q2580352"},{"id":137127,"name":"Casteggio","stateId":1705,"stateCode":"25","stateName":"Lombardy","countryId":107,"countryCode":"IT","countryName":"Italy","latitude":"45.01396000","longitude":"9.12528000","wikiDataId":"Q2580352"},{"id":137128,"name":"Castegnato","stateId":1705,"stateCode":"25","stateName":"Lombardy","countryId":107,"countryCode":"IT","countryName":"Italy","latitude":"45.56129000","longitude":"10.11449000","wikiDataId":"Q2580352"},{"id":137163,"name":"Castel d'Ario","stateId":1705,"stateCode":"25","stateName":"Lombardy","countryId":107,"countryCode":"IT","countryName":"Italy","latitude":"45.18798000","longitude":"10.97449000","wikiDataId":"Q18454463"},{"id":137138,"name":"Castel Gabbiano","stateId":1705,"stateCode":"25","stateName":"Lombardy","countryId":107,"countryCode":"IT","countryName":"Italy","latitude":"45.46847000","longitude":"9.71765000","wikiDataId":"Q18454463"},{"id":137141,"name":"Castel Goffredo","stateId":1705,"stateCode":"25","stateName":"Lombardy","countryId":107,"countryCode":"IT","countryName":"Italy","latitude":"45.29403000","longitude":"10.47300000","wikiDataId":"Q18454463"},{"id":137145,"name":"Castel Mella","stateId":1705,"stateCode":"25","stateName":"Lombardy","countryId":107,"countryCode":"IT","countryName":"Italy","latitude":"45.49913000","longitude":"10.14553000","wikiDataId":"Q18454463"},{"id":137149,"name":"Castel Rozzone","stateId":1705,"stateCode":"25","stateName":"Lombardy","countryId":107,"countryCode":"IT","countryName":"Italy","latitude":"45.55228000","longitude":"9.61985000","wikiDataId":"Q18454463"},{"id":137177,"name":"Castelbelforte","stateId":1705,"stateCode":"25","stateName":"Lombardy","countryId":107,"countryCode":"IT","countryName":"Italy","latitude":"45.21208000","longitude":"10.89249000","wikiDataId":"Q18461236"},{"id":137186,"name":"Castelcovati","stateId":1705,"stateCode":"25","stateName":"Lombardy","countryId":107,"countryCode":"IT","countryName":"Italy","latitude":"45.50198000","longitude":"9.94596000","wikiDataId":"Q3662204"},{"id":137191,"name":"Casteldidone","stateId":1705,"stateCode":"25","stateName":"Lombardy","countryId":107,"countryCode":"IT","countryName":"Italy","latitude":"45.07068000","longitude":"10.40581000","wikiDataId":"Q3662204"},{"id":137219,"name":"Castellanza","stateId":1705,"stateCode":"25","stateName":"Lombardy","countryId":107,"countryCode":"IT","countryName":"Italy","latitude":"45.61079000","longitude":"8.89616000","wikiDataId":"Q18426594"},{"id":137226,"name":"Castelleone","stateId":1705,"stateCode":"25","stateName":"Lombardy","countryId":107,"countryCode":"IT","countryName":"Italy","latitude":"45.29579000","longitude":"9.76091000","wikiDataId":"Q18426594"},{"id":137230,"name":"Castelletto","stateId":1705,"stateCode":"25","stateName":"Lombardy","countryId":107,"countryCode":"IT","countryName":"Italy","latitude":"45.33150000","longitude":"10.23335000","wikiDataId":"Q18473146"},{"id":137241,"name":"Castelletto di Branduzzo","stateId":1705,"stateCode":"25","stateName":"Lombardy","countryId":107,"countryCode":"IT","countryName":"Italy","latitude":"45.06936000","longitude":"9.09845000","wikiDataId":"Q18492603"},{"id":137235,"name":"Castelletto Po","stateId":1705,"stateCode":"25","stateName":"Lombardy","countryId":107,"countryCode":"IT","countryName":"Italy","latitude":"45.06903000","longitude":"9.10056000","wikiDataId":"Q18492603"},{"id":137243,"name":"Castelli Calepio","stateId":1705,"stateCode":"25","stateName":"Lombardy","countryId":107,"countryCode":"IT","countryName":"Italy","latitude":"45.61316000","longitude":"9.88540000","wikiDataId":"Q18492603"},{"id":137251,"name":"Castello","stateId":1705,"stateCode":"25","stateName":"Lombardy","countryId":107,"countryCode":"IT","countryName":"Italy","latitude":"45.56954000","longitude":"10.50861000","wikiDataId":"Q18473147"},{"id":137252,"name":"Castello Cabiaglio","stateId":1705,"stateCode":"25","stateName":"Lombardy","countryId":107,"countryCode":"IT","countryName":"Italy","latitude":"45.89358000","longitude":"8.75763000","wikiDataId":"Q18473147"},{"id":137255,"name":"Castello d'Agogna","stateId":1705,"stateCode":"25","stateName":"Lombardy","countryId":107,"countryCode":"IT","countryName":"Italy","latitude":"45.23456000","longitude":"8.68714000","wikiDataId":"Q18478844"},{"id":137258,"name":"Castello dell'Acqua","stateId":1705,"stateCode":"25","stateName":"Lombardy","countryId":107,"countryCode":"IT","countryName":"Italy","latitude":"46.14549000","longitude":"10.01582000","wikiDataId":"Q18478844"},{"id":137260,"name":"Castello di Brianza","stateId":1705,"stateCode":"25","stateName":"Lombardy","countryId":107,"countryCode":"IT","countryName":"Italy","latitude":"45.75928000","longitude":"9.34535000","wikiDataId":"Q18478844"},{"id":137263,"name":"Castellucchio","stateId":1705,"stateCode":"25","stateName":"Lombardy","countryId":107,"countryCode":"IT","countryName":"Italy","latitude":"45.15038000","longitude":"10.64875000","wikiDataId":"Q18478844"},{"id":137269,"name":"Castelmarte","stateId":1705,"stateCode":"25","stateName":"Lombardy","countryId":107,"countryCode":"IT","countryName":"Italy","latitude":"45.83238000","longitude":"9.23304000","wikiDataId":"Q18471990"},{"id":137276,"name":"Castelnovetto","stateId":1705,"stateCode":"25","stateName":"Lombardy","countryId":107,"countryCode":"IT","countryName":"Italy","latitude":"45.25438000","longitude":"8.61142000","wikiDataId":"Q3663000"},{"id":137284,"name":"Castelnuovo Bocca d'Adda","stateId":1705,"stateCode":"25","stateName":"Lombardy","countryId":107,"countryCode":"IT","countryName":"Italy","latitude":"45.11147000","longitude":"9.86359000","wikiDataId":"Q18506114"},{"id":137286,"name":"Castelnuovo Bozzente","stateId":1705,"stateCode":"25","stateName":"Lombardy","countryId":107,"countryCode":"IT","countryName":"Italy","latitude":"45.76458000","longitude":"8.94354000","wikiDataId":"Q18506114"},{"id":137315,"name":"Castelseprio","stateId":1705,"stateCode":"25","stateName":"Lombardy","countryId":107,"countryCode":"IT","countryName":"Italy","latitude":"45.71372000","longitude":"8.86161000","wikiDataId":"Q3663015"},{"id":137320,"name":"Castelveccana","stateId":1705,"stateCode":"25","stateName":"Lombardy","countryId":107,"countryCode":"IT","countryName":"Italy","latitude":"45.94798000","longitude":"8.66633000","wikiDataId":"Q2163325"},{"id":137325,"name":"Castelverde","stateId":1705,"stateCode":"25","stateName":"Lombardy","countryId":107,"countryCode":"IT","countryName":"Italy","latitude":"45.18753000","longitude":"9.99693000","wikiDataId":"Q2163325"},{"id":137332,"name":"Castelvisconti","stateId":1705,"stateCode":"25","stateName":"Lombardy","countryId":107,"countryCode":"IT","countryName":"Italy","latitude":"45.30537000","longitude":"9.94107000","wikiDataId":"Q2163325"},{"id":137334,"name":"Castenedolo","stateId":1705,"stateCode":"25","stateName":"Lombardy","countryId":107,"countryCode":"IT","countryName":"Italy","latitude":"45.47430000","longitude":"10.29131000","wikiDataId":"Q2163325"},{"id":137348,"name":"Castiglione d'Adda","stateId":1705,"stateCode":"25","stateName":"Lombardy","countryId":107,"countryCode":"IT","countryName":"Italy","latitude":"45.21702000","longitude":"9.69279000","wikiDataId":"Q18457021"},{"id":137349,"name":"Castiglione d'Intelvi","stateId":1705,"stateCode":"25","stateName":"Lombardy","countryId":107,"countryCode":"IT","countryName":"Italy","latitude":"45.95751000","longitude":"9.08987000","wikiDataId":"Q18457021"},{"id":137355,"name":"Castiglione delle Stiviere","stateId":1705,"stateCode":"25","stateName":"Lombardy","countryId":107,"countryCode":"IT","countryName":"Italy","latitude":"45.39020000","longitude":"10.48619000","wikiDataId":"Q18457021"},{"id":137344,"name":"Castiglione Olona","stateId":1705,"stateCode":"25","stateName":"Lombardy","countryId":107,"countryCode":"IT","countryName":"Italy","latitude":"45.75256000","longitude":"8.87278000","wikiDataId":"Q18457021"},{"id":137363,"name":"Castione","stateId":1705,"stateCode":"25","stateName":"Lombardy","countryId":107,"countryCode":"IT","countryName":"Italy","latitude":"46.17287000","longitude":"9.80032000","wikiDataId":"Q18494133"},{"id":137364,"name":"Castione Andevenno","stateId":1705,"stateCode":"25","stateName":"Lombardy","countryId":107,"countryCode":"IT","countryName":"Italy","latitude":"46.17279000","longitude":"9.80025000","wikiDataId":"Q18494133"},{"id":137365,"name":"Castione della Presolana","stateId":1705,"stateCode":"25","stateName":"Lombardy","countryId":107,"countryCode":"IT","countryName":"Italy","latitude":"45.91471000","longitude":"10.05540000","wikiDataId":"Q18494133"},{"id":137368,"name":"Castiraga Vidardo","stateId":1705,"stateCode":"25","stateName":"Lombardy","countryId":107,"countryCode":"IT","countryName":"Italy","latitude":"45.25727000","longitude":"9.40456000","wikiDataId":"Q18448543"},{"id":137369,"name":"Casto","stateId":1705,"stateCode":"25","stateName":"Lombardy","countryId":107,"countryCode":"IT","countryName":"Italy","latitude":"45.69489000","longitude":"10.32117000","wikiDataId":"Q18448543"},{"id":137371,"name":"Castrezzato","stateId":1705,"stateCode":"25","stateName":"Lombardy","countryId":107,"countryCode":"IT","countryName":"Italy","latitude":"45.51128000","longitude":"9.98086000","wikiDataId":"Q18448543"},{"id":137375,"name":"Castro","stateId":1705,"stateCode":"25","stateName":"Lombardy","countryId":107,"countryCode":"IT","countryName":"Italy","latitude":"45.80378000","longitude":"10.06590000","wikiDataId":"Q18448543"},{"id":137383,"name":"Castronno","stateId":1705,"stateCode":"25","stateName":"Lombardy","countryId":107,"countryCode":"IT","countryName":"Italy","latitude":"45.74793000","longitude":"8.81442000","wikiDataId":"Q1947037"},{"id":137390,"name":"Cataeggio","stateId":1705,"stateCode":"25","stateName":"Lombardy","countryId":107,"countryCode":"IT","countryName":"Italy","latitude":"46.21447000","longitude":"9.63781000","wikiDataId":"Q18494139"},{"id":137402,"name":"Cava Manara","stateId":1705,"stateCode":"25","stateName":"Lombardy","countryId":107,"countryCode":"IT","countryName":"Italy","latitude":"45.14014000","longitude":"9.10774000","wikiDataId":"Q18432160"},{"id":137405,"name":"Cavacurta","stateId":1705,"stateCode":"25","stateName":"Lombardy","countryId":107,"countryCode":"IT","countryName":"Italy","latitude":"45.18977000","longitude":"9.74186000","wikiDataId":"Q18429260"},{"id":137414,"name":"Cavallasca","stateId":1705,"stateCode":"25","stateName":"Lombardy","countryId":107,"countryCode":"IT","countryName":"Italy","latitude":"45.80958000","longitude":"9.03284000","wikiDataId":"Q244388"},{"id":137422,"name":"Cavargna","stateId":1705,"stateCode":"25","stateName":"Lombardy","countryId":107,"countryCode":"IT","countryName":"Italy","latitude":"46.09068000","longitude":"9.11205000","wikiDataId":"Q18503180"},{"id":137423,"name":"Cavaria Con Premezzo","stateId":1705,"stateCode":"25","stateName":"Lombardy","countryId":107,"countryCode":"IT","countryName":"Italy","latitude":"45.69247000","longitude":"8.80299000","wikiDataId":"Q18503180"},{"id":137433,"name":"Cavenago d'Adda","stateId":1705,"stateCode":"25","stateName":"Lombardy","countryId":107,"countryCode":"IT","countryName":"Italy","latitude":"45.28253000","longitude":"9.59872000","wikiDataId":"Q18440883"},{"id":137434,"name":"Cavenago di Brianza","stateId":1705,"stateCode":"25","stateName":"Lombardy","countryId":107,"countryCode":"IT","countryName":"Italy","latitude":"45.58297000","longitude":"9.41261000","wikiDataId":"Q18440883"},{"id":137435,"name":"Cavernago","stateId":1705,"stateCode":"25","stateName":"Lombardy","countryId":107,"countryCode":"IT","countryName":"Italy","latitude":"45.62528000","longitude":"9.76556000","wikiDataId":"Q18440883"},{"id":137443,"name":"Cavriana","stateId":1705,"stateCode":"25","stateName":"Lombardy","countryId":107,"countryCode":"IT","countryName":"Italy","latitude":"45.34766000","longitude":"10.59598000","wikiDataId":"Q18429664"},{"id":137445,"name":"Cazzago Brabbia","stateId":1705,"stateCode":"25","stateName":"Lombardy","countryId":107,"countryCode":"IT","countryName":"Italy","latitude":"45.79588000","longitude":"8.73483000","wikiDataId":"Q18429664"},{"id":137446,"name":"Cazzago San Martino-Calino","stateId":1705,"stateCode":"25","stateName":"Lombardy","countryId":107,"countryCode":"IT","countryName":"Italy","latitude":"45.58434000","longitude":"10.02328000","wikiDataId":"Q18473171"},