[{"id":142982,"name":"Adjuntas","stateId":1449,"stateCode":"PR","stateName":"Puerto Rico","countryId":233,"countryCode":"US","countryName":"United States","latitude":"18.16277778","longitude":"-66.72222222","wikiDataId":"Q1864884"},{"id":142983,"name":"Aguada","stateId":1449,"stateCode":"PR","stateName":"Puerto Rico","countryId":233,"countryCode":"US","countryName":"United States","latitude":"18.37944444","longitude":"-67.18833333","wikiDataId":"Q397789"},{"id":142984,"name":"Aguadilla","stateId":1449,"stateCode":"PR","stateName":"Puerto Rico","countryId":233,"countryCode":"US","countryName":"United States","latitude":"18.42745000","longitude":"-67.15407000","wikiDataId":"Q31870764"},{"id":142985,"name":"Aguas Buenas","stateId":1449,"stateCode":"PR","stateName":"Puerto Rico","countryId":233,"countryCode":"US","countryName":"United States","latitude":"18.25694400","longitude":"-66.10305600","wikiDataId":"Q2361568"},{"id":142986,"name":"Aguas Claras","stateId":1449,"stateCode":"PR","stateName":"Puerto Rico","countryId":233,"countryCode":"US","countryName":"United States","latitude":"18.24417000","longitude":"-65.66278000","wikiDataId":"Q2183639"},{"id":142987,"name":"Aguilita","stateId":1449,"stateCode":"PR","stateName":"Puerto Rico","countryId":233,"countryCode":"US","countryName":"United States","latitude":"18.02333333","longitude":"-66.53472222","wikiDataId":"Q31870903"},{"id":142988,"name":"Aibonito","stateId":1449,"stateCode":"PR","stateName":"Puerto Rico","countryId":233,"countryCode":"US","countryName":"United States","latitude":"18.14000000","longitude":"-66.26611100","wikiDataId":"Q2485628"},{"id":142993,"name":"Añasco","stateId":1449,"stateCode":"PR","stateName":"Puerto Rico","countryId":233,"countryCode":"US","countryName":"United States","latitude":"18.31611111","longitude":"-67.13972222","wikiDataId":"Q2390910"},{"id":142989,"name":"Animas","stateId":1449,"stateCode":"PR","stateName":"Puerto Rico","countryId":233,"countryCode":"US","countryName":"United States","latitude":"18.44555556","longitude":"-66.63500000","wikiDataId":"Q31883564"},{"id":142990,"name":"Antón Ruiz","stateId":1449,"stateCode":"PR","stateName":"Puerto Rico","countryId":233,"countryCode":"US","countryName":"United States","latitude":"18.18527778","longitude":"-65.80861111","wikiDataId":"Q49344398"},{"id":142991,"name":"Arecibo","stateId":1449,"stateCode":"PR","stateName":"Puerto Rico","countryId":233,"countryCode":"US","countryName":"United States","latitude":"18.47055556","longitude":"-66.72083333","wikiDataId":"Q640728"},{"id":142992,"name":"Arroyo","stateId":1449,"stateCode":"PR","stateName":"Puerto Rico","countryId":233,"countryCode":"US","countryName":"United States","latitude":"17.96583300","longitude":"-66.06138900","wikiDataId":"Q425678"},{"id":142994,"name":"Bairoa","stateId":1449,"stateCode":"PR","stateName":"Puerto Rico","countryId":233,"countryCode":"US","countryName":"United States","latitude":"18.25916667","longitude":"-66.04055556","wikiDataId":"Q31898821"},{"id":142995,"name":"Bajadero","stateId":1449,"stateCode":"PR","stateName":"Puerto Rico","countryId":233,"countryCode":"US","countryName":"United States","latitude":"18.42666667","longitude":"-66.68333333","wikiDataId":"Q31899220"},{"id":142996,"name":"Bajandas","stateId":1449,"stateCode":"PR","stateName":"Puerto Rico","countryId":233,"countryCode":"US","countryName":"United States","latitude":"18.16278000","longitude":"-65.78167000","wikiDataId":"Q2576863"},{"id":142997,"name":"Barahona","stateId":1449,"stateCode":"PR","stateName":"Puerto Rico","countryId":233,"countryCode":"US","countryName":"United States","latitude":"18.35138889","longitude":"-66.44555556","wikiDataId":"Q31910635"},{"id":142998,"name":"Barceloneta","stateId":1449,"stateCode":"PR","stateName":"Puerto Rico","countryId":233,"countryCode":"US","countryName":"United States","latitude":"18.45633000","longitude":"-66.54128000","wikiDataId":"Q31910864"},{"id":142999,"name":"Barranquitas","stateId":1449,"stateCode":"PR","stateName":"Puerto Rico","countryId":233,"countryCode":"US","countryName":"United States","latitude":"18.20357000","longitude":"-66.31211000","wikiDataId":"Q31911528"},{"id":143000,"name":"Bartolo","stateId":1449,"stateCode":"PR","stateName":"Puerto Rico","countryId":233,"countryCode":"US","countryName":"United States","latitude":"18.36138889","longitude":"-65.83861111","wikiDataId":"Q31911774"},{"id":143001,"name":"Bayamon","stateId":1449,"stateCode":"PR","stateName":"Puerto Rico","countryId":233,"countryCode":"US","countryName":"United States","latitude":"18.17777778","longitude":"-66.11333333","wikiDataId":"Q16089204"},{"id":143002,"name":"Benitez","stateId":1449,"stateCode":"PR","stateName":"Puerto Rico","countryId":233,"countryCode":"US","countryName":"United States","latitude":"18.27361111","longitude":"-65.87916667","wikiDataId":"Q31914150"},{"id":143003,"name":"Betances","stateId":1449,"stateCode":"PR","stateName":"Puerto Rico","countryId":233,"countryCode":"US","countryName":"United States","latitude":"18.02861111","longitude":"-67.13500000","wikiDataId":"Q31915100"},{"id":143004,"name":"Boqueron","stateId":1449,"stateCode":"PR","stateName":"Puerto Rico","countryId":233,"countryCode":"US","countryName":"United States","latitude":"18.20750000","longitude":"-65.84861111","wikiDataId":"Q31924393"},{"id":143005,"name":"Boquerón Cabo Rojo","stateId":1449,"stateCode":"PR","stateName":"Puerto Rico","countryId":233,"countryCode":"US","countryName":"United States","latitude":"18.02691000","longitude":"-67.16907000","wikiDataId":"Q8250813"},{"id":143006,"name":"Brenas","stateId":1449,"stateCode":"PR","stateName":"Puerto Rico","countryId":233,"countryCode":"US","countryName":"United States","latitude":"18.46722222","longitude":"-66.34111111","wikiDataId":"Q31926007"},{"id":143007,"name":"Buena Vista","stateId":1449,"stateCode":"PR","stateName":"Puerto Rico","countryId":233,"countryCode":"US","countryName":"United States","latitude":"17.99638889","longitude":"-66.05194444","wikiDataId":"Q34783838"},{"id":143008,"name":"Bufalo","stateId":1449,"stateCode":"PR","stateName":"Puerto Rico","countryId":233,"countryCode":"US","countryName":"United States","latitude":"18.41833333","longitude":"-66.57333333","wikiDataId":"Q34783857"},{"id":143009,"name":"Caban","stateId":1449,"stateCode":"PR","stateName":"Puerto Rico","countryId":233,"countryCode":"US","countryName":"United States","latitude":"18.44333333","longitude":"-67.13611111","wikiDataId":"Q34789057"},{"id":143010,"name":"Cabo Rojo","stateId":1449,"stateCode":"PR","stateName":"Puerto Rico","countryId":233,"countryCode":"US","countryName":"United States","latitude":"18.08666667","longitude":"-67.14583333","wikiDataId":"Q1019607"},{"id":143011,"name":"Cabo Rojo Municipio","stateId":1449,"stateCode":"PR","stateName":"Puerto Rico","countryId":233,"countryCode":"US","countryName":"United States","latitude":"18.05635000","longitude":"-67.14685000","wikiDataId":"Q33661886"},{"id":143012,"name":"Cacao","stateId":1449,"stateCode":"PR","stateName":"Puerto Rico","countryId":233,"countryCode":"US","countryName":"United States","latitude":"18.44028000","longitude":"-66.93861000","wikiDataId":"Q2522691"},{"id":143013,"name":"Caguas","stateId":1449,"stateCode":"PR","stateName":"Puerto Rico","countryId":233,"countryCode":"US","countryName":"United States","latitude":"18.23333333","longitude":"-66.03333333","wikiDataId":"Q527268"},{"id":143014,"name":"Campanilla","stateId":1449,"stateCode":"PR","stateName":"Puerto Rico","countryId":233,"countryCode":"US","countryName":"United States","latitude":"18.42138889","longitude":"-66.23694444","wikiDataId":"Q34789490"},{"id":143015,"name":"Campo Rico","stateId":1449,"stateCode":"PR","stateName":"Puerto Rico","countryId":233,"countryCode":"US","countryName":"United States","latitude":"18.33722222","longitude":"-65.89805556","wikiDataId":"Q34789558"},{"id":143016,"name":"Camuy","stateId":1449,"stateCode":"PR","stateName":"Puerto Rico","countryId":233,"countryCode":"US","countryName":"United States","latitude":"18.48388900","longitude":"-66.84500000","wikiDataId":"Q2380860"},{"id":143017,"name":"Candelaria","stateId":1449,"stateCode":"PR","stateName":"Puerto Rico","countryId":233,"countryCode":"US","countryName":"United States","latitude":"18.40416667","longitude":"-66.20888889","wikiDataId":"Q34789640"},{"id":143018,"name":"Candelaria Arenas","stateId":1449,"stateCode":"PR","stateName":"Puerto Rico","countryId":233,"countryCode":"US","countryName":"United States","latitude":"18.41722222","longitude":"-66.21750000","wikiDataId":"Q34789645"},{"id":143019,"name":"Candelero Arriba","stateId":1449,"stateCode":"PR","stateName":"Puerto Rico","countryId":233,"countryCode":"US","countryName":"United States","latitude":"18.10560000","longitude":"-65.83420000","wikiDataId":"Q5747332"},{"id":143020,"name":"Canóvanas","stateId":1449,"stateCode":"PR","stateName":"Puerto Rico","countryId":233,"countryCode":"US","countryName":"United States","latitude":"18.37916700","longitude":"-65.90138900","wikiDataId":"Q2361552"},{"id":143021,"name":"Capitanejo","stateId":1449,"stateCode":"PR","stateName":"Puerto Rico","countryId":233,"countryCode":"US","countryName":"United States","latitude":"18.01454000","longitude":"-66.53372000","wikiDataId":"Q34789869"},{"id":143022,"name":"Carolina","stateId":1449,"stateCode":"PR","stateName":"Puerto Rico","countryId":233,"countryCode":"US","countryName":"United States","latitude":"18.38888889","longitude":"-65.96666667","wikiDataId":"Q990293"},{"id":143023,"name":"Carrizales","stateId":1449,"stateCode":"PR","stateName":"Puerto Rico","countryId":233,"countryCode":"US","countryName":"United States","latitude":"18.48194444","longitude":"-66.79000000","wikiDataId":"Q34790110"},{"id":143024,"name":"Cataño","stateId":1449,"stateCode":"PR","stateName":"Puerto Rico","countryId":233,"countryCode":"US","countryName":"United States","latitude":"18.44134000","longitude":"-66.11822000","wikiDataId":"Q49281781"},{"id":143025,"name":"Cayey","stateId":1449,"stateCode":"PR","stateName":"Puerto Rico","countryId":233,"countryCode":"US","countryName":"United States","latitude":"18.11500000","longitude":"-66.16139000","wikiDataId":"Q2020924"},{"id":143026,"name":"Cayuco","stateId":1449,"stateCode":"PR","stateName":"Puerto Rico","countryId":233,"countryCode":"US","countryName":"United States","latitude":"18.29194000","longitude":"-66.73528000","wikiDataId":"Q1966062"},{"id":143027,"name":"Ceiba","stateId":1449,"stateCode":"PR","stateName":"Puerto Rico","countryId":233,"countryCode":"US","countryName":"United States","latitude":"18.44638889","longitude":"-66.35083333","wikiDataId":"Q34790768"},{"id":143028,"name":"Ceiba Municipio","stateId":1449,"stateCode":"PR","stateName":"Puerto Rico","countryId":233,"countryCode":"US","countryName":"United States","latitude":"18.26051000","longitude":"-65.67183000","wikiDataId":"Q33662631"},{"id":143029,"name":"Celada","stateId":1449,"stateCode":"PR","stateName":"Puerto Rico","countryId":233,"countryCode":"US","countryName":"United States","latitude":"18.27166667","longitude":"-65.96611111","wikiDataId":"Q34790783"},{"id":143030,"name":"Central Aguirre","stateId":1449,"stateCode":"PR","stateName":"Puerto Rico","countryId":233,"countryCode":"US","countryName":"United States","latitude":"17.95472000","longitude":"-66.22611000","wikiDataId":"Q2153956"},{"id":143031,"name":"Ciales","stateId":1449,"stateCode":"PR","stateName":"Puerto Rico","countryId":233,"countryCode":"US","countryName":"United States","latitude":"18.33611100","longitude":"-66.46888900","wikiDataId":"Q2485522"},{"id":143032,"name":"Ciales Municipio","stateId":1449,"stateCode":"PR","stateName":"Puerto Rico","countryId":233,"countryCode":"US","countryName":"United States","latitude":"18.29162000","longitude":"-66.51628000","wikiDataId":"Q33664100"},{"id":143033,"name":"Cidra","stateId":1449,"stateCode":"PR","stateName":"Puerto Rico","countryId":233,"countryCode":"US","countryName":"United States","latitude":"18.17583333","longitude":"-66.16138889","wikiDataId":"Q2485552"},{"id":143034,"name":"Coamo","stateId":1449,"stateCode":"PR","stateName":"Puerto Rico","countryId":233,"countryCode":"US","countryName":"United States","latitude":"18.08000000","longitude":"-66.35805556","wikiDataId":"Q1942303"},{"id":143035,"name":"Coco","stateId":1449,"stateCode":"PR","stateName":"Puerto Rico","countryId":233,"countryCode":"US","countryName":"United States","latitude":"18.00722222","longitude":"-66.25944444","wikiDataId":"Q34795892"},{"id":143036,"name":"Comerío","stateId":1449,"stateCode":"PR","stateName":"Puerto Rico","countryId":233,"countryCode":"US","countryName":"United States","latitude":"18.21801000","longitude":"-66.22600000","wikiDataId":"Q2222328"},{"id":143037,"name":"Comerío Municipio","stateId":1449,"stateCode":"PR","stateName":"Puerto Rico","countryId":233,"countryCode":"US","countryName":"United States","latitude":"18.22718000","longitude":"-66.22183000","wikiDataId":"Q33664493"},{"id":143038,"name":"Comunas","stateId":1449,"stateCode":"PR","stateName":"Puerto Rico","countryId":233,"countryCode":"US","countryName":"United States","latitude":"18.08722222","longitude":"-65.84388889","wikiDataId":"Q34796281"},{"id":143039,"name":"Coquí","stateId":1449,"stateCode":"PR","stateName":"Puerto Rico","countryId":233,"countryCode":"US","countryName":"United States","latitude":"17.97416667","longitude":"-66.22722222","wikiDataId":"Q34796531"},{"id":143040,"name":"Corazón","stateId":1449,"stateCode":"PR","stateName":"Puerto Rico","countryId":233,"countryCode":"US","countryName":"United States","latitude":"17.99277778","longitude":"-66.08500000","wikiDataId":"Q34796542"},{"id":143041,"name":"Corcovado","stateId":1449,"stateCode":"PR","stateName":"Puerto Rico","countryId":233,"countryCode":"US","countryName":"United States","latitude":"18.45861111","longitude":"-66.77638889","wikiDataId":"Q34796560"},{"id":143042,"name":"Corozal","stateId":1449,"stateCode":"PR","stateName":"Puerto Rico","countryId":233,"countryCode":"US","countryName":"United States","latitude":"18.34166667","longitude":"-66.31694444","wikiDataId":"Q1884385"},{"id":143043,"name":"Corozal Municipio","stateId":1449,"stateCode":"PR","stateName":"Puerto Rico","countryId":233,"countryCode":"US","countryName":"United States","latitude":"18.30912000","longitude":"-66.32600000","wikiDataId":"Q33669445"},{"id":143044,"name":"Coto Laurel","stateId":1449,"stateCode":"PR","stateName":"Puerto Rico","countryId":233,"countryCode":"US","countryName":"United States","latitude":"18.04969000","longitude":"-66.55128000","wikiDataId":"Q5175410"},{"id":143045,"name":"Coto Norte","stateId":1449,"stateCode":"PR","stateName":"Puerto Rico","countryId":233,"countryCode":"US","countryName":"United States","latitude":"18.43078000","longitude":"-66.43989000","wikiDataId":"Q5790217"},{"id":143046,"name":"Culebra","stateId":1449,"stateCode":"PR","stateName":"Puerto Rico","countryId":233,"countryCode":"US","countryName":"United States","latitude":"18.31666667","longitude":"-65.29027778","wikiDataId":"Q775056"},{"id":143047,"name":"Culebra barrio-pueblo","stateId":1449,"stateCode":"PR","stateName":"Puerto Rico","countryId":233,"countryCode":"US","countryName":"United States","latitude":"18.30646950","longitude":"-65.30258000","wikiDataId":"Q5192898"},{"id":143048,"name":"Daguao","stateId":1449,"stateCode":"PR","stateName":"Puerto Rico","countryId":233,"countryCode":"US","countryName":"United States","latitude":"18.22638889","longitude":"-65.68333333","wikiDataId":"Q34799944"},{"id":143049,"name":"Dorado","stateId":1449,"stateCode":"PR","stateName":"Puerto Rico","countryId":233,"countryCode":"US","countryName":"United States","latitude":"18.45888900","longitude":"-66.26777800","wikiDataId":"Q2217567"},{"id":143050,"name":"Dorado Municipio","stateId":1449,"stateCode":"PR","stateName":"Puerto Rico","countryId":233,"countryCode":"US","countryName":"United States","latitude":"18.43967000","longitude":"-66.28295000","wikiDataId":"Q33671013"},{"id":143051,"name":"El Mangó","stateId":1449,"stateCode":"PR","stateName":"Puerto Rico","countryId":233,"countryCode":"US","countryName":"United States","latitude":"18.23416667","longitude":"-65.87972222","wikiDataId":"Q49349586"},{"id":143052,"name":"El Negro","stateId":1449,"stateCode":"PR","stateName":"Puerto Rico","countryId":233,"countryCode":"US","countryName":"United States","latitude":"18.03750000","longitude":"-65.85138889","wikiDataId":"Q49349590"},{"id":143053,"name":"El Ojo","stateId":1449,"stateCode":"PR","stateName":"Puerto Rico","countryId":233,"countryCode":"US","countryName":"United States","latitude":"18.00388889","longitude":"-66.39166667","wikiDataId":"Q49349593"},{"id":143054,"name":"Emajagua","stateId":1449,"stateCode":"PR","stateName":"Puerto Rico","countryId":233,"countryCode":"US","countryName":"United States","latitude":"18.00055556","longitude":"-65.88277778","wikiDataId":"Q49349689"},{"id":143055,"name":"Esperanza","stateId":1449,"stateCode":"PR","stateName":"Puerto Rico","countryId":233,"countryCode":"US","countryName":"United States","latitude":"18.09722222","longitude":"-65.47083333","wikiDataId":"Q49349835"},{"id":143056,"name":"Espino","stateId":1449,"stateCode":"PR","stateName":"Puerto Rico","countryId":233,"countryCode":"US","countryName":"United States","latitude":"18.27638889","longitude":"-67.11944444","wikiDataId":"Q49349839"},{"id":143057,"name":"Estancias de Florida","stateId":1449,"stateCode":"PR","stateName":"Puerto Rico","countryId":233,"countryCode":"US","countryName":"United States","latitude":"18.36666667","longitude":"-66.56972222","wikiDataId":"Q49349858"},{"id":143058,"name":"Fajardo","stateId":1449,"stateCode":"PR","stateName":"Puerto Rico","countryId":233,"countryCode":"US","countryName":"United States","latitude":"18.32579000","longitude":"-65.65238000","wikiDataId":"Q542833"},{"id":143059,"name":"Fajardo Municipio","stateId":1449,"stateCode":"PR","stateName":"Puerto Rico","countryId":233,"countryCode":"US","countryName":"United States","latitude":"18.31051000","longitude":"-65.67600000","wikiDataId":"Q33672676"},{"id":143060,"name":"Florida","stateId":1449,"stateCode":"PR","stateName":"Puerto Rico","countryId":233,"countryCode":"US","countryName":"United States","latitude":"18.36495300","longitude":"-66.56616100","wikiDataId":"Q2271950"},{"id":143061,"name":"Franquez","stateId":1449,"stateCode":"PR","stateName":"Puerto Rico","countryId":233,"countryCode":"US","countryName":"United States","latitude":"18.34027778","longitude":"-66.42777778","wikiDataId":"Q49350514"},{"id":143062,"name":"Fuig","stateId":1449,"stateCode":"PR","stateName":"Puerto Rico","countryId":233,"countryCode":"US","countryName":"United States","latitude":"17.98777778","longitude":"-66.91611111","wikiDataId":"Q49350633"},{"id":143063,"name":"G. L. Garcia","stateId":1449,"stateCode":"PR","stateName":"Puerto Rico","countryId":233,"countryCode":"US","countryName":"United States","latitude":"18.12750000","longitude":"-66.10416667","wikiDataId":"Q49350739"},{"id":143064,"name":"Galateo","stateId":1449,"stateCode":"PR","stateName":"Puerto Rico","countryId":233,"countryCode":"US","countryName":"United States","latitude":"18.36250000","longitude":"-66.25888889","wikiDataId":"Q49350804"},{"id":143065,"name":"Garrochales","stateId":1449,"stateCode":"PR","stateName":"Puerto Rico","countryId":233,"countryCode":"US","countryName":"United States","latitude":"18.45361111","longitude":"-66.56638889","wikiDataId":"Q49350991"},{"id":143073,"name":"Guánica","stateId":1449,"stateCode":"PR","stateName":"Puerto Rico","countryId":233,"countryCode":"US","countryName":"United States","latitude":"17.97166667","longitude":"-66.90805556","wikiDataId":"Q1019645"},{"id":143074,"name":"Guánica Municipio","stateId":1449,"stateCode":"PR","stateName":"Puerto Rico","countryId":233,"countryCode":"US","countryName":"United States","latitude":"17.98830000","longitude":"-66.91212000","wikiDataId":"Q33678018"},{"id":143066,"name":"Guayabal","stateId":1449,"stateCode":"PR","stateName":"Puerto Rico","countryId":233,"countryCode":"US","countryName":"United States","latitude":"18.08138889","longitude":"-66.50138889","wikiDataId":"Q49352637"},{"id":143067,"name":"Guayama","stateId":1449,"stateCode":"PR","stateName":"Puerto Rico","countryId":233,"countryCode":"US","countryName":"United States","latitude":"17.99361111","longitude":"-66.13083333","wikiDataId":"Q1870997"},{"id":143068,"name":"Guayama Municipio","stateId":1449,"stateCode":"PR","stateName":"Puerto Rico","countryId":233,"countryCode":"US","countryName":"United States","latitude":"18.01663000","longitude":"-66.13072000","wikiDataId":"Q33677806"},{"id":143069,"name":"Guayanilla","stateId":1449,"stateCode":"PR","stateName":"Puerto Rico","countryId":233,"countryCode":"US","countryName":"United States","latitude":"18.01916667","longitude":"-66.79194444","wikiDataId":"Q2333093"},{"id":143070,"name":"Guaynabo","stateId":1449,"stateCode":"PR","stateName":"Puerto Rico","countryId":233,"countryCode":"US","countryName":"United States","latitude":"18.36666667","longitude":"-66.10000000","wikiDataId":"Q590060"},{"id":143071,"name":"Gurabo","stateId":1449,"stateCode":"PR","stateName":"Puerto Rico","countryId":233,"countryCode":"US","countryName":"United States","latitude":"18.25440000","longitude":"-65.97294000","wikiDataId":"Q2159630"},{"id":143072,"name":"Gurabo Municipio","stateId":1449,"stateCode":"PR","stateName":"Puerto Rico","countryId":233,"countryCode":"US","countryName":"United States","latitude":"18.27162000","longitude":"-65.97183000","wikiDataId":"Q33677990"},{"id":143075,"name":"H. Rivera Colon","stateId":1449,"stateCode":"PR","stateName":"Puerto Rico","countryId":233,"countryCode":"US","countryName":"United States","latitude":"18.34777778","longitude":"-66.27388889","wikiDataId":"Q49353197"},{"id":143076,"name":"Hatillo","stateId":1449,"stateCode":"PR","stateName":"Puerto Rico","countryId":233,"countryCode":"US","countryName":"United States","latitude":"18.48633000","longitude":"-66.82545000","wikiDataId":"Q2412723"},{"id":143077,"name":"Hatillo Municipio","stateId":1449,"stateCode":"PR","stateName":"Puerto Rico","countryId":233,"countryCode":"US","countryName":"United States","latitude":"18.40773000","longitude":"-66.79323000","wikiDataId":"Q33679172"},{"id":143078,"name":"Hato Arriba","stateId":1449,"stateCode":"PR","stateName":"Puerto Rico","countryId":233,"countryCode":"US","countryName":"United States","latitude":"18.35583333","longitude":"-67.03416667","wikiDataId":"Q49353499"},{"id":143079,"name":"Hato Candal","stateId":1449,"stateCode":"PR","stateName":"Puerto Rico","countryId":233,"countryCode":"US","countryName":"United States","latitude":"18.37444444","longitude":"-65.78722222","wikiDataId":"Q49353500"},{"id":143080,"name":"Hormigueros","stateId":1449,"stateCode":"PR","stateName":"Puerto Rico","countryId":233,"countryCode":"US","countryName":"United States","latitude":"18.13968000","longitude":"-67.12740000","wikiDataId":"Q2361536"},{"id":143081,"name":"Hormigueros Municipio","stateId":1449,"stateCode":"PR","stateName":"Puerto Rico","countryId":233,"countryCode":"US","countryName":"United States","latitude":"18.14162000","longitude":"-67.11629000","wikiDataId":"Q33679620"},{"id":143082,"name":"Humacao","stateId":1449,"stateCode":"PR","stateName":"Puerto Rico","countryId":233,"countryCode":"US","countryName":"United States","latitude":"18.14972200","longitude":"-65.82750000","wikiDataId":"Q2307535"},{"id":143083,"name":"Imbery","stateId":1449,"stateCode":"PR","stateName":"Puerto Rico","countryId":233,"countryCode":"US","countryName":"United States","latitude":"18.43694444","longitude":"-66.55250000","wikiDataId":"Q49354377"},{"id":143084,"name":"Indios","stateId":1449,"stateCode":"PR","stateName":"Puerto Rico","countryId":233,"countryCode":"US","countryName":"United States","latitude":"17.99416667","longitude":"-66.81944444","wikiDataId":"Q49354436"},{"id":143085,"name":"Ingenio","stateId":1449,"stateCode":"PR","stateName":"Puerto Rico","countryId":233,"countryCode":"US","countryName":"United States","latitude":"18.44222222","longitude":"-66.22611111","wikiDataId":"Q49354445"},{"id":143086,"name":"Isabel Segunda","stateId":1449,"stateCode":"PR","stateName":"Puerto Rico","countryId":233,"countryCode":"US","countryName":"United States","latitude":"18.14916667","longitude":"-65.44277778","wikiDataId":"Q3802238"},{"id":143087,"name":"Isabela","stateId":1449,"stateCode":"PR","stateName":"Puerto Rico","countryId":233,"countryCode":"US","countryName":"United States","latitude":"18.51305556","longitude":"-67.07000000","wikiDataId":"Q2307520"},{"id":143088,"name":"Jagual","stateId":1449,"stateCode":"PR","stateName":"Puerto Rico","countryId":233,"countryCode":"US","countryName":"United States","latitude":"18.16166667","longitude":"-65.99555556","wikiDataId":"Q49354832"},{"id":143089,"name":"Jauca","stateId":1449,"stateCode":"PR","stateName":"Puerto Rico","countryId":233,"countryCode":"US","countryName":"United States","latitude":"17.96916667","longitude":"-66.36583333","wikiDataId":"Q49355203"},{"id":143090,"name":"Jayuya","stateId":1449,"stateCode":"PR","stateName":"Puerto Rico","countryId":233,"countryCode":"US","countryName":"United States","latitude":"18.21861100","longitude":"-66.59166700","wikiDataId":"Q2095818"},{"id":143091,"name":"Jobos","stateId":1449,"stateCode":"PR","stateName":"Puerto Rico","countryId":233,"countryCode":"US","countryName":"United States","latitude":"17.95527778","longitude":"-66.16555556","wikiDataId":"Q49355521"},{"id":143092,"name":"Juana Díaz","stateId":1449,"stateCode":"PR","stateName":"Puerto Rico","countryId":233,"countryCode":"US","countryName":"United States","latitude":"18.05246000","longitude":"-66.50656000","wikiDataId":"Q2361577"},{"id":143093,"name":"Juana Díaz Municipio","stateId":1449,"stateCode":"PR","stateName":"Puerto Rico","countryId":233,"countryCode":"US","countryName":"United States","latitude":"18.04802000","longitude":"-66.49267000","wikiDataId":"Q33682154"},{"id":143094,"name":"Juncal","stateId":1449,"stateCode":"PR","stateName":"Puerto Rico","countryId":233,"countryCode":"US","countryName":"United States","latitude":"18.31388889","longitude":"-66.91916667","wikiDataId":"Q49355635"},{"id":143095,"name":"Juncos","stateId":1449,"stateCode":"PR","stateName":"Puerto Rico","countryId":233,"countryCode":"US","countryName":"United States","latitude":"18.22750000","longitude":"-65.92111100","wikiDataId":"Q2347667"},{"id":143096,"name":"La Alianza","stateId":1449,"stateCode":"PR","stateName":"Puerto Rico","countryId":233,"countryCode":"US","countryName":"United States","latitude":"18.39750000","longitude":"-66.60250000","wikiDataId":"Q35707315"},{"id":143097,"name":"La Dolores","stateId":1449,"stateCode":"PR","stateName":"Puerto Rico","countryId":233,"countryCode":"US","countryName":"United States","latitude":"18.37555556","longitude":"-65.85583333","wikiDataId":"Q1962281"},{"id":143098,"name":"La Fermina","stateId":1449,"stateCode":"PR","stateName":"Puerto Rico","countryId":233,"countryCode":"US","countryName":"United States","latitude":"18.17417000","longitude":"-65.85139000","wikiDataId":"Q2703185"},{"id":143099,"name":"La Luisa","stateId":1449,"stateCode":"PR","stateName":"Puerto Rico","countryId":233,"countryCode":"US","countryName":"United States","latitude":"18.44888889","longitude":"-66.51000000","wikiDataId":"Q35708925"},{"id":143100,"name":"La Parguera","stateId":1449,"stateCode":"PR","stateName":"Puerto Rico","countryId":233,"countryCode":"US","countryName":"United States","latitude":"17.97497000","longitude":"-67.04657000","wikiDataId":"Q1833442"},{"id":143101,"name":"La Playa","stateId":1449,"stateCode":"PR","stateName":"Puerto Rico","countryId":233,"countryCode":"US","countryName":"United States","latitude":"18.28750000","longitude":"-67.18694444","wikiDataId":"Q35709294"},{"id":143102,"name":"La Plena","stateId":1449,"stateCode":"PR","stateName":"Puerto Rico","countryId":233,"countryCode":"US","countryName":"United States","latitude":"18.04663000","longitude":"-66.20461000","wikiDataId":"Q1824355"},{"id":143103,"name":"Lajas","stateId":1449,"stateCode":"PR","stateName":"Puerto Rico","countryId":233,"countryCode":"US","countryName":"United States","latitude":"18.05193889","longitude":"-67.05971944","wikiDataId":"Q1832296"},{"id":143104,"name":"Lajas Municipio","stateId":1449,"stateCode":"PR","stateName":"Puerto Rico","countryId":233,"countryCode":"US","countryName":"United States","latitude":"18.01330000","longitude":"-67.03990000","wikiDataId":"Q33689042"},{"id":143105,"name":"Lamboglia","stateId":1449,"stateCode":"PR","stateName":"Puerto Rico","countryId":233,"countryCode":"US","countryName":"United States","latitude":"17.98136000","longitude":"-65.98572000","wikiDataId":"Q2305796"},{"id":143106,"name":"Lares","stateId":1449,"stateCode":"PR","stateName":"Puerto Rico","countryId":233,"countryCode":"US","countryName":"United States","latitude":"18.29467000","longitude":"-66.87712000","wikiDataId":"Q1026894"},{"id":143107,"name":"Las Marias","stateId":1449,"stateCode":"PR","stateName":"Puerto Rico","countryId":233,"countryCode":"US","countryName":"United States","latitude":"18.29333333","longitude":"-67.14638889","wikiDataId":"Q35712183"},{"id":143108,"name":"Las Marías Municipio","stateId":1449,"stateCode":"PR","stateName":"Puerto Rico","countryId":233,"countryCode":"US","countryName":"United States","latitude":"18.25087000","longitude":"-66.99240000","wikiDataId":"Q33689352"},{"id":143109,"name":"Las Ochenta","stateId":1449,"stateCode":"PR","stateName":"Puerto Rico","countryId":233,"countryCode":"US","countryName":"United States","latitude":"17.98469000","longitude":"-66.31795000","wikiDataId":"Q1864598"},{"id":143110,"name":"Las Ollas","stateId":1449,"stateCode":"PR","stateName":"Puerto Rico","countryId":233,"countryCode":"US","countryName":"United States","latitude":"18.03305556","longitude":"-66.42444444","wikiDataId":"Q35712198"},{"id":143111,"name":"Las Piedras","stateId":1449,"stateCode":"PR","stateName":"Puerto Rico","countryId":233,"countryCode":"US","countryName":"United States","latitude":"18.18301000","longitude":"-65.86627000","wikiDataId":"Q969918"},{"id":143112,"name":"Las Piedras Municipio","stateId":1449,"stateCode":"PR","stateName":"Puerto Rico","countryId":233,"countryCode":"US","countryName":"United States","latitude":"18.18829000","longitude":"-65.87044000","wikiDataId":"Q33689379"},{"id":143113,"name":"Levittown","stateId":1449,"stateCode":"PR","stateName":"Puerto Rico","countryId":233,"countryCode":"US","countryName":"United States","latitude":"18.44861111","longitude":"-66.18027778","wikiDataId":"Q2704021"},{"id":143114,"name":"Liborio Negron Torres","stateId":1449,"stateCode":"PR","stateName":"Puerto Rico","countryId":233,"countryCode":"US","countryName":"United States","latitude":"18.04305556","longitude":"-66.94250000","wikiDataId":"Q35716774"},{"id":143115,"name":"Lluveras","stateId":1449,"stateCode":"PR","stateName":"Puerto Rico","countryId":233,"countryCode":"US","countryName":"United States","latitude":"18.03833333","longitude":"-66.90472222","wikiDataId":"Q35718582"},{"id":143118,"name":"Loíza","stateId":1449,"stateCode":"PR","stateName":"Puerto Rico","countryId":233,"countryCode":"US","countryName":"United States","latitude":"18.43134000","longitude":"-65.88016000","wikiDataId":"Q49286092"},{"id":143116,"name":"Lomas","stateId":1449,"stateCode":"PR","stateName":"Puerto Rico","countryId":233,"countryCode":"US","countryName":"United States","latitude":"18.26861111","longitude":"-65.90888889","wikiDataId":"Q35718974"},{"id":143117,"name":"Los Llanos","stateId":1449,"stateCode":"PR","stateName":"Puerto Rico","countryId":233,"countryCode":"US","countryName":"United States","latitude":"18.05527778","longitude":"-66.40583333","wikiDataId":"Q35719422"},{"id":143119,"name":"Luis Lloréns Torres","stateId":1449,"stateCode":"PR","stateName":"Puerto Rico","countryId":233,"countryCode":"US","countryName":"United States","latitude":"18.05691000","longitude":"-66.52684000","wikiDataId":"Q2777383"},{"id":143120,"name":"Luis M. Cintron","stateId":1449,"stateCode":"PR","stateName":"Puerto Rico","countryId":233,"countryCode":"US","countryName":"United States","latitude":"18.29972222","longitude":"-65.63861111","wikiDataId":"Q35720963"},{"id":143121,"name":"Luquillo","stateId":1449,"stateCode":"PR","stateName":"Puerto Rico","countryId":233,"countryCode":"US","countryName":"United States","latitude":"18.37250000","longitude":"-65.71666667","wikiDataId":"Q1984618"},{"id":143122,"name":"Luquillo Municipio","stateId":1449,"stateCode":"PR","stateName":"Puerto Rico","countryId":233,"countryCode":"US","countryName":"United States","latitude":"18.33967000","longitude":"-65.72461000","wikiDataId":"Q33691744"},{"id":143123,"name":"Luyando","stateId":1449,"stateCode":"PR","stateName":"Puerto Rico","countryId":233,"countryCode":"US","countryName":"United States","latitude":"18.36444444","longitude":"-67.15750000","wikiDataId":"Q35721490"},{"id":143124,"name":"Magas Arriba","stateId":1449,"stateCode":"PR","stateName":"Puerto Rico","countryId":233,"countryCode":"US","countryName":"United States","latitude":"18.01750000","longitude":"-66.76916667","wikiDataId":"Q35722423"},{"id":143125,"name":"Manatí","stateId":1449,"stateCode":"PR","stateName":"Puerto Rico","countryId":233,"countryCode":"US","countryName":"United States","latitude":"18.43250000","longitude":"-66.48444444","wikiDataId":"Q674599"},{"id":143126,"name":"Maria Antonia","stateId":1449,"stateCode":"PR","stateName":"Puerto Rico","countryId":233,"countryCode":"US","countryName":"United States","latitude":"17.97833333","longitude":"-66.88944444","wikiDataId":"Q35724741"},{"id":143127,"name":"Mariano Colón","stateId":1449,"stateCode":"PR","stateName":"Puerto Rico","countryId":233,"countryCode":"US","countryName":"United States","latitude":"18.02333333","longitude":"-66.33250000","wikiDataId":"Q35724772"},{"id":143128,"name":"Maricao","stateId":1449,"stateCode":"PR","stateName":"Puerto Rico","countryId":233,"countryCode":"US","countryName":"United States","latitude":"18.18083300","longitude":"-66.98000000","wikiDataId":"Q2624359"},{"id":143129,"name":"Maricao Municipio","stateId":1449,"stateCode":"PR","stateName":"Puerto Rico","countryId":233,"countryCode":"US","countryName":"United States","latitude":"18.17301000","longitude":"-66.94546000","wikiDataId":"Q33692558"},{"id":143130,"name":"Martorell","stateId":1449,"stateCode":"PR","stateName":"Puerto Rico","countryId":233,"countryCode":"US","countryName":"United States","latitude":"18.07472000","longitude":"-65.89861000","wikiDataId":"Q13817223"},{"id":143131,"name":"Marueño","stateId":1449,"stateCode":"PR","stateName":"Puerto Rico","countryId":233,"countryCode":"US","countryName":"United States","latitude":"18.05772000","longitude":"-66.65603000","wikiDataId":"Q35725607"},{"id":143132,"name":"Maunabo","stateId":1449,"stateCode":"PR","stateName":"Puerto Rico","countryId":233,"countryCode":"US","countryName":"United States","latitude":"18.00719000","longitude":"-65.89933000","wikiDataId":"Q967149"},{"id":143133,"name":"Maunabo Municipio","stateId":1449,"stateCode":"PR","stateName":"Puerto Rico","countryId":233,"countryCode":"US","countryName":"United States","latitude":"18.01691000","longitude":"-65.92738000","wikiDataId":"Q33692875"},{"id":143134,"name":"Mayagüez","stateId":1449,"stateCode":"PR","stateName":"Puerto Rico","countryId":233,"countryCode":"US","countryName":"United States","latitude":"18.20111111","longitude":"-67.13972222","wikiDataId":"Q632727"},{"id":143135,"name":"Miranda","stateId":1449,"stateCode":"PR","stateName":"Puerto Rico","countryId":233,"countryCode":"US","countryName":"United States","latitude":"18.38666667","longitude":"-66.38388889","wikiDataId":"Q35730376"},{"id":143136,"name":"Moca","stateId":1449,"stateCode":"PR","stateName":"Puerto Rico","countryId":233,"countryCode":"US","countryName":"United States","latitude":"18.39467000","longitude":"-67.11324000","wikiDataId":"Q2288079"},{"id":143137,"name":"Moca Municipio","stateId":1449,"stateCode":"PR","stateName":"Puerto Rico","countryId":233,"countryCode":"US","countryName":"United States","latitude":"18.38550000","longitude":"-67.08435000","wikiDataId":"Q33694327"},{"id":143138,"name":"Monserrate","stateId":1449,"stateCode":"PR","stateName":"Puerto Rico","countryId":233,"countryCode":"US","countryName":"United States","latitude":"18.43694000","longitude":"-66.35639000","wikiDataId":"Q1880027"},{"id":143139,"name":"Monte Grande","stateId":1449,"stateCode":"PR","stateName":"Puerto Rico","countryId":233,"countryCode":"US","countryName":"United States","latitude":"18.08750000","longitude":"-67.10750000","wikiDataId":"Q35732671"},{"id":143140,"name":"Mora","stateId":1449,"stateCode":"PR","stateName":"Puerto Rico","countryId":233,"countryCode":"US","countryName":"United States","latitude":"18.46305556","longitude":"-67.03277778","wikiDataId":"Q35733615"},{"id":143141,"name":"Morovis","stateId":1449,"stateCode":"PR","stateName":"Puerto Rico","countryId":233,"countryCode":"US","countryName":"United States","latitude":"18.33333333","longitude":"-66.41666667","wikiDataId":"Q2623982"},{"id":143142,"name":"Mucarabones","stateId":1449,"stateCode":"PR","stateName":"Puerto Rico","countryId":233,"countryCode":"US","countryName":"United States","latitude":"18.39083333","longitude":"-66.21611111","wikiDataId":"Q35735404"},{"id":143143,"name":"Naguabo","stateId":1449,"stateCode":"PR","stateName":"Puerto Rico","countryId":233,"countryCode":"US","countryName":"United States","latitude":"18.21944444","longitude":"-65.73666667","wikiDataId":"Q2659720"},{"id":143144,"name":"Naguabo Municipio","stateId":1449,"stateCode":"PR","stateName":"Puerto Rico","countryId":233,"countryCode":"US","countryName":"United States","latitude":"18.23135000","longitude":"-65.75988000","wikiDataId":"Q33696459"},{"id":143145,"name":"Naranjito","stateId":1449,"stateCode":"PR","stateName":"Puerto Rico","countryId":233,"countryCode":"US","countryName":"United States","latitude":"18.30083300","longitude":"-66.24500000","wikiDataId":"Q2623972"},{"id":143146,"name":"Naranjito Municipio","stateId":1449,"stateCode":"PR","stateName":"Puerto Rico","countryId":233,"countryCode":"US","countryName":"United States","latitude":"18.28968000","longitude":"-66.25517000","wikiDataId":"Q33696655"},{"id":143147,"name":"Olimpo","stateId":1449,"stateCode":"PR","stateName":"Puerto Rico","countryId":233,"countryCode":"US","countryName":"United States","latitude":"18.00194444","longitude":"-66.10833333","wikiDataId":"Q49358930"},{"id":143148,"name":"Orocovis","stateId":1449,"stateCode":"PR","stateName":"Puerto Rico","countryId":233,"countryCode":"US","countryName":"United States","latitude":"18.22694400","longitude":"-66.39111100","wikiDataId":"Q2624345"},{"id":143149,"name":"Orocovis Municipio","stateId":1449,"stateCode":"PR","stateName":"Puerto Rico","countryId":233,"countryCode":"US","countryName":"United States","latitude":"18.21885000","longitude":"-66.43712000","wikiDataId":"Q33704249"},{"id":143174,"name":"Pájaros","stateId":1449,"stateCode":"PR","stateName":"Puerto Rico","countryId":233,"countryCode":"US","countryName":"United States","latitude":"18.37592060","longitude":"-66.18625500","wikiDataId":"Q2100260"},{"id":143150,"name":"Pajonal","stateId":1449,"stateCode":"PR","stateName":"Puerto Rico","countryId":233,"countryCode":"US","countryName":"United States","latitude":"18.38222222","longitude":"-66.55583333","wikiDataId":"Q49359801"},{"id":143151,"name":"Palmarejo","stateId":1449,"stateCode":"PR","stateName":"Puerto Rico","countryId":233,"countryCode":"US","countryName":"United States","latitude":"18.04027778","longitude":"-67.07694444","wikiDataId":"Q49359848"},{"id":143152,"name":"Palmas","stateId":1449,"stateCode":"PR","stateName":"Puerto Rico","countryId":233,"countryCode":"US","countryName":"United States","latitude":"17.98722222","longitude":"-66.02555556","wikiDataId":"Q49359849"},{"id":143153,"name":"Palmer","stateId":1449,"stateCode":"PR","stateName":"Puerto Rico","countryId":233,"countryCode":"US","countryName":"United States","latitude":"18.37055556","longitude":"-65.77416667","wikiDataId":"Q49359860"},{"id":143154,"name":"Palo Seco","stateId":1449,"stateCode":"PR","stateName":"Puerto Rico","countryId":233,"countryCode":"US","countryName":"United States","latitude":"18.00747000","longitude":"-65.93683000","wikiDataId":"Q2438070"},{"id":143155,"name":"Palomas","stateId":1449,"stateCode":"PR","stateName":"Puerto Rico","countryId":233,"countryCode":"US","countryName":"United States","latitude":"18.01361111","longitude":"-66.87333333","wikiDataId":"Q49359871"},{"id":143156,"name":"Parcelas La Milagrosa","stateId":1449,"stateCode":"PR","stateName":"Puerto Rico","countryId":233,"countryCode":"US","countryName":"United States","latitude":"18.17083333","longitude":"-66.18833333","wikiDataId":"Q49359979"},{"id":143157,"name":"Parcelas Nuevas","stateId":1449,"stateCode":"PR","stateName":"Puerto Rico","countryId":233,"countryCode":"US","countryName":"United States","latitude":"18.14027778","longitude":"-66.17250000","wikiDataId":"Q49359982"},{"id":143158,"name":"Parcelas Peñuelas","stateId":1449,"stateCode":"PR","stateName":"Puerto Rico","countryId":233,"countryCode":"US","countryName":"United States","latitude":"17.99888889","longitude":"-66.34138889","wikiDataId":"Q49359984"},{"id":143159,"name":"Pastos","stateId":1449,"stateCode":"PR","stateName":"Puerto Rico","countryId":233,"countryCode":"US","countryName":"United States","latitude":"18.11777778","longitude":"-66.25888889","wikiDataId":"Q49360128"},{"id":143160,"name":"Patillas","stateId":1449,"stateCode":"PR","stateName":"Puerto Rico","countryId":233,"countryCode":"US","countryName":"United States","latitude":"18.00635000","longitude":"-66.01572000","wikiDataId":"Q2485638"},{"id":143161,"name":"Patillas Municipio","stateId":1449,"stateCode":"PR","stateName":"Puerto Rico","countryId":233,"countryCode":"US","countryName":"United States","latitude":"18.04163000","longitude":"-66.01766000","wikiDataId":"Q33706006"},{"id":143162,"name":"Peña Pobre","stateId":1449,"stateCode":"PR","stateName":"Puerto Rico","countryId":233,"countryCode":"US","countryName":"United States","latitude":"18.21555556","longitude":"-65.82222222","wikiDataId":"Q49360534"},{"id":143163,"name":"Peñuelas","stateId":1449,"stateCode":"PR","stateName":"Puerto Rico","countryId":233,"countryCode":"US","countryName":"United States","latitude":"18.05937500","longitude":"-66.72254400","wikiDataId":"Q369880"},{"id":143164,"name":"Piedra Gorda","stateId":1449,"stateCode":"PR","stateName":"Puerto Rico","countryId":233,"countryCode":"US","countryName":"United States","latitude":"18.43416667","longitude":"-66.88777778","wikiDataId":"Q49360627"},{"id":143165,"name":"Playa Fortuna","stateId":1449,"stateCode":"PR","stateName":"Puerto Rico","countryId":233,"countryCode":"US","countryName":"United States","latitude":"18.37972222","longitude":"-65.74527778","wikiDataId":"Q49361057"},{"id":143166,"name":"Playita","stateId":1449,"stateCode":"PR","stateName":"Puerto Rico","countryId":233,"countryCode":"US","countryName":"United States","latitude":"17.96055556","longitude":"-66.28972222","wikiDataId":"Q49361060"},{"id":143167,"name":"Playita Cortada","stateId":1449,"stateCode":"PR","stateName":"Puerto Rico","countryId":233,"countryCode":"US","countryName":"United States","latitude":"17.98500000","longitude":"-66.43916667","wikiDataId":"Q49361063"},{"id":143168,"name":"Pole Ojea","stateId":1449,"stateCode":"PR","stateName":"Puerto Rico","countryId":233,"countryCode":"US","countryName":"United States","latitude":"17.97500000","longitude":"-67.18527778","wikiDataId":"Q49361713"},{"id":143169,"name":"Ponce","stateId":1449,"stateCode":"PR","stateName":"Puerto Rico","countryId":233,"countryCode":"US","countryName":"United States","latitude":"18.00000000","longitude":"-66.61666667","wikiDataId":"Q864024"},{"id":143170,"name":"Potala Pastillo","stateId":1449,"stateCode":"PR","stateName":"Puerto Rico","countryId":233,"countryCode":"US","countryName":"United States","latitude":"17.99138889","longitude":"-66.49666667","wikiDataId":"Q49362096"},{"id":143171,"name":"Pueblito del Rio","stateId":1449,"stateCode":"PR","stateName":"Puerto Rico","countryId":233,"countryCode":"US","countryName":"United States","latitude":"18.22805556","longitude":"-65.86305556","wikiDataId":"Q49362748"},{"id":143172,"name":"Puerto Real","stateId":1449,"stateCode":"PR","stateName":"Puerto Rico","countryId":233,"countryCode":"US","countryName":"United States","latitude":"18.07500000","longitude":"-67.18722222","wikiDataId":"Q49362755"},{"id":143173,"name":"Punta Santiago","stateId":1449,"stateCode":"PR","stateName":"Puerto Rico","countryId":233,"countryCode":"US","countryName":"United States","latitude":"18.16638889","longitude":"-65.74833333","wikiDataId":"Q49362789"},{"id":143175,"name":"Quebrada","stateId":1449,"stateCode":"PR","stateName":"Puerto Rico","countryId":233,"countryCode":"US","countryName":"United States","latitude":"18.35666667","longitude":"-66.83222222","wikiDataId":"Q49363033"},{"id":143176,"name":"Quebradillas","stateId":1449,"stateCode":"PR","stateName":"Puerto Rico","countryId":233,"countryCode":"US","countryName":"United States","latitude":"18.47388889","longitude":"-66.93861111","wikiDataId":"Q2057872"},{"id":143177,"name":"Quebradillas Municipio","stateId":1449,"stateCode":"PR","stateName":"Puerto Rico","countryId":233,"countryCode":"US","countryName":"United States","latitude":"18.43967000","longitude":"-66.92462000","wikiDataId":"Q33709913"},{"id":143178,"name":"Rafael Capo","stateId":1449,"stateCode":"PR","stateName":"Puerto Rico","countryId":233,"countryCode":"US","countryName":"United States","latitude":"18.40722222","longitude":"-66.78222222","wikiDataId":"Q49363316"},{"id":143179,"name":"Rafael Gonzalez","stateId":1449,"stateCode":"PR","stateName":"Puerto Rico","countryId":233,"countryCode":"US","countryName":"United States","latitude":"18.42750000","longitude":"-66.78694444","wikiDataId":"Q49363318"},{"id":143180,"name":"Rafael Hernandez","stateId":1449,"stateCode":"PR","stateName":"Puerto Rico","countryId":233,"countryCode":"US","countryName":"United States","latitude":"18.47138889","longitude":"-67.07916667","wikiDataId":"Q49363319"},{"id":143181,"name":"Ramos","stateId":1449,"stateCode":"PR","stateName":"Puerto Rico","countryId":233,"countryCode":"US","countryName":"United States","latitude":"18.33972222","longitude":"-65.71277778","wikiDataId":"Q49363383"},{"id":143182,"name":"Rincón","stateId":1449,"stateCode":"PR","stateName":"Puerto Rico","countryId":233,"countryCode":"US","countryName":"United States","latitude":"18.34023000","longitude":"-67.24990000","wikiDataId":"Q1815896"},{"id":143183,"name":"Rincón Municipio","stateId":1449,"stateCode":"PR","stateName":"Puerto Rico","countryId":233,"countryCode":"US","countryName":"United States","latitude":"18.33967000","longitude":"-67.23713000","wikiDataId":"Q33711517"},{"id":143186,"name":"Río Blanco","stateId":1449,"stateCode":"PR","stateName":"Puerto Rico","countryId":233,"countryCode":"US","countryName":"United States","latitude":"18.21833333","longitude":"-65.78861111","wikiDataId":"Q49364780"},{"id":143187,"name":"Río Cañas Abajo","stateId":1449,"stateCode":"PR","stateName":"Puerto Rico","countryId":233,"countryCode":"US","countryName":"United States","latitude":"18.03833333","longitude":"-66.46777778","wikiDataId":"Q49364782"},{"id":143188,"name":"Río Grande","stateId":1449,"stateCode":"PR","stateName":"Puerto Rico","countryId":233,"countryCode":"US","countryName":"United States","latitude":"18.38023000","longitude":"-65.83127000","wikiDataId":"Q979996"},{"id":143189,"name":"Río Grande Municipio","stateId":1449,"stateCode":"PR","stateName":"Puerto Rico","countryId":233,"countryCode":"US","countryName":"United States","latitude":"18.34162000","longitude":"-65.81766000","wikiDataId":"Q33713096"},{"id":143184,"name":"Rio Lajas","stateId":1449,"stateCode":"PR","stateName":"Puerto Rico","countryId":233,"countryCode":"US","countryName":"United States","latitude":"18.39719150","longitude":"-66.26453900","wikiDataId":"Q7335269"},{"id":143190,"name":"Río Piedras","stateId":1449,"stateCode":"PR","stateName":"Puerto Rico","countryId":233,"countryCode":"US","countryName":"United States","latitude":"18.39972222","longitude":"-66.05000000","wikiDataId":"Q683206"},{"id":143185,"name":"Rosa Sanchez","stateId":1449,"stateCode":"PR","stateName":"Puerto Rico","countryId":233,"countryCode":"US","countryName":"United States","latitude":"18.06166667","longitude":"-65.91361111","wikiDataId":"Q49364124"},{"id":143191,"name":"Sabana","stateId":1449,"stateCode":"PR","stateName":"Puerto Rico","countryId":233,"countryCode":"US","countryName":"United States","latitude":"18.46083333","longitude":"-66.35861111","wikiDataId":"Q49364882"},{"id":143192,"name":"Sabana Eneas","stateId":1449,"stateCode":"PR","stateName":"Puerto Rico","countryId":233,"countryCode":"US","countryName":"United States","latitude":"18.08611111","longitude":"-67.08111111","wikiDataId":"Q49364883"},{"id":143193,"name":"Sabana Grande","stateId":1449,"stateCode":"PR","stateName":"Puerto Rico","countryId":233,"countryCode":"US","countryName":"United States","latitude":"18.07972222","longitude":"-66.96083333","wikiDataId":"Q2413183"},{"id":143194,"name":"Sabana Grande Municipio","stateId":1449,"stateCode":"PR","stateName":"Puerto Rico","countryId":233,"countryCode":"US","countryName":"United States","latitude":"18.09385000","longitude":"-66.94962000","wikiDataId":"Q33713207"},{"id":143195,"name":"Sabana Hoyos","stateId":1449,"stateCode":"PR","stateName":"Puerto Rico","countryId":233,"countryCode":"US","countryName":"United States","latitude":"18.43388889","longitude":"-66.61388889","wikiDataId":"Q49364885"},{"id":143196,"name":"Sabana Seca","stateId":1449,"stateCode":"PR","stateName":"Puerto Rico","countryId":233,"countryCode":"US","countryName":"United States","latitude":"18.42694444","longitude":"-66.18472222","wikiDataId":"Q49364886"},{"id":143197,"name":"Salinas","stateId":1449,"stateCode":"PR","stateName":"Puerto Rico","countryId":233,"countryCode":"US","countryName":"United States","latitude":"18.01746000","longitude":"-66.25378000","wikiDataId":"Q637330"},{"id":143198,"name":"San Antonio","stateId":1449,"stateCode":"PR","stateName":"Puerto Rico","countryId":233,"countryCode":"US","countryName":"United States","latitude":"18.45166667","longitude":"-66.94972222","wikiDataId":"Q49366856"},{"id":143199,"name":"San Germán Municipio","stateId":1449,"stateCode":"PR","stateName":"Puerto Rico","countryId":233,"countryCode":"US","countryName":"United States","latitude":"18.11468000","longitude":"-67.03573000","wikiDataId":"Q33713968"},{"id":143200,"name":"San Isidro","stateId":1449,"stateCode":"PR","stateName":"Puerto Rico","countryId":233,"countryCode":"US","countryName":"United States","latitude":"18.39222222","longitude":"-65.88555556","wikiDataId":"Q49366869"},{"id":143201,"name":"San José","stateId":1449,"stateCode":"PR","stateName":"Puerto Rico","countryId":233,"countryCode":"US","countryName":"United States","latitude":"18.39833333","longitude":"-66.25583333","wikiDataId":"Q49366883"},{"id":143202,"name":"San Juan","stateId":1449,"stateCode":"PR","stateName":"Puerto Rico","countryId":233,"countryCode":"US","countryName":"United States","latitude":"18.45000000","longitude":"-66.06666667","wikiDataId":"Q41211"},{"id":143203,"name":"San Lorenzo","stateId":1449,"stateCode":"PR","stateName":"Puerto Rico","countryId":233,"countryCode":"US","countryName":"United States","latitude":"18.18988900","longitude":"-65.96869400","wikiDataId":"Q788749"},{"id":143204,"name":"San Sebastián","stateId":1449,"stateCode":"PR","stateName":"Puerto Rico","countryId":233,"countryCode":"US","countryName":"United States","latitude":"18.33722222","longitude":"-66.99055556","wikiDataId":"Q2413209"},{"id":143205,"name":"Santa Barbara","stateId":1449,"stateCode":"PR","stateName":"Puerto Rico","countryId":233,"countryCode":"US","countryName":"United States","latitude":"18.39361111","longitude":"-65.91888889","wikiDataId":"Q49366994"},{"id":143206,"name":"Santa Clara","stateId":1449,"stateCode":"PR","stateName":"Puerto Rico","countryId":233,"countryCode":"US","countryName":"United States","latitude":"18.21861111","longitude":"-66.12888889","wikiDataId":"Q49366996"},{"id":143207,"name":"Santa Isabel","stateId":1449,"stateCode":"PR","stateName":"Puerto Rico","countryId":233,"countryCode":"US","countryName":"United States","latitude":"17.96611100","longitude":"-66.40500000","wikiDataId":"Q2485604"},{"id":143208,"name":"Santa Isabel Municipio","stateId":1449,"stateCode":"PR","stateName":"Puerto Rico","countryId":233,"countryCode":"US","countryName":"United States","latitude":"17.99663000","longitude":"-66.38711000","wikiDataId":"Q33714607"},{"id":143209,"name":"Santo Domingo","stateId":1449,"stateCode":"PR","stateName":"Puerto Rico","countryId":233,"countryCode":"US","countryName":"United States","latitude":"18.06333333","longitude":"-66.75250000","wikiDataId":"Q49367035"},{"id":143210,"name":"Santurce","stateId":1449,"stateCode":"PR","stateName":"Puerto Rico","countryId":233,"countryCode":"US","countryName":"United States","latitude":"18.44083333","longitude":"-66.04722222","wikiDataId":"Q511729"},{"id":143211,"name":"Stella","stateId":1449,"stateCode":"PR","stateName":"Puerto Rico","countryId":233,"countryCode":"US","countryName":"United States","latitude":"18.32194444","longitude":"-67.24694444","wikiDataId":"Q33495699"},{"id":143213,"name":"Suárez","stateId":1449,"stateCode":"PR","stateName":"Puerto Rico","countryId":233,"countryCode":"US","countryName":"United States","latitude":"18.43027778","longitude":"-65.85361111","wikiDataId":"Q33499841"},{"id":143212,"name":"Sumidero","stateId":1449,"stateCode":"PR","stateName":"Puerto Rico","countryId":233,"countryCode":"US","countryName":"United States","latitude":"18.21861111","longitude":"-66.12888889","wikiDataId":"Q33499480"},{"id":143214,"name":"Tallaboa","stateId":1449,"stateCode":"PR","stateName":"Puerto Rico","countryId":233,"countryCode":"US","countryName":"United States","latitude":"17.99500000","longitude":"-66.71638889","wikiDataId":"Q33504969"},{"id":143215,"name":"Tallaboa Alta","stateId":1449,"stateCode":"PR","stateName":"Puerto Rico","countryId":233,"countryCode":"US","countryName":"United States","latitude":"18.05111111","longitude":"-66.70027778","wikiDataId":"Q33504983"},{"id":143216,"name":"Tiburones","stateId":1449,"stateCode":"PR","stateName":"Puerto Rico","countryId":233,"countryCode":"US","countryName":"United States","latitude":"18.43166667","longitude":"-66.58083333","wikiDataId":"Q33506486"},{"id":143217,"name":"Tierras Nuevas Poniente","stateId":1449,"stateCode":"PR","stateName":"Puerto Rico","countryId":233,"countryCode":"US","countryName":"United States","latitude":"18.46189000","longitude":"-66.48850000","wikiDataId":"Q9087614"},{"id":143218,"name":"Toa Alta","stateId":1449,"stateCode":"PR","stateName":"Puerto Rico","countryId":233,"countryCode":"US","countryName":"United States","latitude":"18.38828000","longitude":"-66.24822000","wikiDataId":"Q2485509"},{"id":143219,"name":"Toa Alta Municipio","stateId":1449,"stateCode":"PR","stateName":"Puerto Rico","countryId":233,"countryCode":"US","countryName":"United States","latitude":"18.36606000","longitude":"-66.25378000","wikiDataId":"Q33721399"},{"id":143220,"name":"Toa Baja","stateId":1449,"stateCode":"PR","stateName":"Puerto Rico","countryId":233,"countryCode":"US","countryName":"United States","latitude":"18.44388900","longitude":"-66.25972200","wikiDataId":"Q2238070"},{"id":143221,"name":"Trujillo Alto","stateId":1449,"stateCode":"PR","stateName":"Puerto Rico","countryId":233,"countryCode":"US","countryName":"United States","latitude":"18.36277800","longitude":"-66.01750000","wikiDataId":"Q1150895"},{"id":143222,"name":"Trujillo Alto Municipio","stateId":1449,"stateCode":"PR","stateName":"Puerto Rico","countryId":233,"countryCode":"US","countryName":"United States","latitude":"18.34162000","longitude":"-66.00517000","wikiDataId":"Q33722059"},{"id":143223,"name":"Utuado","stateId":1449,"stateCode":"PR","stateName":"Puerto Rico","countryId":233,"countryCode":"US","countryName":"United States","latitude":"18.27301000","longitude":"-66.69962000","wikiDataId":"Q617096"},{"id":143224,"name":"Utuado barrio-pueblo","stateId":1449,"stateCode":"PR","stateName":"Puerto Rico","countryId":233,"countryCode":"US","countryName":"United States","latitude":"18.26580000","longitude":"-66.70640000","wikiDataId":"Q6158238"},{"id":143232,"name":"Vázquez","stateId":1449,"stateCode":"PR","stateName":"Puerto Rico","countryId":233,"countryCode":"US","countryName":"United States","latitude":"18.06583333","longitude":"-66.23861111","wikiDataId":"Q33512648"},{"id":143225,"name":"Vega Alta","stateId":1449,"stateCode":"PR","stateName":"Puerto Rico","countryId":233,"countryCode":"US","countryName":"United States","latitude":"18.41217000","longitude":"-66.33128000","wikiDataId":"Q2640843"},{"id":143226,"name":"Vega Alta Municipio","stateId":1449,"stateCode":"PR","stateName":"Puerto Rico","countryId":233,"countryCode":"US","countryName":"United States","latitude":"18.41050000","longitude":"-66.33295000","wikiDataId":"Q33723879"},{"id":143227,"name":"Vega Baja","stateId":1449,"stateCode":"PR","stateName":"Puerto Rico","countryId":233,"countryCode":"US","countryName":"United States","latitude":"18.44611111","longitude":"-66.38750000","wikiDataId":"Q2179051"},{"id":143228,"name":"Vieques","stateId":1449,"stateCode":"PR","stateName":"Puerto Rico","countryId":233,"countryCode":"US","countryName":"United States","latitude":"18.42500000","longitude":"-65.83305556","wikiDataId":"Q33511749"},{"id":143229,"name":"Vieques Municipality","stateId":1449,"stateCode":"PR","stateName":"Puerto Rico","countryId":233,"countryCode":"US","countryName":"United States","latitude":"18.12913000","longitude":"-65.43710000","wikiDataId":"Q33724199"},{"id":143230,"name":"Villalba","stateId":1449,"stateCode":"PR","stateName":"Puerto Rico","countryId":233,"countryCode":"US","countryName":"United States","latitude":"18.12722200","longitude":"-66.49222200","wikiDataId":"Q2192472"},{"id":143231,"name":"Villalba Municipio","stateId":1449,"stateCode":"PR","stateName":"Puerto Rico","countryId":233,"countryCode":"US","countryName":"United States","latitude":"18.12913000","longitude":"-66.47739000","wikiDataId":"Q33724528"},{"id":143233,"name":"Yabucoa","stateId":1449,"stateCode":"PR","stateName":"Puerto Rico","countryId":233,"countryCode":"US","countryName":"United States","latitude":"18.05052000","longitude":"-65.87933000","wikiDataId":"Q2361097"},{"id":143234,"name":"Yabucoa Municipio","stateId":1449,"stateCode":"PR","stateName":"Puerto Rico","countryId":233,"countryCode":"US","countryName":"United States","latitude":"18.07302000","longitude":"-65.88711000","wikiDataId":"Q33727174"},{"id":143235,"name":"Yauco","stateId":1449,"stateCode":"PR","stateName":"Puerto Rico","countryId":233,"countryCode":"US","countryName":"United States","latitude":"18.03694444","longitude":"-66.85027778","wikiDataId":"Q368526"},{"id":143236,"name":"Yaurel","stateId":1449,"stateCode":"PR","stateName":"Puerto Rico","countryId":233,"countryCode":"US","countryName":"United States","latitude":"18.02694444","longitude":"-66.05722222","wikiDataId":"Q33523129"}]