[{"id":17393,"name":"Altstätten","stateId":1644,"stateCode":"SG","stateName":"St. Gallen","countryId":214,"countryCode":"CH","countryName":"Switzerland","latitude":"47.37766000","longitude":"9.54746000","wikiDataId":"Q22397987"},{"id":17394,"name":"Amden","stateId":1644,"stateCode":"SG","stateName":"St. Gallen","countryId":214,"countryCode":"CH","countryName":"Switzerland","latitude":"47.14888000","longitude":"9.14233000","wikiDataId":"Q22397987"},{"id":17398,"name":"Andwil","stateId":1644,"stateCode":"SG","stateName":"St. Gallen","countryId":214,"countryCode":"CH","countryName":"Switzerland","latitude":"47.43855000","longitude":"9.27436000","wikiDataId":"Q22416073"},{"id":17419,"name":"Au","stateId":1644,"stateCode":"SG","stateName":"St. Gallen","countryId":214,"countryCode":"CH","countryName":"Switzerland","latitude":"47.43093000","longitude":"9.63448000","wikiDataId":"Q678231"},{"id":17430,"name":"Bad Ragaz","stateId":1644,"stateCode":"SG","stateName":"St. Gallen","countryId":214,"countryCode":"CH","countryName":"Switzerland","latitude":"47.00601000","longitude":"9.50266000","wikiDataId":"Q22471558"},{"id":17435,"name":"Balgach","stateId":1644,"stateCode":"SG","stateName":"St. Gallen","countryId":214,"countryCode":"CH","countryName":"Switzerland","latitude":"47.40556000","longitude":"9.60702000","wikiDataId":"Q22505683"},{"id":17458,"name":"Benken","stateId":1644,"stateCode":"SG","stateName":"St. Gallen","countryId":214,"countryCode":"CH","countryName":"Switzerland","latitude":"47.19942000","longitude":"9.00735000","wikiDataId":"Q22388735"},{"id":17567,"name":"Bronschhofen","stateId":1644,"stateCode":"SG","stateName":"St. Gallen","countryId":214,"countryCode":"CH","countryName":"Switzerland","latitude":"47.47835000","longitude":"9.03454000","wikiDataId":"Q65785"},{"id":17580,"name":"Buchs","stateId":1644,"stateCode":"SG","stateName":"St. Gallen","countryId":214,"countryCode":"CH","countryName":"Switzerland","latitude":"47.16743000","longitude":"9.47794000","wikiDataId":"Q22603234"},{"id":17606,"name":"Bütschwil","stateId":1644,"stateCode":"SG","stateName":"St. Gallen","countryId":214,"countryCode":"CH","countryName":"Switzerland","latitude":"47.36022000","longitude":"9.07213000","wikiDataId":"Q65676"},{"id":17678,"name":"Degersheim","stateId":1644,"stateCode":"SG","stateName":"St. Gallen","countryId":214,"countryCode":"CH","countryName":"Switzerland","latitude":"47.37429000","longitude":"9.20019000","wikiDataId":"Q64974"},{"id":17687,"name":"Diepoldsau","stateId":1644,"stateCode":"SG","stateName":"St. Gallen","countryId":214,"countryCode":"CH","countryName":"Switzerland","latitude":"47.38600000","longitude":"9.65558000","wikiDataId":"Q22630126"},{"id":17720,"name":"Ebnat-Kappel","stateId":1644,"stateCode":"SG","stateName":"St. Gallen","countryId":214,"countryCode":"CH","countryName":"Switzerland","latitude":"47.26195000","longitude":"9.12473000","wikiDataId":"Q22698506"},{"id":17730,"name":"Eggersriet","stateId":1644,"stateCode":"SG","stateName":"St. Gallen","countryId":214,"countryCode":"CH","countryName":"Switzerland","latitude":"47.44202000","longitude":"9.46901000","wikiDataId":"Q66868"},{"id":17736,"name":"Eichberg","stateId":1644,"stateCode":"SG","stateName":"St. Gallen","countryId":214,"countryCode":"CH","countryName":"Switzerland","latitude":"47.34374000","longitude":"9.53140000","wikiDataId":"Q22377845"},{"id":17769,"name":"Eschenbach","stateId":1644,"stateCode":"SG","stateName":"St. Gallen","countryId":214,"countryCode":"CH","countryName":"Switzerland","latitude":"47.23981000","longitude":"8.92156000","wikiDataId":"Q22421781"},{"id":17791,"name":"Flawil","stateId":1644,"stateCode":"SG","stateName":"St. Gallen","countryId":214,"countryCode":"CH","countryName":"Switzerland","latitude":"47.41301000","longitude":"9.18324000","wikiDataId":"Q22482402"},{"id":17794,"name":"Flums","stateId":1644,"stateCode":"SG","stateName":"St. Gallen","countryId":214,"countryCode":"CH","countryName":"Switzerland","latitude":"47.09058000","longitude":"9.34301000","wikiDataId":"Q628354"},{"id":17821,"name":"Gams","stateId":1644,"stateCode":"SG","stateName":"St. Gallen","countryId":214,"countryCode":"CH","countryName":"Switzerland","latitude":"47.20429000","longitude":"9.44172000","wikiDataId":"Q22624991"},{"id":17822,"name":"Ganterschwil","stateId":1644,"stateCode":"SG","stateName":"St. Gallen","countryId":214,"countryCode":"CH","countryName":"Switzerland","latitude":"47.38103000","longitude":"9.09239000","wikiDataId":"Q65461"},{"id":17847,"name":"Goldach","stateId":1644,"stateCode":"SG","stateName":"St. Gallen","countryId":214,"countryCode":"CH","countryName":"Switzerland","latitude":"47.47401000","longitude":"9.46711000","wikiDataId":"Q22359812"},{"id":17849,"name":"Goldingen","stateId":1644,"stateCode":"SG","stateName":"St. Gallen","countryId":214,"countryCode":"CH","countryName":"Switzerland","latitude":"47.26477000","longitude":"8.96167000","wikiDataId":"Q68408"},{"id":17850,"name":"Gommiswald","stateId":1644,"stateCode":"SG","stateName":"St. Gallen","countryId":214,"countryCode":"CH","countryName":"Switzerland","latitude":"47.23128000","longitude":"9.02355000","wikiDataId":"Q22364530"},{"id":17856,"name":"Gossau","stateId":1644,"stateCode":"SG","stateName":"St. Gallen","countryId":214,"countryCode":"CH","countryName":"Switzerland","latitude":"47.41551000","longitude":"9.25482000","wikiDataId":"Q22382609"},{"id":17859,"name":"Grabs","stateId":1644,"stateCode":"SG","stateName":"St. Gallen","countryId":214,"countryCode":"CH","countryName":"Switzerland","latitude":"47.18248000","longitude":"9.44395000","wikiDataId":"Q22383643"},{"id":17890,"name":"Haag (Rheintal)","stateId":1644,"stateCode":"SG","stateName":"St. Gallen","countryId":214,"countryCode":"CH","countryName":"Switzerland","latitude":"47.20989000","longitude":"9.48931000","wikiDataId":"Q22584031"},{"id":17938,"name":"Häggenschwil","stateId":1644,"stateCode":"SG","stateName":"St. Gallen","countryId":214,"countryCode":"CH","countryName":"Switzerland","latitude":"47.49462000","longitude":"9.34487000","wikiDataId":"Q66087"},{"id":17934,"name":"Horn","stateId":1644,"stateCode":"SG","stateName":"St. Gallen","countryId":214,"countryCode":"CH","countryName":"Switzerland","latitude":"47.49425000","longitude":"9.46246000","wikiDataId":"Q22640420"},{"id":17959,"name":"Jona","stateId":1644,"stateCode":"SG","stateName":"St. Gallen","countryId":214,"countryCode":"CH","countryName":"Switzerland","latitude":"47.22983000","longitude":"8.83884000","wikiDataId":"Q669350"},{"id":17962,"name":"Jonschwil","stateId":1644,"stateCode":"SG","stateName":"St. Gallen","countryId":214,"countryCode":"CH","countryName":"Switzerland","latitude":"47.42402000","longitude":"9.08689000","wikiDataId":"Q22487207"},{"id":17969,"name":"Kaltbrunn","stateId":1644,"stateCode":"SG","stateName":"St. Gallen","countryId":214,"countryCode":"CH","countryName":"Switzerland","latitude":"47.21367000","longitude":"9.02590000","wikiDataId":"Q66786"},{"id":17980,"name":"Kirchberg","stateId":1644,"stateCode":"SG","stateName":"St. Gallen","countryId":214,"countryCode":"CH","countryName":"Switzerland","latitude":"47.41159000","longitude":"9.04020000","wikiDataId":"Q22429263"},{"id":18009,"name":"Krummenau","stateId":1644,"stateCode":"SG","stateName":"St. Gallen","countryId":214,"countryCode":"CH","countryName":"Switzerland","latitude":"47.24755000","longitude":"9.17064000","wikiDataId":"Q26202692"},{"id":18081,"name":"Lichtensteig","stateId":1644,"stateCode":"SG","stateName":"St. Gallen","countryId":214,"countryCode":"CH","countryName":"Switzerland","latitude":"47.32381000","longitude":"9.08758000","wikiDataId":"Q22425811"},{"id":18111,"name":"Lütisburg","stateId":1644,"stateCode":"SG","stateName":"St. Gallen","countryId":214,"countryCode":"CH","countryName":"Switzerland","latitude":"47.39451000","longitude":"9.08312000","wikiDataId":"Q22614096"},{"id":18160,"name":"Mogelsberg","stateId":1644,"stateCode":"SG","stateName":"St. Gallen","countryId":214,"countryCode":"CH","countryName":"Switzerland","latitude":"47.36222000","longitude":"9.13541000","wikiDataId":"Q869624"},{"id":18194,"name":"Mörschwil","stateId":1644,"stateCode":"SG","stateName":"St. Gallen","countryId":214,"countryCode":"CH","countryName":"Switzerland","latitude":"47.47097000","longitude":"9.42278000","wikiDataId":"Q22645022"},{"id":18173,"name":"Mosnang","stateId":1644,"stateCode":"SG","stateName":"St. Gallen","countryId":214,"countryCode":"CH","countryName":"Switzerland","latitude":"47.36252000","longitude":"9.04296000","wikiDataId":"Q22400547"},{"id":18178,"name":"Muolen","stateId":1644,"stateCode":"SG","stateName":"St. Gallen","countryId":214,"countryCode":"CH","countryName":"Switzerland","latitude":"47.52102000","longitude":"9.32484000","wikiDataId":"Q67044"},{"id":18221,"name":"Niederbüren","stateId":1644,"stateCode":"SG","stateName":"St. Gallen","countryId":214,"countryCode":"CH","countryName":"Switzerland","latitude":"47.46547000","longitude":"9.20568000","wikiDataId":"Q22610605"},{"id":18226,"name":"Niederhelfenschwil","stateId":1644,"stateCode":"SG","stateName":"St. Gallen","countryId":214,"countryCode":"CH","countryName":"Switzerland","latitude":"47.47487000","longitude":"9.18543000","wikiDataId":"Q54963822"},{"id":18255,"name":"Oberhelfenschwil","stateId":1644,"stateCode":"SG","stateName":"St. Gallen","countryId":214,"countryCode":"CH","countryName":"Switzerland","latitude":"47.35673000","longitude":"9.11076000","wikiDataId":"Q22420580"},{"id":18262,"name":"Oberriet","stateId":1644,"stateCode":"SG","stateName":"St. Gallen","countryId":214,"countryCode":"CH","countryName":"Switzerland","latitude":"47.32088000","longitude":"9.56808000","wikiDataId":"Q22421151"},{"id":18269,"name":"Oberuzwil","stateId":1644,"stateCode":"SG","stateName":"St. Gallen","countryId":214,"countryCode":"CH","countryName":"Switzerland","latitude":"47.43076000","longitude":"9.12724000","wikiDataId":"Q22421580"},{"id":18333,"name":"Quarten","stateId":1644,"stateCode":"SG","stateName":"St. Gallen","countryId":214,"countryCode":"CH","countryName":"Switzerland","latitude":"47.10700000","longitude":"9.24199000","wikiDataId":"Q22635134"},{"id":18338,"name":"Rapperswil","stateId":1644,"stateCode":"SG","stateName":"St. Gallen","countryId":214,"countryCode":"CH","countryName":"Switzerland","latitude":"47.22557000","longitude":"8.82228000","wikiDataId":"Q688539"},{"id":18341,"name":"Rebstein","stateId":1644,"stateCode":"SG","stateName":"St. Gallen","countryId":214,"countryCode":"CH","countryName":"Switzerland","latitude":"47.39812000","longitude":"9.58503000","wikiDataId":"Q689882"},{"id":18365,"name":"Rheineck","stateId":1644,"stateCode":"SG","stateName":"St. Gallen","countryId":214,"countryCode":"CH","countryName":"Switzerland","latitude":"47.46630000","longitude":"9.59028000","wikiDataId":"Q22596289"},{"id":18392,"name":"Rorschach","stateId":1644,"stateCode":"SG","stateName":"St. Gallen","countryId":214,"countryCode":"CH","countryName":"Switzerland","latitude":"47.47800000","longitude":"9.49030000","wikiDataId":"Q22462138"},{"id":18410,"name":"Rüthi","stateId":1644,"stateCode":"SG","stateName":"St. Gallen","countryId":214,"countryCode":"CH","countryName":"Switzerland","latitude":"47.29480000","longitude":"9.53857000","wikiDataId":"Q66890"},{"id":18438,"name":"Sankt Gallen","stateId":1644,"stateCode":"SG","stateName":"St. Gallen","countryId":214,"countryCode":"CH","countryName":"Switzerland","latitude":"47.42391000","longitude":"9.37477000","wikiDataId":"Q22368093"},{"id":18439,"name":"Sankt Gallenkappel","stateId":1644,"stateCode":"SG","stateName":"St. Gallen","countryId":214,"countryCode":"CH","countryName":"Switzerland","latitude":"47.24368000","longitude":"8.96438000","wikiDataId":"Q66870"},{"id":18440,"name":"Sankt Margrethen","stateId":1644,"stateCode":"SG","stateName":"St. Gallen","countryId":214,"countryCode":"CH","countryName":"Switzerland","latitude":"47.45253000","longitude":"9.63741000","wikiDataId":"Q66870"},{"id":18442,"name":"Sankt Peterzell","stateId":1644,"stateCode":"SG","stateName":"St. Gallen","countryId":214,"countryCode":"CH","countryName":"Switzerland","latitude":"47.31782000","longitude":"9.17599000","wikiDataId":"Q669244"},{"id":18444,"name":"Sargans","stateId":1644,"stateCode":"SG","stateName":"St. Gallen","countryId":214,"countryCode":"CH","countryName":"Switzerland","latitude":"47.04896000","longitude":"9.44103000","wikiDataId":"Q22425308"},{"id":18482,"name":"Schänis","stateId":1644,"stateCode":"SG","stateName":"St. Gallen","countryId":214,"countryCode":"CH","countryName":"Switzerland","latitude":"47.15995000","longitude":"9.04549000","wikiDataId":"Q22548580"},{"id":18472,"name":"Schmerikon","stateId":1644,"stateCode":"SG","stateName":"St. Gallen","countryId":214,"countryCode":"CH","countryName":"Switzerland","latitude":"47.22538000","longitude":"8.94836000","wikiDataId":"Q22545316"},{"id":18509,"name":"Sennwald","stateId":1644,"stateCode":"SG","stateName":"St. Gallen","countryId":214,"countryCode":"CH","countryName":"Switzerland","latitude":"47.26063000","longitude":"9.50268000","wikiDataId":"Q22562205"},{"id":18515,"name":"Sevelen","stateId":1644,"stateCode":"SG","stateName":"St. Gallen","countryId":214,"countryCode":"CH","countryName":"Switzerland","latitude":"47.12213000","longitude":"9.48601000","wikiDataId":"Q22564982"},{"id":18581,"name":"Thal","stateId":1644,"stateCode":"SG","stateName":"St. Gallen","countryId":214,"countryCode":"CH","countryName":"Switzerland","latitude":"47.46677000","longitude":"9.56643000","wikiDataId":"Q22479419"},{"id":18654,"name":"Uznach","stateId":1644,"stateCode":"SG","stateName":"St. Gallen","countryId":214,"countryCode":"CH","countryName":"Switzerland","latitude":"47.22421000","longitude":"8.98263000","wikiDataId":"Q22402012"},{"id":18655,"name":"Uzwil","stateId":1644,"stateCode":"SG","stateName":"St. Gallen","countryId":214,"countryCode":"CH","countryName":"Switzerland","latitude":"47.43653000","longitude":"9.13422000","wikiDataId":"Q18446608"},{"id":18700,"name":"Wahlkreis Rheintal","stateId":1644,"stateCode":"SG","stateName":"St. Gallen","countryId":214,"countryCode":"CH","countryName":"Switzerland","latitude":"47.37769000","longitude":"9.57903000","wikiDataId":"Q188220"},{"id":18701,"name":"Wahlkreis Rorschach","stateId":1644,"stateCode":"SG","stateName":"St. Gallen","countryId":214,"countryCode":"CH","countryName":"Switzerland","latitude":"47.46647000","longitude":"9.44246000","wikiDataId":"Q661312"},{"id":18702,"name":"Wahlkreis Sarganserland","stateId":1644,"stateCode":"SG","stateName":"St. Gallen","countryId":214,"countryCode":"CH","countryName":"Switzerland","latitude":"47.05000000","longitude":"9.43333000","wikiDataId":"Q661066"},{"id":18703,"name":"Wahlkreis See-Gaster","stateId":1644,"stateCode":"SG","stateName":"St. Gallen","countryId":214,"countryCode":"CH","countryName":"Switzerland","latitude":"47.22459000","longitude":"9.01680000","wikiDataId":"Q661193"},{"id":18704,"name":"Wahlkreis St. Gallen","stateId":1644,"stateCode":"SG","stateName":"St. Gallen","countryId":214,"countryCode":"CH","countryName":"Switzerland","latitude":"47.46342000","longitude":"9.39052000","wikiDataId":"Q661143"},{"id":18705,"name":"Wahlkreis Toggenburg","stateId":1644,"stateCode":"SG","stateName":"St. Gallen","countryId":214,"countryCode":"CH","countryName":"Switzerland","latitude":"47.29453000","longitude":"9.17283000","wikiDataId":"Q693185"},{"id":18706,"name":"Wahlkreis Werdenberg","stateId":1644,"stateCode":"SG","stateName":"St. Gallen","countryId":214,"countryCode":"CH","countryName":"Switzerland","latitude":"47.17743000","longitude":"9.46299000","wikiDataId":"Q693185"},{"id":18707,"name":"Wahlkreis Wil","stateId":1644,"stateCode":"SG","stateName":"St. Gallen","countryId":214,"countryCode":"CH","countryName":"Switzerland","latitude":"47.42591000","longitude":"9.12451000","wikiDataId":"Q661216"},{"id":18711,"name":"Waldkirch","stateId":1644,"stateCode":"SG","stateName":"St. Gallen","countryId":214,"countryCode":"CH","countryName":"Switzerland","latitude":"47.46859000","longitude":"9.28665000","wikiDataId":"Q64630"},{"id":18713,"name":"Walenstadt","stateId":1644,"stateCode":"SG","stateName":"St. Gallen","countryId":214,"countryCode":"CH","countryName":"Switzerland","latitude":"47.12411000","longitude":"9.31194000","wikiDataId":"Q22441445"},{"id":18725,"name":"Wattwil","stateId":1644,"stateCode":"SG","stateName":"St. Gallen","countryId":214,"countryCode":"CH","countryName":"Switzerland","latitude":"47.29955000","longitude":"9.08657000","wikiDataId":"Q22555103"},{"id":18727,"name":"Weesen","stateId":1644,"stateCode":"SG","stateName":"St. Gallen","countryId":214,"countryCode":"CH","countryName":"Switzerland","latitude":"47.13447000","longitude":"9.09644000","wikiDataId":"Q14623"},{"id":18749,"name":"Wil","stateId":1644,"stateCode":"SG","stateName":"St. Gallen","countryId":214,"countryCode":"CH","countryName":"Switzerland","latitude":"47.46152000","longitude":"9.04552000","wikiDataId":"Q64077"},{"id":18753,"name":"Wildhaus","stateId":1644,"stateCode":"SG","stateName":"St. Gallen","countryId":214,"countryCode":"CH","countryName":"Switzerland","latitude":"47.20583000","longitude":"9.35402000","wikiDataId":"Q597413"},{"id":18759,"name":"Wittenbach","stateId":1644,"stateCode":"SG","stateName":"St. Gallen","countryId":214,"countryCode":"CH","countryName":"Switzerland","latitude":"47.46108000","longitude":"9.38601000","wikiDataId":"Q22629807"},{"id":18805,"name":"Zuzwil","stateId":1644,"stateCode":"SG","stateName":"St. Gallen","countryId":214,"countryCode":"CH","countryName":"Switzerland","latitude":"47.47452000","longitude":"9.11196000","wikiDataId":"Q22659047"}]