[{"id":63254,"name":"Arashiyama","stateId":834,"stateCode":"26","stateName":"Kyōto Prefecture","countryId":109,"countryCode":"JP","countryName":"Japan","latitude":"35.01481000","longitude":"135.67755000","wikiDataId":"Q2859566"},{"id":63277,"name":"Ayabe","stateId":834,"stateCode":"26","stateName":"Kyōto Prefecture","countryId":109,"countryCode":"JP","countryName":"Japan","latitude":"35.30000000","longitude":"135.25000000","wikiDataId":"Q694370"},{"id":63278,"name":"Ayabe-shi","stateId":834,"stateCode":"26","stateName":"Kyōto Prefecture","countryId":109,"countryCode":"JP","countryName":"Japan","latitude":"35.35263000","longitude":"135.34465000","wikiDataId":"Q694370"},{"id":63361,"name":"Fukuchiyama-shi","stateId":834,"stateCode":"26","stateName":"Kyōto Prefecture","countryId":109,"countryCode":"JP","countryName":"Japan","latitude":"35.32404000","longitude":"135.11332000","wikiDataId":"Q3355306"},{"id":63654,"name":"Jōyō Shi","stateId":834,"stateCode":"26","stateName":"Kyōto Prefecture","countryId":109,"countryCode":"JP","countryName":"Japan","latitude":"34.84566000","longitude":"135.79760000","wikiDataId":"Q817276"},{"id":63683,"name":"Kameoka","stateId":834,"stateCode":"26","stateName":"Kyōto Prefecture","countryId":109,"countryCode":"JP","countryName":"Japan","latitude":"35.00000000","longitude":"135.58333000","wikiDataId":"Q200267"},{"id":63684,"name":"Kameoka-shi","stateId":834,"stateCode":"26","stateName":"Kyōto Prefecture","countryId":109,"countryCode":"JP","countryName":"Japan","latitude":"35.01021000","longitude":"135.53900000","wikiDataId":"Q633996"},{"id":63689,"name":"Kamigyō-ku","stateId":834,"stateCode":"26","stateName":"Kyōto Prefecture","countryId":109,"countryCode":"JP","countryName":"Japan","latitude":"35.02954000","longitude":"135.75666000","wikiDataId":"Q1349094"},{"id":63817,"name":"Kizugawa-shi","stateId":834,"stateCode":"26","stateName":"Kyōto Prefecture","countryId":109,"countryCode":"JP","countryName":"Japan","latitude":"34.73781000","longitude":"135.82128000","wikiDataId":"Q990352"},{"id":63891,"name":"Kyōtanabe Shi","stateId":834,"stateCode":"26","stateName":"Kyōto Prefecture","countryId":109,"countryCode":"JP","countryName":"Japan","latitude":"34.80779000","longitude":"135.76300000","wikiDataId":"Q816728"},{"id":63892,"name":"Kyōtango-shi","stateId":834,"stateCode":"26","stateName":"Kyōto Prefecture","countryId":109,"countryCode":"JP","countryName":"Japan","latitude":"35.63089000","longitude":"135.04785000","wikiDataId":"Q816728"},{"id":63890,"name":"Kyoto","stateId":834,"stateCode":"26","stateName":"Kyōto Prefecture","countryId":109,"countryCode":"JP","countryName":"Japan","latitude":"35.02107000","longitude":"135.75385000","wikiDataId":"Q34600"},{"id":63912,"name":"Maizuru","stateId":834,"stateCode":"26","stateName":"Kyōto Prefecture","countryId":109,"countryCode":"JP","countryName":"Japan","latitude":"35.45000000","longitude":"135.33333000","wikiDataId":"Q824020"},{"id":63913,"name":"Maizuru-shi","stateId":834,"stateCode":"26","stateName":"Kyōto Prefecture","countryId":109,"countryCode":"JP","countryName":"Japan","latitude":"35.47009000","longitude":"135.34003000","wikiDataId":"Q750573"},{"id":64011,"name":"Miyazu","stateId":834,"stateCode":"26","stateName":"Kyōto Prefecture","countryId":109,"countryCode":"JP","countryName":"Japan","latitude":"35.53333000","longitude":"135.18333000","wikiDataId":"Q846351"},{"id":64012,"name":"Miyazu-shi","stateId":834,"stateCode":"26","stateName":"Kyōto Prefecture","countryId":109,"countryCode":"JP","countryName":"Japan","latitude":"35.55596000","longitude":"135.17662000","wikiDataId":"Q846351"},{"id":64043,"name":"Mukō Shi","stateId":834,"stateCode":"26","stateName":"Kyōto Prefecture","countryId":109,"countryCode":"JP","countryName":"Japan","latitude":"34.94975000","longitude":"135.70269000","wikiDataId":"Q850640"},{"id":64068,"name":"Nagaokakyō Shi","stateId":834,"stateCode":"26","stateName":"Kyōto Prefecture","countryId":109,"countryCode":"JP","countryName":"Japan","latitude":"34.92840000","longitude":"135.67881000","wikiDataId":"Q861246"},{"id":64102,"name":"Nantan-shi","stateId":834,"stateCode":"26","stateName":"Kyōto Prefecture","countryId":109,"countryCode":"JP","countryName":"Japan","latitude":"35.22740000","longitude":"135.55939000","wikiDataId":"Q170421"},{"id":64463,"name":"Tanabe","stateId":834,"stateCode":"26","stateName":"Kyōto Prefecture","countryId":109,"countryCode":"JP","countryName":"Japan","latitude":"34.82242000","longitude":"135.76604000","wikiDataId":"Q734400"},{"id":64584,"name":"Uji","stateId":834,"stateCode":"26","stateName":"Kyōto Prefecture","countryId":109,"countryCode":"JP","countryName":"Japan","latitude":"34.89044000","longitude":"135.80325000","wikiDataId":"Q851030"},{"id":64585,"name":"Uji Shi","stateId":834,"stateCode":"26","stateName":"Kyōto Prefecture","countryId":109,"countryCode":"JP","countryName":"Japan","latitude":"34.90296000","longitude":"135.82039000","wikiDataId":"Q326956"},{"id":64665,"name":"Yawata","stateId":834,"stateCode":"26","stateName":"Kyōto Prefecture","countryId":109,"countryCode":"JP","countryName":"Japan","latitude":"34.87009000","longitude":"135.70270000","wikiDataId":"Q260923"},{"id":64666,"name":"Yawata Shi","stateId":834,"stateCode":"26","stateName":"Kyōto Prefecture","countryId":109,"countryCode":"JP","countryName":"Japan","latitude":"34.86662000","longitude":"135.71470000","wikiDataId":"Q260923"}]