[{"id":17389,"name":"Altendorf","stateId":1653,"stateCode":"SZ","stateName":"Schwyz","countryId":214,"countryCode":"CH","countryName":"Switzerland","latitude":"47.18994000","longitude":"8.83823000","wikiDataId":"Q68150"},{"id":17410,"name":"Arth","stateId":1653,"stateCode":"SZ","stateName":"Schwyz","countryId":214,"countryCode":"CH","countryName":"Switzerland","latitude":"47.06337000","longitude":"8.52349000","wikiDataId":"Q22455065"},{"id":17590,"name":"Bäch","stateId":1653,"stateCode":"SZ","stateName":"Schwyz","countryId":214,"countryCode":"CH","countryName":"Switzerland","latitude":"47.20388000","longitude":"8.73224000","wikiDataId":"Q22364264"},{"id":17483,"name":"Bezirk Einsiedeln","stateId":1653,"stateCode":"SZ","stateName":"Schwyz","countryId":214,"countryCode":"CH","countryName":"Switzerland","latitude":"47.10792000","longitude":"8.76010000","wikiDataId":"Q74874"},{"id":17484,"name":"Bezirk Gersau","stateId":1653,"stateCode":"SZ","stateName":"Schwyz","countryId":214,"countryCode":"CH","countryName":"Switzerland","latitude":"47.00800000","longitude":"8.51678000","wikiDataId":"Q74826"},{"id":17490,"name":"Bezirk Höfe","stateId":1653,"stateCode":"SZ","stateName":"Schwyz","countryId":214,"countryCode":"CH","countryName":"Switzerland","latitude":"47.19043000","longitude":"8.73960000","wikiDataId":"Q74823"},{"id":17492,"name":"Bezirk Küssnacht","stateId":1653,"stateCode":"SZ","stateName":"Schwyz","countryId":214,"countryCode":"CH","countryName":"Switzerland","latitude":"47.08611000","longitude":"8.44444000","wikiDataId":"Q74831"},{"id":17498,"name":"Bezirk March","stateId":1653,"stateCode":"SZ","stateName":"Schwyz","countryId":214,"countryCode":"CH","countryName":"Switzerland","latitude":"47.16128000","longitude":"8.91103000","wikiDataId":"Q74768"},{"id":17509,"name":"Bezirk Schwyz","stateId":1653,"stateCode":"SZ","stateName":"Schwyz","countryId":214,"countryCode":"CH","countryName":"Switzerland","latitude":"47.02814000","longitude":"8.63619000","wikiDataId":"Q74818"},{"id":17738,"name":"Einsiedeln","stateId":1653,"stateCode":"SZ","stateName":"Schwyz","countryId":214,"countryCode":"CH","countryName":"Switzerland","latitude":"47.12849000","longitude":"8.74735000","wikiDataId":"Q22380143"},{"id":17787,"name":"Feusisberg","stateId":1653,"stateCode":"SZ","stateName":"Schwyz","countryId":214,"countryCode":"CH","countryName":"Switzerland","latitude":"47.18707000","longitude":"8.74724000","wikiDataId":"Q22463784"},{"id":17806,"name":"Freienbach","stateId":1653,"stateCode":"SZ","stateName":"Schwyz","countryId":214,"countryCode":"CH","countryName":"Switzerland","latitude":"47.20534000","longitude":"8.75842000","wikiDataId":"Q22509889"},{"id":17830,"name":"Gersau","stateId":1653,"stateCode":"SZ","stateName":"Schwyz","countryId":214,"countryCode":"CH","countryName":"Switzerland","latitude":"46.99419000","longitude":"8.52500000","wikiDataId":"Q22638089"},{"id":17848,"name":"Goldau","stateId":1653,"stateCode":"SZ","stateName":"Schwyz","countryId":214,"countryCode":"CH","countryName":"Switzerland","latitude":"47.04761000","longitude":"8.54616000","wikiDataId":"Q474619"},{"id":17946,"name":"Ibach","stateId":1653,"stateCode":"SZ","stateName":"Schwyz","countryId":214,"countryCode":"CH","countryName":"Switzerland","latitude":"47.01105000","longitude":"8.64538000","wikiDataId":"Q687867"},{"id":17951,"name":"Ingenbohl","stateId":1653,"stateCode":"SZ","stateName":"Schwyz","countryId":214,"countryCode":"CH","countryName":"Switzerland","latitude":"46.99880000","longitude":"8.61529000","wikiDataId":"Q22436765"},{"id":18019,"name":"Küssnacht","stateId":1653,"stateCode":"SZ","stateName":"Schwyz","countryId":214,"countryCode":"CH","countryName":"Switzerland","latitude":"47.08557000","longitude":"8.44206000","wikiDataId":"Q22565125"},{"id":18030,"name":"Lachen","stateId":1653,"stateCode":"SZ","stateName":"Schwyz","countryId":214,"countryCode":"CH","countryName":"Switzerland","latitude":"47.19224000","longitude":"8.85324000","wikiDataId":"Q22531440"},{"id":18179,"name":"Muotathal","stateId":1653,"stateCode":"SZ","stateName":"Schwyz","countryId":214,"countryCode":"CH","countryName":"Switzerland","latitude":"46.97676000","longitude":"8.76499000","wikiDataId":"Q22629922"},{"id":18310,"name":"Pfäffikon","stateId":1653,"stateCode":"SZ","stateName":"Schwyz","countryId":214,"countryCode":"CH","countryName":"Switzerland","latitude":"47.20109000","longitude":"8.77816000","wikiDataId":"Q671010"},{"id":18360,"name":"Reichenburg","stateId":1653,"stateCode":"SZ","stateName":"Schwyz","countryId":214,"countryCode":"CH","countryName":"Switzerland","latitude":"47.17097000","longitude":"8.97704000","wikiDataId":"Q22594073"},{"id":18393,"name":"Rothenthurm","stateId":1653,"stateCode":"SZ","stateName":"Schwyz","countryId":214,"countryCode":"CH","countryName":"Switzerland","latitude":"47.10420000","longitude":"8.67585000","wikiDataId":"Q22467110"},{"id":18449,"name":"Sattel","stateId":1653,"stateCode":"SZ","stateName":"Schwyz","countryId":214,"countryCode":"CH","countryName":"Switzerland","latitude":"47.08246000","longitude":"8.63565000","wikiDataId":"Q22429200"},{"id":18461,"name":"Schindellegi","stateId":1653,"stateCode":"SZ","stateName":"Schwyz","countryId":214,"countryCode":"CH","countryName":"Switzerland","latitude":"47.17460000","longitude":"8.71345000","wikiDataId":"Q456214"},{"id":18487,"name":"Schübelbach","stateId":1653,"stateCode":"SZ","stateName":"Schwyz","countryId":214,"countryCode":"CH","countryName":"Switzerland","latitude":"47.17326000","longitude":"8.92811000","wikiDataId":"Q22548451"},{"id":18481,"name":"Schwyz","stateId":1653,"stateCode":"SZ","stateName":"Schwyz","countryId":214,"countryCode":"CH","countryName":"Switzerland","latitude":"47.02076000","longitude":"8.65414000","wikiDataId":"Q22548321"},{"id":18516,"name":"Siebnen","stateId":1653,"stateCode":"SZ","stateName":"Schwyz","countryId":214,"countryCode":"CH","countryName":"Switzerland","latitude":"47.17449000","longitude":"8.89781000","wikiDataId":"Q687976"},{"id":18553,"name":"Steinen","stateId":1653,"stateCode":"SZ","stateName":"Schwyz","countryId":214,"countryCode":"CH","countryName":"Switzerland","latitude":"47.04975000","longitude":"8.61214000","wikiDataId":"Q22389967"},{"id":18612,"name":"Tuggen","stateId":1653,"stateCode":"SZ","stateName":"Schwyz","countryId":214,"countryCode":"CH","countryName":"Switzerland","latitude":"47.20291000","longitude":"8.94896000","wikiDataId":"Q22540496"},{"id":18632,"name":"Unteriberg","stateId":1653,"stateCode":"SZ","stateName":"Schwyz","countryId":214,"countryCode":"CH","countryName":"Switzerland","latitude":"47.06258000","longitude":"8.80520000","wikiDataId":"Q22388546"},{"id":18693,"name":"Vorderthal","stateId":1653,"stateCode":"SZ","stateName":"Schwyz","countryId":214,"countryCode":"CH","countryName":"Switzerland","latitude":"47.12172000","longitude":"8.90225000","wikiDataId":"Q22430856"},{"id":18767,"name":"Wollerau","stateId":1653,"stateCode":"SZ","stateName":"Schwyz","countryId":214,"countryCode":"CH","countryName":"Switzerland","latitude":"47.19478000","longitude":"8.71903000","wikiDataId":"Q22632539"}]