[{"id":67051,"name":"Ahfir","stateId":3271,"stateCode":"02","stateName":"L'Oriental","countryId":149,"countryCode":"MA","countryName":"Morocco","latitude":"34.95368000","longitude":"-2.10027000","wikiDataId":"Q2544620"},{"id":67075,"name":"Aïn Beni Mathar","stateId":3271,"stateCode":"02","stateName":"L'Oriental","countryId":149,"countryCode":"MA","countryName":"Morocco","latitude":"34.00970000","longitude":"-2.03238000","wikiDataId":"Q794128"},{"id":67054,"name":"Al Aaroui","stateId":3271,"stateCode":"02","stateName":"L'Oriental","countryId":149,"countryCode":"MA","countryName":"Morocco","latitude":"35.01090000","longitude":"-3.00938000","wikiDataId":"Q603331"},{"id":67080,"name":"Berkane","stateId":3271,"stateCode":"02","stateName":"L'Oriental","countryId":149,"countryCode":"MA","countryName":"Morocco","latitude":"34.61000000","longitude":"-2.57000000","wikiDataId":"Q820802"},{"id":67087,"name":"Bouarfa","stateId":3271,"stateCode":"02","stateName":"L'Oriental","countryId":149,"countryCode":"MA","countryName":"Morocco","latitude":"32.53379000","longitude":"-1.96209000","wikiDataId":"Q302201"},{"id":67104,"name":"Debdou","stateId":3271,"stateCode":"02","stateName":"L'Oriental","countryId":149,"countryCode":"MA","countryName":"Morocco","latitude":"33.98228000","longitude":"-3.04263000","wikiDataId":"Q654695"},{"id":67107,"name":"Driouch Province","stateId":3271,"stateCode":"02","stateName":"L'Oriental","countryId":149,"countryCode":"MA","countryName":"Morocco","latitude":"34.97670000","longitude":"-3.38842000","wikiDataId":"Q5261728"},{"id":67108,"name":"El Aïoun","stateId":3271,"stateCode":"02","stateName":"L'Oriental","countryId":149,"countryCode":"MA","countryName":"Morocco","latitude":"34.58319000","longitude":"-2.50612000","wikiDataId":"Q3049730"},{"id":67119,"name":"Figuig","stateId":3271,"stateCode":"02","stateName":"L'Oriental","countryId":149,"countryCode":"MA","countryName":"Morocco","latitude":"32.83333000","longitude":"-2.25000000","wikiDataId":"Q1412034"},{"id":67129,"name":"Guercif Province","stateId":3271,"stateCode":"02","stateName":"L'Oriental","countryId":149,"countryCode":"MA","countryName":"Morocco","latitude":"34.25041000","longitude":"-3.32542000","wikiDataId":"Q2330467"},{"id":67141,"name":"Jerada","stateId":3271,"stateCode":"02","stateName":"L'Oriental","countryId":149,"countryCode":"MA","countryName":"Morocco","latitude":"34.23662000","longitude":"-2.04284000","wikiDataId":"Q1687516"},{"id":67157,"name":"Madagh","stateId":3271,"stateCode":"02","stateName":"L'Oriental","countryId":149,"countryCode":"MA","countryName":"Morocco","latitude":"35.01032000","longitude":"-2.33701000","wikiDataId":"Q6726176"},{"id":67166,"name":"Midar","stateId":3271,"stateCode":"02","stateName":"L'Oriental","countryId":149,"countryCode":"MA","countryName":"Morocco","latitude":"34.94025000","longitude":"-3.53311000","wikiDataId":"Q2152433"},{"id":67173,"name":"Nador","stateId":3271,"stateCode":"02","stateName":"L'Oriental","countryId":149,"countryCode":"MA","countryName":"Morocco","latitude":"35.00000000","longitude":"-3.00000000","wikiDataId":"Q367864"},{"id":67186,"name":"Oujda-Angad","stateId":3271,"stateCode":"02","stateName":"L'Oriental","countryId":149,"countryCode":"MA","countryName":"Morocco","latitude":"34.23600000","longitude":"-2.29400000","wikiDataId":"Q1734717"},{"id":67198,"name":"Saidia","stateId":3271,"stateCode":"02","stateName":"L'Oriental","countryId":149,"countryCode":"MA","countryName":"Morocco","latitude":"35.08195000","longitude":"-2.22897000","wikiDataId":"Q4759"},{"id":67201,"name":"Selouane","stateId":3271,"stateCode":"02","stateName":"L'Oriental","countryId":149,"countryCode":"MA","countryName":"Morocco","latitude":"35.07313000","longitude":"-2.94230000","wikiDataId":"Q280853"},{"id":67238,"name":"Taourirt","stateId":3271,"stateCode":"02","stateName":"L'Oriental","countryId":149,"countryCode":"MA","countryName":"Morocco","latitude":"34.40731000","longitude":"-2.89732000","wikiDataId":"Q2329701"},{"id":67260,"name":"Tiztoutine","stateId":3271,"stateCode":"02","stateName":"L'Oriental","countryId":149,"countryCode":"MA","countryName":"Morocco","latitude":"34.97159000","longitude":"-3.15273000","wikiDataId":"Q3530003"},{"id":67267,"name":"Zaïo","stateId":3271,"stateCode":"02","stateName":"L'Oriental","countryId":149,"countryCode":"MA","countryName":"Morocco","latitude":"34.94282000","longitude":"-2.73290000","wikiDataId":"Q144416"}]