[{"id":65569,"name":"Abu Al Hasaniya","stateId":974,"stateCode":"MU","stateName":"Mubarak Al-Kabeer","countryId":117,"countryCode":"KW","countryName":"Kuwait","latitude":"29.19076000","longitude":"48.11355000","wikiDataId":"Q50431"},{"id":65570,"name":"Abu Fatira","stateId":974,"stateCode":"MU","stateName":"Mubarak Al-Kabeer","countryId":117,"countryCode":"KW","countryName":"Kuwait","latitude":"29.19746000","longitude":"48.10278000","wikiDataId":"Q50431"},{"id":65576,"name":"Al Funayţīs","stateId":974,"stateCode":"MU","stateName":"Mubarak Al-Kabeer","countryId":117,"countryCode":"KW","countryName":"Kuwait","latitude":"29.22528000","longitude":"48.10167000","wikiDataId":"Q980396"},{"id":65581,"name":"Al-Masayel","stateId":974,"stateCode":"MU","stateName":"Mubarak Al-Kabeer","countryId":117,"countryCode":"KW","countryName":"Kuwait","latitude":"29.23930000","longitude":"48.08862000","wikiDataId":"Q27347097"},{"id":65592,"name":"Şabāḩ as Sālim","stateId":974,"stateCode":"MU","stateName":"Mubarak Al-Kabeer","countryId":117,"countryCode":"KW","countryName":"Kuwait","latitude":"29.25722000","longitude":"48.05722000","wikiDataId":"Q1179881"}]