[{"id":102917,"name":"Ad Dindar","stateId":882,"stateCode":"SI","stateName":"Sennar","countryId":209,"countryCode":"SD","countryName":"Sudan","latitude":"13.20000000","longitude":"34.16667000","wikiDataId":"Q31868891"},{"id":102937,"name":"As Sūkī","stateId":882,"stateCode":"SI","stateName":"Sennar","countryId":209,"countryCode":"SD","countryName":"Sudan","latitude":"13.31667000","longitude":"33.88333000","wikiDataId":"Q31890580"},{"id":102953,"name":"Jalqani","stateId":882,"stateCode":"SI","stateName":"Sennar","countryId":209,"countryCode":"SD","countryName":"Sudan","latitude":"12.44860000","longitude":"34.21860000","wikiDataId":"Q15615482"},{"id":102958,"name":"Kināna","stateId":882,"stateCode":"SI","stateName":"Sennar","countryId":209,"countryCode":"SD","countryName":"Sudan","latitude":"14.03610000","longitude":"33.17120000","wikiDataId":"Q1963"},{"id":102963,"name":"Maiurno","stateId":882,"stateCode":"SI","stateName":"Sennar","countryId":209,"countryCode":"SD","countryName":"Sudan","latitude":"13.41667000","longitude":"33.66667000","wikiDataId":"Q3317346"},{"id":102972,"name":"Singa","stateId":882,"stateCode":"SI","stateName":"Sennar","countryId":209,"countryCode":"SD","countryName":"Sudan","latitude":"13.14830000","longitude":"33.93117000","wikiDataId":"Q997838"},{"id":102973,"name":"Sinnar","stateId":882,"stateCode":"SI","stateName":"Sennar","countryId":209,"countryCode":"SD","countryName":"Sudan","latitude":"13.56907000","longitude":"33.56718000","wikiDataId":"Q611867"}]