[{"id":31930,"name":"Adanero","stateId":1189,"stateCode":"AV","stateName":"Ávila","countryId":207,"countryCode":"ES","countryName":"Spain","latitude":"40.94487000","longitude":"-4.60561000","wikiDataId":"Q1404668"},{"id":152699,"name":"Adrada La","stateId":1189,"stateCode":"AV","stateName":"Ávila","countryId":207,"countryCode":"ES","countryName":"Spain","latitude":"0.00000000","longitude":"0.00000000","wikiDataId":null},{"id":32055,"name":"Albornos","stateId":1189,"stateCode":"AV","stateName":"Ávila","countryId":207,"countryCode":"ES","countryName":"Spain","latitude":"40.83795000","longitude":"-4.88129000","wikiDataId":"Q1611854"},{"id":32162,"name":"Aldeanueva de Santa Cruz","stateId":1189,"stateCode":"AV","stateName":"Ávila","countryId":207,"countryCode":"ES","countryName":"Spain","latitude":"40.38189000","longitude":"-5.42142000","wikiDataId":"Q1606518"},{"id":32170,"name":"Aldeaseca","stateId":1189,"stateCode":"AV","stateName":"Ávila","countryId":207,"countryCode":"ES","countryName":"Spain","latitude":"41.04912000","longitude":"-4.81707000","wikiDataId":"Q1606067"},{"id":152700,"name":"Aldehuela La","stateId":1189,"stateCode":"AV","stateName":"Ávila","countryId":207,"countryCode":"ES","countryName":"Spain","latitude":"0.00000000","longitude":"0.00000000","wikiDataId":null},{"id":32348,"name":"Amavida","stateId":1189,"stateCode":"AV","stateName":"Ávila","countryId":207,"countryCode":"ES","countryName":"Spain","latitude":"40.57371000","longitude":"-5.06541000","wikiDataId":"Q1606115"},{"id":152701,"name":"Arenal El","stateId":1189,"stateCode":"AV","stateName":"Ávila","countryId":207,"countryCode":"ES","countryName":"Spain","latitude":"0.00000000","longitude":"0.00000000","wikiDataId":null},{"id":32447,"name":"Arenas de San Pedro","stateId":1189,"stateCode":"AV","stateName":"Ávila","countryId":207,"countryCode":"ES","countryName":"Spain","latitude":"40.21041000","longitude":"-5.08694000","wikiDataId":"Q641669"},{"id":152702,"name":"Arevalillo","stateId":1189,"stateCode":"AV","stateName":"Ávila","countryId":207,"countryCode":"ES","countryName":"Spain","latitude":"0.00000000","longitude":"0.00000000","wikiDataId":null},{"id":32531,"name":"Arévalo","stateId":1189,"stateCode":"AV","stateName":"Ávila","countryId":207,"countryCode":"ES","countryName":"Spain","latitude":"41.06255000","longitude":"-4.72042000","wikiDataId":"Q476793"},{"id":32564,"name":"Aveinte","stateId":1189,"stateCode":"AV","stateName":"Ávila","countryId":207,"countryCode":"ES","countryName":"Spain","latitude":"40.78227000","longitude":"-4.83649000","wikiDataId":"Q1445425"},{"id":32565,"name":"Avellaneda","stateId":1189,"stateCode":"AV","stateName":"Ávila","countryId":207,"countryCode":"ES","countryName":"Spain","latitude":"40.38909000","longitude":"-5.38811000","wikiDataId":"Q1445425"},{"id":38576,"name":"Ávila","stateId":1189,"stateCode":"AV","stateName":"Ávila","countryId":207,"countryCode":"ES","countryName":"Spain","latitude":"40.65724000","longitude":"-4.69951000","wikiDataId":"Q55695431"},{"id":152703,"name":"Barco de Ávila El","stateId":1189,"stateCode":"AV","stateName":"Ávila","countryId":207,"countryCode":"ES","countryName":"Spain","latitude":"0.00000000","longitude":"0.00000000","wikiDataId":null},{"id":152704,"name":"Barraco El","stateId":1189,"stateCode":"AV","stateName":"Ávila","countryId":207,"countryCode":"ES","countryName":"Spain","latitude":"0.00000000","longitude":"0.00000000","wikiDataId":null},{"id":32680,"name":"Barromán","stateId":1189,"stateCode":"AV","stateName":"Ávila","countryId":207,"countryCode":"ES","countryName":"Spain","latitude":"41.06536000","longitude":"-4.93066000","wikiDataId":"Q1606213"},{"id":32721,"name":"Becedas","stateId":1189,"stateCode":"AV","stateName":"Ávila","countryId":207,"countryCode":"ES","countryName":"Spain","latitude":"40.40369000","longitude":"-5.63577000","wikiDataId":"Q512237"},{"id":32722,"name":"Becedillas","stateId":1189,"stateCode":"AV","stateName":"Ávila","countryId":207,"countryCode":"ES","countryName":"Spain","latitude":"40.53821000","longitude":"-5.32561000","wikiDataId":"Q1606676"},{"id":32841,"name":"Bercial de Zapardiel","stateId":1189,"stateCode":"AV","stateName":"Ávila","countryId":207,"countryCode":"ES","countryName":"Spain","latitude":"41.04675000","longitude":"-4.96910000","wikiDataId":"Q1620352"},{"id":152705,"name":"Berlanas Las","stateId":1189,"stateCode":"AV","stateName":"Ávila","countryId":207,"countryCode":"ES","countryName":"Spain","latitude":"0.00000000","longitude":"0.00000000","wikiDataId":null},{"id":152706,"name":"Bernuy-Zapardiel","stateId":1189,"stateCode":"AV","stateName":"Ávila","countryId":207,"countryCode":"ES","countryName":"Spain","latitude":"0.00000000","longitude":"0.00000000","wikiDataId":null},{"id":32872,"name":"Berrocalejo de Aragona","stateId":1189,"stateCode":"AV","stateName":"Ávila","countryId":207,"countryCode":"ES","countryName":"Spain","latitude":"40.69436000","longitude":"-4.59474000","wikiDataId":"Q1601818"},{"id":32910,"name":"Blascomillán","stateId":1189,"stateCode":"AV","stateName":"Ávila","countryId":207,"countryCode":"ES","countryName":"Spain","latitude":"40.80146000","longitude":"-5.08703000","wikiDataId":"Q1620327"},{"id":152707,"name":"Blasconuño de Matacabras","stateId":1189,"stateCode":"AV","stateName":"Ávila","countryId":207,"countryCode":"ES","countryName":"Spain","latitude":"0.00000000","longitude":"0.00000000","wikiDataId":null},{"id":32911,"name":"Blascosancho","stateId":1189,"stateCode":"AV","stateName":"Ávila","countryId":207,"countryCode":"ES","countryName":"Spain","latitude":"40.87744000","longitude":"-4.63743000","wikiDataId":"Q1606949"},{"id":152708,"name":"Bohodón El","stateId":1189,"stateCode":"AV","stateName":"Ávila","countryId":207,"countryCode":"ES","countryName":"Spain","latitude":"0.00000000","longitude":"0.00000000","wikiDataId":null},{"id":32932,"name":"Bohoyo","stateId":1189,"stateCode":"AV","stateName":"Ávila","countryId":207,"countryCode":"ES","countryName":"Spain","latitude":"40.31584000","longitude":"-5.44294000","wikiDataId":"Q1620302"},{"id":32948,"name":"Bonilla de la Sierra","stateId":1189,"stateCode":"AV","stateName":"Ávila","countryId":207,"countryCode":"ES","countryName":"Spain","latitude":"40.53063000","longitude":"-5.26452000","wikiDataId":"Q1606930"},{"id":32968,"name":"Brabos","stateId":1189,"stateCode":"AV","stateName":"Ávila","countryId":207,"countryCode":"ES","countryName":"Spain","latitude":"40.77846000","longitude":"-4.93934000","wikiDataId":"Q26602"},{"id":152709,"name":"Bularros","stateId":1189,"stateCode":"AV","stateName":"Ávila","countryId":207,"countryCode":"ES","countryName":"Spain","latitude":"0.00000000","longitude":"0.00000000","wikiDataId":null},{"id":33025,"name":"Burgohondo","stateId":1189,"stateCode":"AV","stateName":"Ávila","countryId":207,"countryCode":"ES","countryName":"Spain","latitude":"40.41416000","longitude":"-4.78509000","wikiDataId":"Q1601831"},{"id":33085,"name":"Cabezas de Alambre","stateId":1189,"stateCode":"AV","stateName":"Ávila","countryId":207,"countryCode":"ES","countryName":"Spain","latitude":"40.94218000","longitude":"-4.84184000","wikiDataId":"Q1607109"},{"id":33086,"name":"Cabezas del Pozo","stateId":1189,"stateCode":"AV","stateName":"Ávila","countryId":207,"countryCode":"ES","countryName":"Spain","latitude":"41.00139000","longitude":"-4.95453000","wikiDataId":"Q1606919"},{"id":33087,"name":"Cabezas del Villar","stateId":1189,"stateCode":"AV","stateName":"Ávila","countryId":207,"countryCode":"ES","countryName":"Spain","latitude":"40.71557000","longitude":"-5.20956000","wikiDataId":"Q1620309"},{"id":33096,"name":"Cabizuela","stateId":1189,"stateCode":"AV","stateName":"Ávila","countryId":207,"countryCode":"ES","countryName":"Spain","latitude":"40.90090000","longitude":"-4.80212000","wikiDataId":"Q1620291"},{"id":33222,"name":"Canales","stateId":1189,"stateCode":"AV","stateName":"Ávila","countryId":207,"countryCode":"ES","countryName":"Spain","latitude":"41.00331000","longitude":"-4.90163000","wikiDataId":"Q1902640"},{"id":33228,"name":"Candeleda","stateId":1189,"stateCode":"AV","stateName":"Ávila","countryId":207,"countryCode":"ES","countryName":"Spain","latitude":"40.15521000","longitude":"-5.24045000","wikiDataId":"Q1442696"},{"id":33259,"name":"Cantiveros","stateId":1189,"stateCode":"AV","stateName":"Ávila","countryId":207,"countryCode":"ES","countryName":"Spain","latitude":"40.95215000","longitude":"-4.95455000","wikiDataId":"Q1620339"},{"id":33301,"name":"Cardeñosa","stateId":1189,"stateCode":"AV","stateName":"Ávila","countryId":207,"countryCode":"ES","countryName":"Spain","latitude":"40.74240000","longitude":"-4.74579000","wikiDataId":"Q285411"},{"id":152710,"name":"Carrera La","stateId":1189,"stateCode":"AV","stateName":"Ávila","countryId":207,"countryCode":"ES","countryName":"Spain","latitude":"0.00000000","longitude":"0.00000000","wikiDataId":null},{"id":152711,"name":"Casas del Puerto","stateId":1189,"stateCode":"AV","stateName":"Ávila","countryId":207,"countryCode":"ES","countryName":"Spain","latitude":"0.00000000","longitude":"0.00000000","wikiDataId":null},{"id":152712,"name":"Casasola","stateId":1189,"stateCode":"AV","stateName":"Ávila","countryId":207,"countryCode":"ES","countryName":"Spain","latitude":"0.00000000","longitude":"0.00000000","wikiDataId":null},{"id":33382,"name":"Casavieja","stateId":1189,"stateCode":"AV","stateName":"Ávila","countryId":207,"countryCode":"ES","countryName":"Spain","latitude":"40.28325000","longitude":"-4.76670000","wikiDataId":"Q1445437"},{"id":33388,"name":"Casillas","stateId":1189,"stateCode":"AV","stateName":"Ávila","countryId":207,"countryCode":"ES","countryName":"Spain","latitude":"40.32610000","longitude":"-4.57182000","wikiDataId":"Q1652429"},{"id":33417,"name":"Castellanos de Zapardiel","stateId":1189,"stateCode":"AV","stateName":"Ávila","countryId":207,"countryCode":"ES","countryName":"Spain","latitude":"41.08450000","longitude":"-4.90984000","wikiDataId":"Q378230"},{"id":33551,"name":"Cebreros","stateId":1189,"stateCode":"AV","stateName":"Ávila","countryId":207,"countryCode":"ES","countryName":"Spain","latitude":"40.45835000","longitude":"-4.46433000","wikiDataId":"Q642073"},{"id":33577,"name":"Cepeda la Mora","stateId":1189,"stateCode":"AV","stateName":"Ávila","countryId":207,"countryCode":"ES","countryName":"Spain","latitude":"40.45780000","longitude":"-5.04833000","wikiDataId":"Q818921"},{"id":33614,"name":"Chamartín","stateId":1189,"stateCode":"AV","stateName":"Ávila","countryId":207,"countryCode":"ES","countryName":"Spain","latitude":"40.70267000","longitude":"-4.95769000","wikiDataId":"Q732971"},{"id":33615,"name":"Chamartín","stateId":1189,"stateCode":"AV","stateName":"Ávila","countryId":207,"countryCode":"ES","countryName":"Spain","latitude":"40.46206000","longitude":"-3.67660000","wikiDataId":"Q732971"},{"id":33672,"name":"Cillán","stateId":1189,"stateCode":"AV","stateName":"Ávila","countryId":207,"countryCode":"ES","countryName":"Spain","latitude":"40.70675000","longitude":"-4.98135000","wikiDataId":"Q1633515"},{"id":33690,"name":"Cisla","stateId":1189,"stateCode":"AV","stateName":"Ávila","countryId":207,"countryCode":"ES","countryName":"Spain","latitude":"40.96662000","longitude":"-5.01405000","wikiDataId":"Q1618190"},{"id":152713,"name":"Colilla La","stateId":1189,"stateCode":"AV","stateName":"Ávila","countryId":207,"countryCode":"ES","countryName":"Spain","latitude":"0.00000000","longitude":"0.00000000","wikiDataId":null},{"id":33734,"name":"Collado de Contreras","stateId":1189,"stateCode":"AV","stateName":"Ávila","countryId":207,"countryCode":"ES","countryName":"Spain","latitude":"40.88743000","longitude":"-4.93140000","wikiDataId":"Q680439"},{"id":33735,"name":"Collado del Mirón","stateId":1189,"stateCode":"AV","stateName":"Ávila","countryId":207,"countryCode":"ES","countryName":"Spain","latitude":"40.55307000","longitude":"-5.35398000","wikiDataId":"Q1607852"},{"id":33767,"name":"Constanzana","stateId":1189,"stateCode":"AV","stateName":"Ávila","countryId":207,"countryCode":"ES","countryName":"Spain","latitude":"40.93821000","longitude":"-4.87515000","wikiDataId":"Q1618221"},{"id":33834,"name":"Crespos","stateId":1189,"stateCode":"AV","stateName":"Ávila","countryId":207,"countryCode":"ES","countryName":"Spain","latitude":"40.87128000","longitude":"-4.97094000","wikiDataId":"Q24019203"},{"id":33879,"name":"Cuevas del Valle","stateId":1189,"stateCode":"AV","stateName":"Ávila","countryId":207,"countryCode":"ES","countryName":"Spain","latitude":"40.29418000","longitude":"-5.00938000","wikiDataId":"Q1607095"},{"id":152753,"name":"Diego del Carpio","stateId":1189,"stateCode":"AV","stateName":"Ávila","countryId":207,"countryCode":"ES","countryName":"Spain","latitude":"0.00000000","longitude":"0.00000000","wikiDataId":null},{"id":33945,"name":"Donjimeno","stateId":1189,"stateCode":"AV","stateName":"Ávila","countryId":207,"countryCode":"ES","countryName":"Spain","latitude":"40.95978000","longitude":"-4.84627000","wikiDataId":"Q1607934"},{"id":33947,"name":"Donvidas","stateId":1189,"stateCode":"AV","stateName":"Ávila","countryId":207,"countryCode":"ES","countryName":"Spain","latitude":"41.08954000","longitude":"-4.80634000","wikiDataId":"Q10313"},{"id":152714,"name":"Espinosa de los Caballeros","stateId":1189,"stateCode":"AV","stateName":"Ávila","countryId":207,"countryCode":"ES","countryName":"Spain","latitude":"0.00000000","longitude":"0.00000000","wikiDataId":null},{"id":34196,"name":"Flores de Ávila","stateId":1189,"stateCode":"AV","stateName":"Ávila","countryId":207,"countryCode":"ES","countryName":"Spain","latitude":"40.93358000","longitude":"-5.07914000","wikiDataId":"Q1618199"},{"id":34217,"name":"Fontiveros","stateId":1189,"stateCode":"AV","stateName":"Ávila","countryId":207,"countryCode":"ES","countryName":"Spain","latitude":"40.92997000","longitude":"-4.96445000","wikiDataId":"Q1442826"},{"id":34248,"name":"Fresnedilla","stateId":1189,"stateCode":"AV","stateName":"Ávila","countryId":207,"countryCode":"ES","countryName":"Spain","latitude":"40.23233000","longitude":"-4.62201000","wikiDataId":"Q1632633"},{"id":152715,"name":"Fresno El","stateId":1189,"stateCode":"AV","stateName":"Ávila","countryId":207,"countryCode":"ES","countryName":"Spain","latitude":"0.00000000","longitude":"0.00000000","wikiDataId":null},{"id":152716,"name":"Fuente el Saúz","stateId":1189,"stateCode":"AV","stateName":"Ávila","countryId":207,"countryCode":"ES","countryName":"Spain","latitude":"0.00000000","longitude":"0.00000000","wikiDataId":null},{"id":34340,"name":"Fuentes de Año","stateId":1189,"stateCode":"AV","stateName":"Ávila","countryId":207,"countryCode":"ES","countryName":"Spain","latitude":"41.01769000","longitude":"-4.89907000","wikiDataId":"Q1632373"},{"id":152717,"name":"Gallegos de Altamiros","stateId":1189,"stateCode":"AV","stateName":"Ávila","countryId":207,"countryCode":"ES","countryName":"Spain","latitude":"0.00000000","longitude":"0.00000000","wikiDataId":null},{"id":34389,"name":"Gallegos de Sobrinos","stateId":1189,"stateCode":"AV","stateName":"Ávila","countryId":207,"countryCode":"ES","countryName":"Spain","latitude":"40.71693000","longitude":"-5.11224000","wikiDataId":"Q1611031"},{"id":34416,"name":"Garganta del Villar","stateId":1189,"stateCode":"AV","stateName":"Ávila","countryId":207,"countryCode":"ES","countryName":"Spain","latitude":"40.44965000","longitude":"-5.10420000","wikiDataId":"Q1609897"},{"id":34440,"name":"Gavilanes","stateId":1189,"stateCode":"AV","stateName":"Ávila","countryId":207,"countryCode":"ES","countryName":"Spain","latitude":"40.27791000","longitude":"-4.85321000","wikiDataId":"Q944119"},{"id":34450,"name":"Gemuño","stateId":1189,"stateCode":"AV","stateName":"Ávila","countryId":207,"countryCode":"ES","countryName":"Spain","latitude":"40.59159000","longitude":"-4.78178000","wikiDataId":"Q659661"},{"id":152719,"name":"Gil García","stateId":1189,"stateCode":"AV","stateName":"Ávila","countryId":207,"countryCode":"ES","countryName":"Spain","latitude":"0.00000000","longitude":"0.00000000","wikiDataId":null},{"id":152718,"name":"Gilbuena","stateId":1189,"stateCode":"AV","stateName":"Ávila","countryId":207,"countryCode":"ES","countryName":"Spain","latitude":"0.00000000","longitude":"0.00000000","wikiDataId":null},{"id":34465,"name":"Gimialcón","stateId":1189,"stateCode":"AV","stateName":"Ávila","countryId":207,"countryCode":"ES","countryName":"Spain","latitude":"40.87705000","longitude":"-5.12308000","wikiDataId":"Q1632465"},{"id":34489,"name":"Gotarrendura","stateId":1189,"stateCode":"AV","stateName":"Ávila","countryId":207,"countryCode":"ES","countryName":"Spain","latitude":"40.82652000","longitude":"-4.74090000","wikiDataId":"Q842702"},{"id":152720,"name":"Grandes y San Martín","stateId":1189,"stateCode":"AV","stateName":"Ávila","countryId":207,"countryCode":"ES","countryName":"Spain","latitude":"0.00000000","longitude":"0.00000000","wikiDataId":null},{"id":34551,"name":"Guisando","stateId":1189,"stateCode":"AV","stateName":"Ávila","countryId":207,"countryCode":"ES","countryName":"Spain","latitude":"40.22225000","longitude":"-5.13950000","wikiDataId":"Q1450130"},{"id":34556,"name":"Gutierre-Muñoz","stateId":1189,"stateCode":"AV","stateName":"Ávila","countryId":207,"countryCode":"ES","countryName":"Spain","latitude":"40.98295000","longitude":"-4.63839000","wikiDataId":"Q1607033"},{"id":34589,"name":"Hernansancho","stateId":1189,"stateCode":"AV","stateName":"Ávila","countryId":207,"countryCode":"ES","countryName":"Spain","latitude":"40.85753000","longitude":"-4.73045000","wikiDataId":"Q1627952"},{"id":152721,"name":"Herradón de Pinares","stateId":1189,"stateCode":"AV","stateName":"Ávila","countryId":207,"countryCode":"ES","countryName":"Spain","latitude":"0.00000000","longitude":"0.00000000","wikiDataId":null},{"id":34600,"name":"Herreros de Suso","stateId":1189,"stateCode":"AV","stateName":"Ávila","countryId":207,"countryCode":"ES","countryName":"Spain","latitude":"40.80361000","longitude":"-5.03892000","wikiDataId":"Q538501"},{"id":34613,"name":"Higuera de las Dueñas","stateId":1189,"stateCode":"AV","stateName":"Ávila","countryId":207,"countryCode":"ES","countryName":"Spain","latitude":"40.23903000","longitude":"-4.60361000","wikiDataId":"Q1632728"},{"id":152722,"name":"Hija de Dios La","stateId":1189,"stateCode":"AV","stateName":"Ávila","countryId":207,"countryCode":"ES","countryName":"Spain","latitude":"0.00000000","longitude":"0.00000000","wikiDataId":null},{"id":152723,"name":"Horcajada La","stateId":1189,"stateCode":"AV","stateName":"Ávila","countryId":207,"countryCode":"ES","countryName":"Spain","latitude":"0.00000000","longitude":"0.00000000","wikiDataId":null},{"id":34653,"name":"Horcajo de las Torres","stateId":1189,"stateCode":"AV","stateName":"Ávila","countryId":207,"countryCode":"ES","countryName":"Spain","latitude":"41.06497000","longitude":"-5.09092000","wikiDataId":"Q1632712"},{"id":152724,"name":"Hornillo El","stateId":1189,"stateCode":"AV","stateName":"Ávila","countryId":207,"countryCode":"ES","countryName":"Spain","latitude":"0.00000000","longitude":"0.00000000","wikiDataId":null},{"id":152725,"name":"Hoyo de Pinares El","stateId":1189,"stateCode":"AV","stateName":"Ávila","countryId":207,"countryCode":"ES","countryName":"Spain","latitude":"0.00000000","longitude":"0.00000000","wikiDataId":null},{"id":34675,"name":"Hoyocasero","stateId":1189,"stateCode":"AV","stateName":"Ávila","countryId":207,"countryCode":"ES","countryName":"Spain","latitude":"40.39890000","longitude":"-4.97455000","wikiDataId":"Q1632400"},{"id":34676,"name":"Hoyorredondo","stateId":1189,"stateCode":"AV","stateName":"Ávila","countryId":207,"countryCode":"ES","countryName":"Spain","latitude":"40.46270000","longitude":"-5.41097000","wikiDataId":"Q1606975"},{"id":34678,"name":"Hoyos de Miguel Muñoz","stateId":1189,"stateCode":"AV","stateName":"Ávila","countryId":207,"countryCode":"ES","countryName":"Spain","latitude":"40.39237000","longitude":"-5.06713000","wikiDataId":"Q634713"},{"id":34679,"name":"Hoyos del Collado","stateId":1189,"stateCode":"AV","stateName":"Ávila","countryId":207,"countryCode":"ES","countryName":"Spain","latitude":"40.35945000","longitude":"-5.20027000","wikiDataId":"Q1607083"},{"id":34680,"name":"Hoyos del Espino","stateId":1189,"stateCode":"AV","stateName":"Ávila","countryId":207,"countryCode":"ES","countryName":"Spain","latitude":"40.35623000","longitude":"-5.17505000","wikiDataId":"Q1632480"},{"id":34704,"name":"Hurtumpascual","stateId":1189,"stateCode":"AV","stateName":"Ávila","countryId":207,"countryCode":"ES","countryName":"Spain","latitude":"40.69200000","longitude":"-5.11379000","wikiDataId":"Q1609909"},{"id":34830,"name":"Junciana","stateId":1189,"stateCode":"AV","stateName":"Ávila","countryId":207,"countryCode":"ES","countryName":"Spain","latitude":"40.41076000","longitude":"-5.55698000","wikiDataId":"Q1632758"},{"id":34962,"name":"Langa","stateId":1189,"stateCode":"AV","stateName":"Ávila","countryId":207,"countryCode":"ES","countryName":"Spain","latitude":"41.00550000","longitude":"-4.85946000","wikiDataId":"Q1227956"},{"id":152726,"name":"Lanzahíta","stateId":1189,"stateCode":"AV","stateName":"Ávila","countryId":207,"countryCode":"ES","countryName":"Spain","latitude":"0.00000000","longitude":"0.00000000","wikiDataId":null},{"id":152728,"name":"Llanos de Tormes Los","stateId":1189,"stateCode":"AV","stateName":"Ávila","countryId":207,"countryCode":"ES","countryName":"Spain","latitude":"0.00000000","longitude":"0.00000000","wikiDataId":null},{"id":152727,"name":"Losar del Barco El","stateId":1189,"stateCode":"AV","stateName":"Ávila","countryId":207,"countryCode":"ES","countryName":"Spain","latitude":"0.00000000","longitude":"0.00000000","wikiDataId":null},{"id":35190,"name":"Madrigal de las Altas Torres","stateId":1189,"stateCode":"AV","stateName":"Ávila","countryId":207,"countryCode":"ES","countryName":"Spain","latitude":"41.08968000","longitude":"-4.99863000","wikiDataId":"Q1406727"},{"id":35198,"name":"Maello","stateId":1189,"stateCode":"AV","stateName":"Ávila","countryId":207,"countryCode":"ES","countryName":"Spain","latitude":"40.80929000","longitude":"-4.51186000","wikiDataId":"Q1606813"},{"id":35226,"name":"Malpartida de Corneja","stateId":1189,"stateCode":"AV","stateName":"Ávila","countryId":207,"countryCode":"ES","countryName":"Spain","latitude":"40.52208000","longitude":"-5.35026000","wikiDataId":"Q1632316"},{"id":35235,"name":"Mamblas","stateId":1189,"stateCode":"AV","stateName":"Ávila","countryId":207,"countryCode":"ES","countryName":"Spain","latitude":"41.01925000","longitude":"-5.00873000","wikiDataId":"Q1632369"},{"id":35241,"name":"Mancera de Arriba","stateId":1189,"stateCode":"AV","stateName":"Ávila","countryId":207,"countryCode":"ES","countryName":"Spain","latitude":"40.79139000","longitude":"-5.14772000","wikiDataId":"Q1632398"},{"id":35252,"name":"Manjabálago","stateId":1189,"stateCode":"AV","stateName":"Ávila","countryId":207,"countryCode":"ES","countryName":"Spain","latitude":"40.66441000","longitude":"-5.07719000","wikiDataId":"Q1611043"},{"id":152729,"name":"Marlín","stateId":1189,"stateCode":"AV","stateName":"Ávila","countryId":207,"countryCode":"ES","countryName":"Spain","latitude":"0.00000000","longitude":"0.00000000","wikiDataId":null},{"id":35299,"name":"Martiherrero","stateId":1189,"stateCode":"AV","stateName":"Ávila","countryId":207,"countryCode":"ES","countryName":"Spain","latitude":"40.67392000","longitude":"-4.78156000","wikiDataId":"Q1632641"},{"id":35309,"name":"Martínez","stateId":1189,"stateCode":"AV","stateName":"Ávila","countryId":207,"countryCode":"ES","countryName":"Spain","latitude":"40.63046000","longitude":"-5.34801000","wikiDataId":"Q1650939"},{"id":35368,"name":"Mediana de Voltoya","stateId":1189,"stateCode":"AV","stateName":"Ávila","countryId":207,"countryCode":"ES","countryName":"Spain","latitude":"40.70104000","longitude":"-4.56341000","wikiDataId":"Q1632673"},{"id":35375,"name":"Medinilla","stateId":1189,"stateCode":"AV","stateName":"Ávila","countryId":207,"countryCode":"ES","countryName":"Spain","latitude":"40.43967000","longitude":"-5.61772000","wikiDataId":"Q484628"},{"id":35404,"name":"Mengamuñoz","stateId":1189,"stateCode":"AV","stateName":"Ávila","countryId":207,"countryCode":"ES","countryName":"Spain","latitude":"40.50006000","longitude":"-4.99983000","wikiDataId":"Q1606346"},{"id":35409,"name":"Mesegar de Corneja","stateId":1189,"stateCode":"AV","stateName":"Ávila","countryId":207,"countryCode":"ES","countryName":"Spain","latitude":"40.50209000","longitude":"-5.30131000","wikiDataId":"Q784095"},{"id":35426,"name":"Mijares","stateId":1189,"stateCode":"AV","stateName":"Ávila","countryId":207,"countryCode":"ES","countryName":"Spain","latitude":"40.29655000","longitude":"-4.83651000","wikiDataId":"Q784611"},{"id":35438,"name":"Mingorría","stateId":1189,"stateCode":"AV","stateName":"Ávila","countryId":207,"countryCode":"ES","countryName":"Spain","latitude":"40.75192000","longitude":"-4.66583000","wikiDataId":"Q764795"},{"id":152730,"name":"Mirón El","stateId":1189,"stateCode":"AV","stateName":"Ávila","countryId":207,"countryCode":"ES","countryName":"Spain","latitude":"0.00000000","longitude":"0.00000000","wikiDataId":null},{"id":35455,"name":"Mironcillo","stateId":1189,"stateCode":"AV","stateName":"Ávila","countryId":207,"countryCode":"ES","countryName":"Spain","latitude":"40.55435000","longitude":"-4.82449000","wikiDataId":"Q23994751"},{"id":152731,"name":"Mirueña de los Infanzones","stateId":1189,"stateCode":"AV","stateName":"Ávila","countryId":207,"countryCode":"ES","countryName":"Spain","latitude":"0.00000000","longitude":"0.00000000","wikiDataId":null},{"id":35491,"name":"Mombeltrán","stateId":1189,"stateCode":"AV","stateName":"Ávila","countryId":207,"countryCode":"ES","countryName":"Spain","latitude":"40.25987000","longitude":"-5.01749000","wikiDataId":"Q1445660"},{"id":35526,"name":"Monsalupe","stateId":1189,"stateCode":"AV","stateName":"Ávila","countryId":207,"countryCode":"ES","countryName":"Spain","latitude":"40.76953000","longitude":"-4.78131000","wikiDataId":"Q1611004"},{"id":35603,"name":"Moraleja de Matacabras","stateId":1189,"stateCode":"AV","stateName":"Ávila","countryId":207,"countryCode":"ES","countryName":"Spain","latitude":"41.10732000","longitude":"-4.95717000","wikiDataId":"Q1607968"},{"id":35692,"name":"Muñana","stateId":1189,"stateCode":"AV","stateName":"Ávila","countryId":207,"countryCode":"ES","countryName":"Spain","latitude":"40.59042000","longitude":"-5.01447000","wikiDataId":"Q1632749"},{"id":35693,"name":"Muñico","stateId":1189,"stateCode":"AV","stateName":"Ávila","countryId":207,"countryCode":"ES","countryName":"Spain","latitude":"40.70678000","longitude":"-5.02717000","wikiDataId":"Q1632683"},{"id":35694,"name":"Muñogalindo","stateId":1189,"stateCode":"AV","stateName":"Ávila","countryId":207,"countryCode":"ES","countryName":"Spain","latitude":"40.60324000","longitude":"-4.89895000","wikiDataId":"Q944466"},{"id":35695,"name":"Muñogrande","stateId":1189,"stateCode":"AV","stateName":"Ávila","countryId":207,"countryCode":"ES","countryName":"Spain","latitude":"40.82181000","longitude":"-4.92223000","wikiDataId":"Q1606829"},{"id":35696,"name":"Muñomer del Peco","stateId":1189,"stateCode":"AV","stateName":"Ávila","countryId":207,"countryCode":"ES","countryName":"Spain","latitude":"40.85878000","longitude":"-4.87992000","wikiDataId":"Q24009095"},{"id":35698,"name":"Muñopepe","stateId":1189,"stateCode":"AV","stateName":"Ávila","countryId":207,"countryCode":"ES","countryName":"Spain","latitude":"40.63408000","longitude":"-4.81876000","wikiDataId":"Q1632623"},{"id":35699,"name":"Muñosancho","stateId":1189,"stateCode":"AV","stateName":"Ávila","countryId":207,"countryCode":"ES","countryName":"Spain","latitude":"40.92097000","longitude":"-5.03559000","wikiDataId":"Q1632366"},{"id":35700,"name":"Muñotello","stateId":1189,"stateCode":"AV","stateName":"Ávila","countryId":207,"countryCode":"ES","countryName":"Spain","latitude":"40.54236000","longitude":"-5.04187000","wikiDataId":"Q1610989"},{"id":35714,"name":"Narrillos del Álamo","stateId":1189,"stateCode":"AV","stateName":"Ávila","countryId":207,"countryCode":"ES","countryName":"Spain","latitude":"40.56673000","longitude":"-5.46584000","wikiDataId":"Q1632338"},{"id":35713,"name":"Narrillos del Rebollar","stateId":1189,"stateCode":"AV","stateName":"Ávila","countryId":207,"countryCode":"ES","countryName":"Spain","latitude":"40.66488000","longitude":"-4.96577000","wikiDataId":"Q1610945"},{"id":35717,"name":"Narros de Saldueña","stateId":1189,"stateCode":"AV","stateName":"Ávila","countryId":207,"countryCode":"ES","countryName":"Spain","latitude":"40.87268000","longitude":"-4.86909000","wikiDataId":"Q1632446"},{"id":35718,"name":"Narros del Castillo","stateId":1189,"stateCode":"AV","stateName":"Ávila","countryId":207,"countryCode":"ES","countryName":"Spain","latitude":"40.85869000","longitude":"-5.06010000","wikiDataId":"Q1632650"},{"id":35719,"name":"Narros del Puerto","stateId":1189,"stateCode":"AV","stateName":"Ávila","countryId":207,"countryCode":"ES","countryName":"Spain","latitude":"40.54131000","longitude":"-4.99291000","wikiDataId":"Q1606774"},{"id":35721,"name":"Nava de Arévalo","stateId":1189,"stateCode":"AV","stateName":"Ávila","countryId":207,"countryCode":"ES","countryName":"Spain","latitude":"40.97803000","longitude":"-4.77573000","wikiDataId":"Q1606868"},{"id":35727,"name":"Nava del Barco","stateId":1189,"stateCode":"AV","stateName":"Ávila","countryId":207,"countryCode":"ES","countryName":"Spain","latitude":"40.29321000","longitude":"-5.54022000","wikiDataId":"Q1632377"},{"id":35730,"name":"Navacepedilla de Corneja","stateId":1189,"stateCode":"AV","stateName":"Ávila","countryId":207,"countryCode":"ES","countryName":"Spain","latitude":"40.48602000","longitude":"-5.18380000","wikiDataId":"Q932657"},{"id":35733,"name":"Navadijos","stateId":1189,"stateCode":"AV","stateName":"Ávila","countryId":207,"countryCode":"ES","countryName":"Spain","latitude":"40.42524000","longitude":"-5.08285000","wikiDataId":"Q1606896"},{"id":35734,"name":"Navaescurial","stateId":1189,"stateCode":"AV","stateName":"Ávila","countryId":207,"countryCode":"ES","countryName":"Spain","latitude":"40.47163000","longitude":"-5.27756000","wikiDataId":"Q1606295"},{"id":35737,"name":"Navahondilla","stateId":1189,"stateCode":"AV","stateName":"Ávila","countryId":207,"countryCode":"ES","countryName":"Spain","latitude":"40.32510000","longitude":"-4.49661000","wikiDataId":"Q1632392"},{"id":35741,"name":"Navalacruz","stateId":1189,"stateCode":"AV","stateName":"Ávila","countryId":207,"countryCode":"ES","countryName":"Spain","latitude":"40.43993000","longitude":"-4.93122000","wikiDataId":"Q1632363"},{"id":35750,"name":"Navalmoral","stateId":1189,"stateCode":"AV","stateName":"Ávila","countryId":207,"countryCode":"ES","countryName":"Spain","latitude":"40.46028000","longitude":"-4.76859000","wikiDataId":"Q1632723"},{"id":152732,"name":"Navalonguilla","stateId":1189,"stateCode":"AV","stateName":"Ávila","countryId":207,"countryCode":"ES","countryName":"Spain","latitude":"0.00000000","longitude":"0.00000000","wikiDataId":null},{"id":35754,"name":"Navalosa","stateId":1189,"stateCode":"AV","stateName":"Ávila","countryId":207,"countryCode":"ES","countryName":"Spain","latitude":"40.40212000","longitude":"-4.92999000","wikiDataId":"Q1632696"},{"id":35755,"name":"Navalperal de Pinares","stateId":1189,"stateCode":"AV","stateName":"Ávila","countryId":207,"countryCode":"ES","countryName":"Spain","latitude":"40.59398000","longitude":"-4.41149000","wikiDataId":"Q283318"},{"id":35756,"name":"Navalperal de Tormes","stateId":1189,"stateCode":"AV","stateName":"Ávila","countryId":207,"countryCode":"ES","countryName":"Spain","latitude":"40.35280000","longitude":"-5.30084000","wikiDataId":"Q1632599"},{"id":35759,"name":"Navaluenga","stateId":1189,"stateCode":"AV","stateName":"Ávila","countryId":207,"countryCode":"ES","countryName":"Spain","latitude":"40.41123000","longitude":"-4.70897000","wikiDataId":"Q3774402"},{"id":35764,"name":"Navaquesera","stateId":1189,"stateCode":"AV","stateName":"Ávila","countryId":207,"countryCode":"ES","countryName":"Spain","latitude":"40.42558000","longitude":"-4.91108000","wikiDataId":"Q1606312"},{"id":35771,"name":"Navarredonda de Gredos","stateId":1189,"stateCode":"AV","stateName":"Ávila","countryId":207,"countryCode":"ES","countryName":"Spain","latitude":"40.36136000","longitude":"-5.13268000","wikiDataId":"Q1601807"},{"id":35773,"name":"Navarredondilla","stateId":1189,"stateCode":"AV","stateName":"Ávila","countryId":207,"countryCode":"ES","countryName":"Spain","latitude":"40.45416000","longitude":"-4.82199000","wikiDataId":"Q1631128"},{"id":35774,"name":"Navarrevisca","stateId":1189,"stateCode":"AV","stateName":"Ávila","countryId":207,"countryCode":"ES","countryName":"Spain","latitude":"40.36417000","longitude":"-4.89352000","wikiDataId":"Q1632336"},{"id":152733,"name":"Navas del Marqués Las","stateId":1189,"stateCode":"AV","stateName":"Ávila","countryId":207,"countryCode":"ES","countryName":"Spain","latitude":"0.00000000","longitude":"0.00000000","wikiDataId":null},{"id":35787,"name":"Navatalgordo","stateId":1189,"stateCode":"AV","stateName":"Ávila","countryId":207,"countryCode":"ES","countryName":"Spain","latitude":"40.41520000","longitude":"-4.87155000","wikiDataId":"Q1632355"},{"id":35788,"name":"Navatejares","stateId":1189,"stateCode":"AV","stateName":"Ávila","countryId":207,"countryCode":"ES","countryName":"Spain","latitude":"40.33602000","longitude":"-5.53220000","wikiDataId":"Q1606881"},{"id":35800,"name":"Neila de San Miguel","stateId":1189,"stateCode":"AV","stateName":"Ávila","countryId":207,"countryCode":"ES","countryName":"Spain","latitude":"40.42372000","longitude":"-5.65090000","wikiDataId":"Q1606857"},{"id":35811,"name":"Niharra","stateId":1189,"stateCode":"AV","stateName":"Ávila","countryId":207,"countryCode":"ES","countryName":"Spain","latitude":"40.58945000","longitude":"-4.83895000","wikiDataId":"Q1632453"},{"id":35869,"name":"Ojos-Albos","stateId":1189,"stateCode":"AV","stateName":"Ávila","countryId":207,"countryCode":"ES","countryName":"Spain","latitude":"40.70596000","longitude":"-4.51633000","wikiDataId":"Q1614718"},{"id":35934,"name":"Orbita","stateId":1189,"stateCode":"AV","stateName":"Ávila","countryId":207,"countryCode":"ES","countryName":"Spain","latitude":"40.99846000","longitude":"-4.64833000","wikiDataId":"Q585929"},{"id":152734,"name":"Oso El","stateId":1189,"stateCode":"AV","stateName":"Ávila","countryId":207,"countryCode":"ES","countryName":"Spain","latitude":"0.00000000","longitude":"0.00000000","wikiDataId":null},{"id":35990,"name":"Padiernos","stateId":1189,"stateCode":"AV","stateName":"Ávila","countryId":207,"countryCode":"ES","countryName":"Spain","latitude":"40.62168000","longitude":"-4.84523000","wikiDataId":"Q1632331"},{"id":36000,"name":"Pajares de Adaja","stateId":1189,"stateCode":"AV","stateName":"Ávila","countryId":207,"countryCode":"ES","countryName":"Spain","latitude":"40.92398000","longitude":"-4.64048000","wikiDataId":"Q1905916"},{"id":36006,"name":"Palacios de Goda","stateId":1189,"stateCode":"AV","stateName":"Ávila","countryId":207,"countryCode":"ES","countryName":"Spain","latitude":"41.11798000","longitude":"-4.78496000","wikiDataId":"Q1631156"},{"id":36051,"name":"Papatrigo","stateId":1189,"stateCode":"AV","stateName":"Ávila","countryId":207,"countryCode":"ES","countryName":"Spain","latitude":"40.86790000","longitude":"-4.83399000","wikiDataId":"Q1650949"},{"id":152735,"name":"Parral El","stateId":1189,"stateCode":"AV","stateName":"Ávila","countryId":207,"countryCode":"ES","countryName":"Spain","latitude":"0.00000000","longitude":"0.00000000","wikiDataId":null},{"id":152736,"name":"Pascualcobo","stateId":1189,"stateCode":"AV","stateName":"Ávila","countryId":207,"countryCode":"ES","countryName":"Spain","latitude":"0.00000000","longitude":"0.00000000","wikiDataId":null},{"id":36099,"name":"Pedro Bernardo","stateId":1189,"stateCode":"AV","stateName":"Ávila","countryId":207,"countryCode":"ES","countryName":"Spain","latitude":"40.24214000","longitude":"-4.90963000","wikiDataId":"Q1606399"},{"id":152737,"name":"Pedro-Rodríguez","stateId":1189,"stateCode":"AV","stateName":"Ávila","countryId":207,"countryCode":"ES","countryName":"Spain","latitude":"0.00000000","longitude":"0.00000000","wikiDataId":null},{"id":36117,"name":"Peguerinos","stateId":1189,"stateCode":"AV","stateName":"Ávila","countryId":207,"countryCode":"ES","countryName":"Spain","latitude":"40.62620000","longitude":"-4.23154000","wikiDataId":"Q1632702"},{"id":36166,"name":"Peñalba de Ávila","stateId":1189,"stateCode":"AV","stateName":"Ávila","countryId":207,"countryCode":"ES","countryName":"Spain","latitude":"40.77266000","longitude":"-4.74595000","wikiDataId":"Q1631119"},{"id":152738,"name":"Piedrahíta","stateId":1189,"stateCode":"AV","stateName":"Ávila","countryId":207,"countryCode":"ES","countryName":"Spain","latitude":"0.00000000","longitude":"0.00000000","wikiDataId":null},{"id":36182,"name":"Piedralaves","stateId":1189,"stateCode":"AV","stateName":"Ávila","countryId":207,"countryCode":"ES","countryName":"Spain","latitude":"40.31721000","longitude":"-4.70025000","wikiDataId":"Q1607872"},{"id":36306,"name":"Poveda","stateId":1189,"stateCode":"AV","stateName":"Ávila","countryId":207,"countryCode":"ES","countryName":"Spain","latitude":"40.56799000","longitude":"-5.07909000","wikiDataId":"Q919035"},{"id":36310,"name":"Poyales del Hoyo","stateId":1189,"stateCode":"AV","stateName":"Ávila","countryId":207,"countryCode":"ES","countryName":"Spain","latitude":"40.17254000","longitude":"-5.16597000","wikiDataId":"Q1630438"},{"id":36315,"name":"Pozanco","stateId":1189,"stateCode":"AV","stateName":"Ávila","countryId":207,"countryCode":"ES","countryName":"Spain","latitude":"40.80095000","longitude":"-4.66772000","wikiDataId":"Q1606385"},{"id":36349,"name":"Pradosegar","stateId":1189,"stateCode":"AV","stateName":"Ávila","countryId":207,"countryCode":"ES","countryName":"Spain","latitude":"40.55020000","longitude":"-5.07015000","wikiDataId":"Q1631108"},{"id":36444,"name":"Puerto Castilla","stateId":1189,"stateCode":"AV","stateName":"Ávila","countryId":207,"countryCode":"ES","countryName":"Spain","latitude":"40.28800000","longitude":"-5.62366000","wikiDataId":"Q15269038"},{"id":36550,"name":"Rasueros","stateId":1189,"stateCode":"AV","stateName":"Ávila","countryId":207,"countryCode":"ES","countryName":"Spain","latitude":"41.02344000","longitude":"-5.07377000","wikiDataId":"Q1630446"},{"id":152739,"name":"Riocabado","stateId":1189,"stateCode":"AV","stateName":"Ávila","countryId":207,"countryCode":"ES","countryName":"Spain","latitude":"0.00000000","longitude":"0.00000000","wikiDataId":null},{"id":152740,"name":"Riofrío","stateId":1189,"stateCode":"AV","stateName":"Ávila","countryId":207,"countryCode":"ES","countryName":"Spain","latitude":"0.00000000","longitude":"0.00000000","wikiDataId":null},{"id":36640,"name":"Rivilla de Barajas","stateId":1189,"stateCode":"AV","stateName":"Ávila","countryId":207,"countryCode":"ES","countryName":"Spain","latitude":"40.90210000","longitude":"-4.98836000","wikiDataId":"Q1606758"},{"id":36772,"name":"Salobral","stateId":1189,"stateCode":"AV","stateName":"Ávila","countryId":207,"countryCode":"ES","countryName":"Spain","latitude":"40.61179000","longitude":"-4.81013000","wikiDataId":"Q1630524"},{"id":36781,"name":"Salvadiós","stateId":1189,"stateCode":"AV","stateName":"Ávila","countryId":207,"countryCode":"ES","countryName":"Spain","latitude":"40.87836000","longitude":"-5.09629000","wikiDataId":"Q1607985"},{"id":36807,"name":"San Bartolomé de Béjar","stateId":1189,"stateCode":"AV","stateName":"Ávila","countryId":207,"countryCode":"ES","countryName":"Spain","latitude":"40.40783000","longitude":"-5.66261000","wikiDataId":"Q1606329"},{"id":36808,"name":"San Bartolomé de Corneja","stateId":1189,"stateCode":"AV","stateName":"Ávila","countryId":207,"countryCode":"ES","countryName":"Spain","latitude":"40.49257000","longitude":"-5.38519000","wikiDataId":"Q1607832"},{"id":152741,"name":"San Bartolomé de Pinares","stateId":1189,"stateCode":"AV","stateName":"Ávila","countryId":207,"countryCode":"ES","countryName":"Spain","latitude":"0.00000000","longitude":"0.00000000","wikiDataId":null},{"id":36831,"name":"San Esteban de los Patos","stateId":1189,"stateCode":"AV","stateName":"Ávila","countryId":207,"countryCode":"ES","countryName":"Spain","latitude":"40.74705000","longitude":"-4.62413000","wikiDataId":"Q1607891"},{"id":152742,"name":"San Esteban de Zapardiel","stateId":1189,"stateCode":"AV","stateName":"Ávila","countryId":207,"countryCode":"ES","countryName":"Spain","latitude":"0.00000000","longitude":"0.00000000","wikiDataId":null},{"id":36833,"name":"San Esteban del Valle","stateId":1189,"stateCode":"AV","stateName":"Ávila","countryId":207,"countryCode":"ES","countryName":"Spain","latitude":"40.27510000","longitude":"-4.98215000","wikiDataId":"Q523673"},{"id":36837,"name":"San García de Ingelmos","stateId":1189,"stateCode":"AV","stateName":"Ávila","countryId":207,"countryCode":"ES","countryName":"Spain","latitude":"40.76912000","longitude":"-5.11523000","wikiDataId":"Q1630497"},{"id":152751,"name":"San Juan de Gredos","stateId":1189,"stateCode":"AV","stateName":"Ávila","countryId":207,"countryCode":"ES","countryName":"Spain","latitude":"0.00000000","longitude":"0.00000000","wikiDataId":null},{"id":36846,"name":"San Juan de la Encinilla","stateId":1189,"stateCode":"AV","stateName":"Ávila","countryId":207,"countryCode":"ES","countryName":"Spain","latitude":"40.83020000","longitude":"-4.83957000","wikiDataId":"Q1630457"},{"id":36847,"name":"San Juan de la Nava","stateId":1189,"stateCode":"AV","stateName":"Ávila","countryId":207,"countryCode":"ES","countryName":"Spain","latitude":"40.47880000","longitude":"-4.68238000","wikiDataId":"Q1630609"},{"id":36850,"name":"San Juan del Molinillo","stateId":1189,"stateCode":"AV","stateName":"Ávila","countryId":207,"countryCode":"ES","countryName":"Spain","latitude":"40.45909000","longitude":"-4.81711000","wikiDataId":"Q1630594"},{"id":152743,"name":"San Juan del Olmo","stateId":1189,"stateCode":"AV","stateName":"Ávila","countryId":207,"countryCode":"ES","countryName":"Spain","latitude":"0.00000000","longitude":"0.00000000","wikiDataId":null},{"id":36859,"name":"San Lorenzo de Tormes","stateId":1189,"stateCode":"AV","stateName":"Ávila","countryId":207,"countryCode":"ES","countryName":"Spain","latitude":"40.36984000","longitude":"-5.48848000","wikiDataId":"Q1606412"},{"id":36874,"name":"San Martín de la Vega del Alberche","stateId":1189,"stateCode":"AV","stateName":"Ávila","countryId":207,"countryCode":"ES","countryName":"Spain","latitude":"40.43053000","longitude":"-5.15500000","wikiDataId":"Q1630563"},{"id":36876,"name":"San Martín del Pimpollar","stateId":1189,"stateCode":"AV","stateName":"Ávila","countryId":207,"countryCode":"ES","countryName":"Spain","latitude":"40.36830000","longitude":"-5.05443000","wikiDataId":"Q1630378"},{"id":36881,"name":"San Miguel de Corneja","stateId":1189,"stateCode":"AV","stateName":"Ávila","countryId":207,"countryCode":"ES","countryName":"Spain","latitude":"40.48722000","longitude":"-5.28654000","wikiDataId":"Q1606963"},{"id":36884,"name":"San Miguel de Serrezuela","stateId":1189,"stateCode":"AV","stateName":"Ávila","countryId":207,"countryCode":"ES","countryName":"Spain","latitude":"40.67064000","longitude":"-5.28857000","wikiDataId":"Q1630415"},{"id":36898,"name":"San Pascual","stateId":1189,"stateCode":"AV","stateName":"Ávila","countryId":207,"countryCode":"ES","countryName":"Spain","latitude":"40.88141000","longitude":"-4.75612000","wikiDataId":"Q1916546"},{"id":36909,"name":"San Pedro del Arroyo","stateId":1189,"stateCode":"AV","stateName":"Ávila","countryId":207,"countryCode":"ES","countryName":"Spain","latitude":"40.80213000","longitude":"-4.87075000","wikiDataId":"Q1630369"},{"id":36927,"name":"San Vicente de Arévalo","stateId":1189,"stateCode":"AV","stateName":"Ávila","countryId":207,"countryCode":"ES","countryName":"Spain","latitude":"40.96773000","longitude":"-4.80194000","wikiDataId":"Q1628864"},{"id":36935,"name":"Sanchidrián","stateId":1189,"stateCode":"AV","stateName":"Ávila","countryId":207,"countryCode":"ES","countryName":"Spain","latitude":"40.89347000","longitude":"-4.58132000","wikiDataId":"Q1630640"},{"id":36937,"name":"Sanchorreja","stateId":1189,"stateCode":"AV","stateName":"Ávila","countryId":207,"countryCode":"ES","countryName":"Spain","latitude":"40.66475000","longitude":"-4.91494000","wikiDataId":"Q1630617"},{"id":37035,"name":"Santa Cruz de Pinares","stateId":1189,"stateCode":"AV","stateName":"Ávila","countryId":207,"countryCode":"ES","countryName":"Spain","latitude":"40.54265000","longitude":"-4.58036000","wikiDataId":"Q1628870"},{"id":37045,"name":"Santa Cruz del Valle","stateId":1189,"stateCode":"AV","stateName":"Ávila","countryId":207,"countryCode":"ES","countryName":"Spain","latitude":"40.25160000","longitude":"-5.00133000","wikiDataId":"Q1628238"},{"id":37083,"name":"Santa María de los Caballeros","stateId":1189,"stateCode":"AV","stateName":"Ávila","countryId":207,"countryCode":"ES","countryName":"Spain","latitude":"40.38925000","longitude":"-5.45112000","wikiDataId":"Q1630468"},{"id":152744,"name":"Santa María del Arroyo","stateId":1189,"stateCode":"AV","stateName":"Ávila","countryId":207,"countryCode":"ES","countryName":"Spain","latitude":"0.00000000","longitude":"0.00000000","wikiDataId":null},{"id":37084,"name":"Santa María del Berrocal","stateId":1189,"stateCode":"AV","stateName":"Ávila","countryId":207,"countryCode":"ES","countryName":"Spain","latitude":"40.50845000","longitude":"-5.40483000","wikiDataId":"Q1628256"},{"id":152752,"name":"Santa María del Cubillo","stateId":1189,"stateCode":"AV","stateName":"Ávila","countryId":207,"countryCode":"ES","countryName":"Spain","latitude":"0.00000000","longitude":"0.00000000","wikiDataId":null},{"id":152745,"name":"Santa María del Tiétar","stateId":1189,"stateCode":"AV","stateName":"Ávila","countryId":207,"countryCode":"ES","countryName":"Spain","latitude":"0.00000000","longitude":"0.00000000","wikiDataId":null},{"id":37118,"name":"Santiago del Collado","stateId":1189,"stateCode":"AV","stateName":"Ávila","countryId":207,"countryCode":"ES","countryName":"Spain","latitude":"40.43326000","longitude":"-5.35631000","wikiDataId":"Q1628852"},{"id":152754,"name":"Santiago del Tormes","stateId":1189,"stateCode":"AV","stateName":"Ávila","countryId":207,"countryCode":"ES","countryName":"Spain","latitude":"0.00000000","longitude":"0.00000000","wikiDataId":null},{"id":37142,"name":"Santo Domingo de las Posadas","stateId":1189,"stateCode":"AV","stateName":"Ávila","countryId":207,"countryCode":"ES","countryName":"Spain","latitude":"40.81200000","longitude":"-4.63383000","wikiDataId":"Q385629"},{"id":37144,"name":"Santo Tomé de Zabarcos","stateId":1189,"stateCode":"AV","stateName":"Ávila","countryId":207,"countryCode":"ES","countryName":"Spain","latitude":"40.78726000","longitude":"-4.91048000","wikiDataId":"Q749685"},{"id":152746,"name":"Serrada La","stateId":1189,"stateCode":"AV","stateName":"Ávila","countryId":207,"countryCode":"ES","countryName":"Spain","latitude":"0.00000000","longitude":"0.00000000","wikiDataId":null},{"id":37224,"name":"Serranillos","stateId":1189,"stateCode":"AV","stateName":"Ávila","countryId":207,"countryCode":"ES","countryName":"Spain","latitude":"40.33625000","longitude":"-4.91165000","wikiDataId":"Q766377"},{"id":37251,"name":"Sigeres","stateId":1189,"stateCode":"AV","stateName":"Ávila","countryId":207,"countryCode":"ES","countryName":"Spain","latitude":"40.79939000","longitude":"-4.93361000","wikiDataId":"Q1607058"},{"id":37263,"name":"Sinlabajos","stateId":1189,"stateCode":"AV","stateName":"Ávila","countryId":207,"countryCode":"ES","countryName":"Spain","latitude":"41.07650000","longitude":"-4.83242000","wikiDataId":"Q1628122"},{"id":152747,"name":"Solana de Ávila","stateId":1189,"stateCode":"AV","stateName":"Ávila","countryId":207,"countryCode":"ES","countryName":"Spain","latitude":"0.00000000","longitude":"0.00000000","wikiDataId":null},{"id":152748,"name":"Solana de Rioalmar","stateId":1189,"stateCode":"AV","stateName":"Ávila","countryId":207,"countryCode":"ES","countryName":"Spain","latitude":"0.00000000","longitude":"0.00000000","wikiDataId":null},{"id":37284,"name":"Solosancho","stateId":1189,"stateCode":"AV","stateName":"Ávila","countryId":207,"countryCode":"ES","countryName":"Spain","latitude":"40.55294000","longitude":"-4.90479000","wikiDataId":"Q1610933"},{"id":37311,"name":"Sotalbo","stateId":1189,"stateCode":"AV","stateName":"Ávila","countryId":207,"countryCode":"ES","countryName":"Spain","latitude":"40.54170000","longitude":"-4.84548000","wikiDataId":"Q1768457"},{"id":37313,"name":"Sotillo de la Adrada","stateId":1189,"stateCode":"AV","stateName":"Ávila","countryId":207,"countryCode":"ES","countryName":"Spain","latitude":"40.29120000","longitude":"-4.58385000","wikiDataId":"Q1609922"},{"id":152749,"name":"Tiemblo El","stateId":1189,"stateCode":"AV","stateName":"Ávila","countryId":207,"countryCode":"ES","countryName":"Spain","latitude":"0.00000000","longitude":"0.00000000","wikiDataId":null},{"id":37434,"name":"Tiñosillos","stateId":1189,"stateCode":"AV","stateName":"Ávila","countryId":207,"countryCode":"ES","countryName":"Spain","latitude":"40.93400000","longitude":"-4.72767000","wikiDataId":"Q1610960"},{"id":37442,"name":"Tolbaños","stateId":1189,"stateCode":"AV","stateName":"Ávila","countryId":207,"countryCode":"ES","countryName":"Spain","latitude":"40.75168000","longitude":"-4.58191000","wikiDataId":"Q1628112"},{"id":37469,"name":"Tormellas","stateId":1189,"stateCode":"AV","stateName":"Ávila","countryId":207,"countryCode":"ES","countryName":"Spain","latitude":"40.30404000","longitude":"-5.51185000","wikiDataId":"Q1607010"},{"id":37473,"name":"Tornadizos de Ávila","stateId":1189,"stateCode":"AV","stateName":"Ávila","countryId":207,"countryCode":"ES","countryName":"Spain","latitude":"40.62757000","longitude":"-4.61426000","wikiDataId":"Q1627969"},{"id":152750,"name":"Torre La","stateId":1189,"stateCode":"AV","stateName":"Ávila","countryId":207,"countryCode":"ES","countryName":"Spain","latitude":"0.00000000","longitude":"0.00000000","wikiDataId":null},{"id":37669,"name":"Tórtoles","stateId":1189,"stateCode":"AV","stateName":"Ávila","countryId":207,"countryCode":"ES","countryName":"Spain","latitude":"40.56120000","longitude":"-5.26120000","wikiDataId":"Q1606741"},{"id":37686,"name":"Umbrías","stateId":1189,"stateCode":"AV","stateName":"Ávila","countryId":207,"countryCode":"ES","countryName":"Spain","latitude":"40.31530000","longitude":"-5.58037000","wikiDataId":"Q1645654"},{"id":37717,"name":"Vadillo de la Sierra","stateId":1189,"stateCode":"AV","stateName":"Ávila","countryId":207,"countryCode":"ES","countryName":"Spain","latitude":"40.60634000","longitude":"-5.12506000","wikiDataId":"Q1614699"},{"id":37739,"name":"Valdecasa","stateId":1189,"stateCode":"AV","stateName":"Ávila","countryId":207,"countryCode":"ES","countryName":"Spain","latitude":"40.65931000","longitude":"-5.01183000","wikiDataId":"Q670740"},{"id":37908,"name":"Vega de Santa María","stateId":1189,"stateCode":"AV","stateName":"Ávila","countryId":207,"countryCode":"ES","countryName":"Spain","latitude":"40.83618000","longitude":"-4.64287000","wikiDataId":"Q1630550"},{"id":37925,"name":"Velayos","stateId":1189,"stateCode":"AV","stateName":"Ávila","countryId":207,"countryCode":"ES","countryName":"Spain","latitude":"40.84157000","longitude":"-4.62324000","wikiDataId":"Q1630403"},{"id":38052,"name":"Villaflor","stateId":1189,"stateCode":"AV","stateName":"Ávila","countryId":207,"countryCode":"ES","countryName":"Spain","latitude":"40.75865000","longitude":"-4.87379000","wikiDataId":"Q1922214"},{"id":38059,"name":"Villafranca de la Sierra","stateId":1189,"stateCode":"AV","stateName":"Ávila","countryId":207,"countryCode":"ES","countryName":"Spain","latitude":"40.49806000","longitude":"-5.23005000","wikiDataId":"Q1630388"},{"id":152755,"name":"Villanueva de Ávila","stateId":1189,"stateCode":"AV","stateName":"Ávila","countryId":207,"countryCode":"ES","countryName":"Spain","latitude":"0.00000000","longitude":"0.00000000","wikiDataId":null},{"id":38185,"name":"Villanueva de Gómez","stateId":1189,"stateCode":"AV","stateName":"Ávila","countryId":207,"countryCode":"ES","countryName":"Spain","latitude":"40.88269000","longitude":"-4.71650000","wikiDataId":"Q664700"},{"id":38211,"name":"Villanueva del Aceral","stateId":1189,"stateCode":"AV","stateName":"Ávila","countryId":207,"countryCode":"ES","countryName":"Spain","latitude":"41.04095000","longitude":"-4.85419000","wikiDataId":"Q1630512"},{"id":38214,"name":"Villanueva del Campillo","stateId":1189,"stateCode":"AV","stateName":"Ávila","countryId":207,"countryCode":"ES","countryName":"Spain","latitude":"40.57646000","longitude":"-5.18002000","wikiDataId":"Q1630629"},{"id":38237,"name":"Villar de Corneja","stateId":1189,"stateCode":"AV","stateName":"Ávila","countryId":207,"countryCode":"ES","countryName":"Spain","latitude":"40.47462000","longitude":"-5.43307000","wikiDataId":"Q1616151"},{"id":38276,"name":"Villarejo del Valle","stateId":1189,"stateCode":"AV","stateName":"Ávila","countryId":207,"countryCode":"ES","countryName":"Spain","latitude":"40.28638000","longitude":"-4.99674000","wikiDataId":"Q1630412"},{"id":38331,"name":"Villatoro","stateId":1189,"stateCode":"AV","stateName":"Ávila","countryId":207,"countryCode":"ES","countryName":"Spain","latitude":"40.55609000","longitude":"-5.11262000","wikiDataId":"Q24017240"},{"id":38409,"name":"Viñegra de Moraña","stateId":1189,"stateCode":"AV","stateName":"Ávila","countryId":207,"countryCode":"ES","countryName":"Spain","latitude":"40.85074000","longitude":"-4.92115000","wikiDataId":"Q1616122"},{"id":38401,"name":"Vita","stateId":1189,"stateCode":"AV","stateName":"Ávila","countryId":207,"countryCode":"ES","countryName":"Spain","latitude":"40.81178000","longitude":"-5.00583000","wikiDataId":"Q1751989"},{"id":38468,"name":"Zapardiel de la Cañada","stateId":1189,"stateCode":"AV","stateName":"Ávila","countryId":207,"countryCode":"ES","countryName":"Spain","latitude":"40.60648000","longitude":"-5.33791000","wikiDataId":"Q1630486"},{"id":38469,"name":"Zapardiel de la Ribera","stateId":1189,"stateCode":"AV","stateName":"Ávila","countryId":207,"countryCode":"ES","countryName":"Spain","latitude":"40.35554000","longitude":"-5.32826000","wikiDataId":"Q538770"}]