[{"id":66453,"name":"Badulla","stateId":2811,"stateCode":"8","stateName":"Uva Province","countryId":208,"countryCode":"LK","countryName":"Sri Lanka","latitude":"6.98020000","longitude":"81.05770000","wikiDataId":"Q390096"},{"id":66454,"name":"Badulla District","stateId":2811,"stateCode":"8","stateName":"Uva Province","countryId":208,"countryCode":"LK","countryName":"Sri Lanka","latitude":"6.98472000","longitude":"81.05639000","wikiDataId":"Q799713"},{"id":66466,"name":"Ella Town","stateId":2811,"stateCode":"8","stateName":"Uva Province","countryId":208,"countryCode":"LK","countryName":"Sri Lanka","latitude":"6.87560000","longitude":"81.04630000","wikiDataId":"Q24462"},{"id":66475,"name":"Haputale","stateId":2811,"stateCode":"8","stateName":"Uva Province","countryId":208,"countryCode":"LK","countryName":"Sri Lanka","latitude":"6.76566000","longitude":"80.95104000","wikiDataId":"Q723006"},{"id":66491,"name":"Kataragama","stateId":2811,"stateCode":"8","stateName":"Uva Province","countryId":208,"countryCode":"LK","countryName":"Sri Lanka","latitude":"6.41340000","longitude":"81.33460000","wikiDataId":"Q302558"},{"id":66512,"name":"Monaragala","stateId":2811,"stateCode":"8","stateName":"Uva Province","countryId":208,"countryCode":"LK","countryName":"Sri Lanka","latitude":"6.87140000","longitude":"81.34870000","wikiDataId":"Q1281285"},{"id":66513,"name":"Moneragala District","stateId":2811,"stateCode":"8","stateName":"Uva Province","countryId":208,"countryCode":"LK","countryName":"Sri Lanka","latitude":"6.66667000","longitude":"81.33333000","wikiDataId":"Q923420"},{"id":66545,"name":"Wellawaya","stateId":2811,"stateCode":"8","stateName":"Uva Province","countryId":208,"countryCode":"LK","countryName":"Sri Lanka","latitude":"6.73694000","longitude":"81.10279000","wikiDataId":"Q3534843"}]