[{"id":111225,"name":"Alpine","stateId":1414,"stateCode":"UT","stateName":"Utah","countryId":233,"countryCode":"US","countryName":"United States","latitude":"40.45328000","longitude":"-111.77799000","wikiDataId":"Q115481"},{"id":111273,"name":"American Fork","stateId":1414,"stateCode":"UT","stateName":"Utah","countryId":233,"countryCode":"US","countryName":"United States","latitude":"40.37690000","longitude":"-111.79576000","wikiDataId":"Q464598"},{"id":111663,"name":"Aurora","stateId":1414,"stateCode":"UT","stateName":"Utah","countryId":233,"countryCode":"US","countryName":"United States","latitude":"38.92219000","longitude":"-111.93409000","wikiDataId":"Q284754"},{"id":111770,"name":"Ballard","stateId":1414,"stateCode":"UT","stateName":"Utah","countryId":233,"countryCode":"US","countryName":"United States","latitude":"40.28940000","longitude":"-109.94320000","wikiDataId":"Q483104"},{"id":111995,"name":"Beaver","stateId":1414,"stateCode":"UT","stateName":"Utah","countryId":233,"countryCode":"US","countryName":"United States","latitude":"38.27691000","longitude":"-112.64105000","wikiDataId":"Q482989"},{"id":111999,"name":"Beaver County","stateId":1414,"stateCode":"UT","stateName":"Utah","countryId":233,"countryCode":"US","countryName":"United States","latitude":"38.35771000","longitude":"-113.23576000","wikiDataId":"Q109284"},{"id":112170,"name":"Benjamin","stateId":1414,"stateCode":"UT","stateName":"Utah","countryId":233,"countryCode":"US","countryName":"United States","latitude":"40.09829000","longitude":"-111.73132000","wikiDataId":"Q2780766"},{"id":112185,"name":"Benson","stateId":1414,"stateCode":"UT","stateName":"Utah","countryId":233,"countryCode":"US","countryName":"United States","latitude":"41.78743000","longitude":"-111.93022000","wikiDataId":"Q2251957"},{"id":112422,"name":"Blanding","stateId":1414,"stateCode":"UT","stateName":"Utah","countryId":233,"countryCode":"US","countryName":"United States","latitude":"37.62433000","longitude":"-109.47966000","wikiDataId":"Q284727"},{"id":112482,"name":"Bluffdale","stateId":1414,"stateCode":"UT","stateName":"Utah","countryId":233,"countryCode":"US","countryName":"United States","latitude":"40.48967000","longitude":"-111.93882000","wikiDataId":"Q482962"},{"id":112610,"name":"Bountiful","stateId":1414,"stateCode":"UT","stateName":"Utah","countryId":233,"countryCode":"US","countryName":"United States","latitude":"40.88939000","longitude":"-111.88077000","wikiDataId":"Q483219"},{"id":112637,"name":"Box Elder County","stateId":1414,"stateCode":"UT","stateName":"Utah","countryId":233,"countryCode":"US","countryName":"United States","latitude":"41.52097000","longitude":"-113.08209000","wikiDataId":"Q109641"},{"id":112784,"name":"Brigham City","stateId":1414,"stateCode":"UT","stateName":"Utah","countryId":233,"countryCode":"US","countryName":"United States","latitude":"41.51021000","longitude":"-112.01550000","wikiDataId":"Q482976"},{"id":113156,"name":"Cache County","stateId":1414,"stateCode":"UT","stateName":"Utah","countryId":233,"countryCode":"US","countryName":"United States","latitude":"41.72237000","longitude":"-111.74356000","wikiDataId":"Q109790"},{"id":113360,"name":"Canyon Rim","stateId":1414,"stateCode":"UT","stateName":"Utah","countryId":233,"countryCode":"US","countryName":"United States","latitude":"40.70661000","longitude":"-111.82188000","wikiDataId":"Q1920150"},{"id":113383,"name":"Carbon County","stateId":1414,"stateCode":"UT","stateName":"Utah","countryId":233,"countryCode":"US","countryName":"United States","latitude":"39.64817000","longitude":"-110.58898000","wikiDataId":"Q156467"},{"id":113391,"name":"Carbonville","stateId":1414,"stateCode":"UT","stateName":"Utah","countryId":233,"countryCode":"US","countryName":"United States","latitude":"39.61996000","longitude":"-110.83433000","wikiDataId":"Q5038057"},{"id":113543,"name":"Castle Dale","stateId":1414,"stateCode":"UT","stateName":"Utah","countryId":233,"countryCode":"US","countryName":"United States","latitude":"39.21219000","longitude":"-111.01961000","wikiDataId":"Q130074"},{"id":113603,"name":"Cedar City","stateId":1414,"stateCode":"UT","stateName":"Utah","countryId":233,"countryCode":"US","countryName":"United States","latitude":"37.67748000","longitude":"-113.06189000","wikiDataId":"Q487212"},{"id":113616,"name":"Cedar Hills","stateId":1414,"stateCode":"UT","stateName":"Utah","countryId":233,"countryCode":"US","countryName":"United States","latitude":"40.41412000","longitude":"-111.75854000","wikiDataId":"Q482408"},{"id":113649,"name":"Centerfield","stateId":1414,"stateCode":"UT","stateName":"Utah","countryId":233,"countryCode":"US","countryName":"United States","latitude":"39.12524000","longitude":"-111.81909000","wikiDataId":"Q482795"},{"id":113662,"name":"Centerville","stateId":1414,"stateCode":"UT","stateName":"Utah","countryId":233,"countryCode":"US","countryName":"United States","latitude":"40.91800000","longitude":"-111.87216000","wikiDataId":"Q483235"},{"id":114217,"name":"Clearfield","stateId":1414,"stateCode":"UT","stateName":"Utah","countryId":233,"countryCode":"US","countryName":"United States","latitude":"41.11078000","longitude":"-112.02605000","wikiDataId":"Q483715"},{"id":114288,"name":"Clinton","stateId":1414,"stateCode":"UT","stateName":"Utah","countryId":233,"countryCode":"US","countryName":"United States","latitude":"41.13967000","longitude":"-112.05050000","wikiDataId":"Q483185"},{"id":114339,"name":"Coalville","stateId":1414,"stateCode":"UT","stateName":"Utah","countryId":233,"countryCode":"US","countryName":"United States","latitude":"40.91773000","longitude":"-111.39936000","wikiDataId":"Q483276"},{"id":114705,"name":"Cottonwood Heights","stateId":1414,"stateCode":"UT","stateName":"Utah","countryId":233,"countryCode":"US","countryName":"United States","latitude":"40.61967000","longitude":"-111.81021000","wikiDataId":"Q482523"},{"id":114969,"name":"Daggett County","stateId":1414,"stateCode":"UT","stateName":"Utah","countryId":233,"countryCode":"US","countryName":"United States","latitude":"40.88727000","longitude":"-109.50765000","wikiDataId":"Q111304"},{"id":115022,"name":"Daniel","stateId":1414,"stateCode":"UT","stateName":"Utah","countryId":233,"countryCode":"US","countryName":"United States","latitude":"40.47079000","longitude":"-111.41463000","wikiDataId":"Q483162"},{"id":115075,"name":"Davis County","stateId":1414,"stateCode":"UT","stateName":"Utah","countryId":233,"countryCode":"US","countryName":"United States","latitude":"40.99061000","longitude":"-112.11124000","wikiDataId":"Q26631"},{"id":115223,"name":"Delta","stateId":1414,"stateCode":"UT","stateName":"Utah","countryId":233,"countryCode":"US","countryName":"United States","latitude":"39.35218000","longitude":"-112.57717000","wikiDataId":"Q482416"},{"id":115469,"name":"Draper","stateId":1414,"stateCode":"UT","stateName":"Utah","countryId":233,"countryCode":"US","countryName":"United States","latitude":"40.52467000","longitude":"-111.86382000","wikiDataId":"Q482888"},{"id":115502,"name":"Duchesne","stateId":1414,"stateCode":"UT","stateName":"Utah","countryId":233,"countryCode":"US","countryName":"United States","latitude":"40.16329000","longitude":"-110.40293000","wikiDataId":"Q130090"},{"id":115503,"name":"Duchesne County","stateId":1414,"stateCode":"UT","stateName":"Utah","countryId":233,"countryCode":"US","countryName":"United States","latitude":"40.29751000","longitude":"-110.42476000","wikiDataId":"Q26564"},{"id":115607,"name":"Eagle Mountain","stateId":1414,"stateCode":"UT","stateName":"Utah","countryId":233,"countryCode":"US","countryName":"United States","latitude":"40.31412000","longitude":"-112.00688000","wikiDataId":"Q483165"},{"id":115642,"name":"East Carbon City","stateId":1414,"stateCode":"UT","stateName":"Utah","countryId":233,"countryCode":"US","countryName":"United States","latitude":"39.54774000","longitude":"-110.41488000","wikiDataId":"Q483387"},{"id":115712,"name":"East Millcreek","stateId":1414,"stateCode":"UT","stateName":"Utah","countryId":233,"countryCode":"US","countryName":"United States","latitude":"40.69995000","longitude":"-111.81049000","wikiDataId":"Q2782610"},{"id":115992,"name":"Elk Ridge","stateId":1414,"stateCode":"UT","stateName":"Utah","countryId":233,"countryCode":"US","countryName":"United States","latitude":"40.01134000","longitude":"-111.67687000","wikiDataId":"Q483282"},{"id":116083,"name":"Elwood","stateId":1414,"stateCode":"UT","stateName":"Utah","countryId":233,"countryCode":"US","countryName":"United States","latitude":"41.69048000","longitude":"-112.14106000","wikiDataId":"Q2890560"},{"id":116096,"name":"Emery County","stateId":1414,"stateCode":"UT","stateName":"Utah","countryId":233,"countryCode":"US","countryName":"United States","latitude":"38.99677000","longitude":"-110.70067000","wikiDataId":"Q26738"},{"id":116142,"name":"Enoch","stateId":1414,"stateCode":"UT","stateName":"Utah","countryId":233,"countryCode":"US","countryName":"United States","latitude":"37.77331000","longitude":"-113.02439000","wikiDataId":"Q483252"},{"id":116151,"name":"Enterprise","stateId":1414,"stateCode":"UT","stateName":"Utah","countryId":233,"countryCode":"US","countryName":"United States","latitude":"37.57359000","longitude":"-113.71913000","wikiDataId":"Q403686"},{"id":116154,"name":"Ephraim","stateId":1414,"stateCode":"UT","stateName":"Utah","countryId":233,"countryCode":"US","countryName":"United States","latitude":"39.35968000","longitude":"-111.58631000","wikiDataId":"Q482749"},{"id":116162,"name":"Erda","stateId":1414,"stateCode":"UT","stateName":"Utah","countryId":233,"countryCode":"US","countryName":"United States","latitude":"40.61272000","longitude":"-112.30439000","wikiDataId":"Q2246041"},{"id":116357,"name":"Fairview","stateId":1414,"stateCode":"UT","stateName":"Utah","countryId":233,"countryCode":"US","countryName":"United States","latitude":"39.62635000","longitude":"-111.43963000","wikiDataId":"Q482388"},{"id":116422,"name":"Farmington","stateId":1414,"stateCode":"UT","stateName":"Utah","countryId":233,"countryCode":"US","countryName":"United States","latitude":"40.98050000","longitude":"-111.88744000","wikiDataId":"Q483000"},{"id":116428,"name":"Farr West","stateId":1414,"stateCode":"UT","stateName":"Utah","countryId":233,"countryCode":"US","countryName":"United States","latitude":"41.29717000","longitude":"-112.02772000","wikiDataId":"Q482381"},{"id":116496,"name":"Ferron","stateId":1414,"stateCode":"UT","stateName":"Utah","countryId":233,"countryCode":"US","countryName":"United States","latitude":"39.09358000","longitude":"-111.13322000","wikiDataId":"Q482700"},{"id":116509,"name":"Fillmore","stateId":1414,"stateCode":"UT","stateName":"Utah","countryId":233,"countryCode":"US","countryName":"United States","latitude":"38.96885000","longitude":"-112.32355000","wikiDataId":"Q129980"},{"id":116780,"name":"Fountain Green","stateId":1414,"stateCode":"UT","stateName":"Utah","countryId":233,"countryCode":"US","countryName":"United States","latitude":"39.62996000","longitude":"-111.63520000","wikiDataId":"Q483210"},{"id":116814,"name":"Francis","stateId":1414,"stateCode":"UT","stateName":"Utah","countryId":233,"countryCode":"US","countryName":"United States","latitude":"40.61051000","longitude":"-111.28074000","wikiDataId":"Q482426"},{"id":116967,"name":"Fruit Heights","stateId":1414,"stateCode":"UT","stateName":"Utah","countryId":233,"countryCode":"US","countryName":"United States","latitude":"41.03217000","longitude":"-111.90216000","wikiDataId":"Q483177"},{"id":117085,"name":"Garfield County","stateId":1414,"stateCode":"UT","stateName":"Utah","countryId":233,"countryCode":"US","countryName":"United States","latitude":"37.85492000","longitude":"-111.44313000","wikiDataId":"Q26740"},{"id":117090,"name":"Garland","stateId":1414,"stateCode":"UT","stateName":"Utah","countryId":233,"countryCode":"US","countryName":"United States","latitude":"41.74104000","longitude":"-112.16162000","wikiDataId":"Q483302"},{"id":117149,"name":"Genola","stateId":1414,"stateCode":"UT","stateName":"Utah","countryId":233,"countryCode":"US","countryName":"United States","latitude":"39.99634000","longitude":"-111.84327000","wikiDataId":"Q483414"},{"id":117455,"name":"Grand County","stateId":1414,"stateCode":"UT","stateName":"Utah","countryId":233,"countryCode":"US","countryName":"United States","latitude":"38.98174000","longitude":"-109.56971000","wikiDataId":"Q27041"},{"id":117492,"name":"Granite","stateId":1414,"stateCode":"UT","stateName":"Utah","countryId":233,"countryCode":"US","countryName":"United States","latitude":"40.57300000","longitude":"-111.80604000","wikiDataId":"Q1926410"},{"id":117531,"name":"Grantsville","stateId":1414,"stateCode":"UT","stateName":"Utah","countryId":233,"countryCode":"US","countryName":"United States","latitude":"40.59994000","longitude":"-112.46440000","wikiDataId":"Q483114"},{"id":117803,"name":"Gunnison","stateId":1414,"stateCode":"UT","stateName":"Utah","countryId":233,"countryCode":"US","countryName":"United States","latitude":"39.15524000","longitude":"-111.81826000","wikiDataId":"Q201769"},{"id":118077,"name":"Harrisville","stateId":1414,"stateCode":"UT","stateName":"Utah","countryId":233,"countryCode":"US","countryName":"United States","latitude":"41.28133000","longitude":"-111.98828000","wikiDataId":"Q129956"},{"id":118229,"name":"Heber City","stateId":1414,"stateCode":"UT","stateName":"Utah","countryId":233,"countryCode":"US","countryName":"United States","latitude":"40.50690000","longitude":"-111.41324000","wikiDataId":"Q482805"},{"id":118262,"name":"Helper","stateId":1414,"stateCode":"UT","stateName":"Utah","countryId":233,"countryCode":"US","countryName":"United States","latitude":"39.68413000","longitude":"-110.85461000","wikiDataId":"Q129993"},{"id":118338,"name":"Herriman","stateId":1414,"stateCode":"UT","stateName":"Utah","countryId":233,"countryCode":"US","countryName":"United States","latitude":"40.51411000","longitude":"-112.03299000","wikiDataId":"Q129935"},{"id":118400,"name":"Highland","stateId":1414,"stateCode":"UT","stateName":"Utah","countryId":233,"countryCode":"US","countryName":"United States","latitude":"40.42548000","longitude":"-111.79447000","wikiDataId":"Q483297"},{"id":118429,"name":"Hildale","stateId":1414,"stateCode":"UT","stateName":"Utah","countryId":233,"countryCode":"US","countryName":"United States","latitude":"37.00360000","longitude":"-112.96688000","wikiDataId":"Q483016"},{"id":118433,"name":"Hill Air Force Base","stateId":1414,"stateCode":"UT","stateName":"Utah","countryId":233,"countryCode":"US","countryName":"United States","latitude":"41.11118000","longitude":"-111.97712000","wikiDataId":"Q2570687"},{"id":118536,"name":"Holladay","stateId":1414,"stateCode":"UT","stateName":"Utah","countryId":233,"countryCode":"US","countryName":"United States","latitude":"40.66884000","longitude":"-111.82466000","wikiDataId":"Q482520"},{"id":118621,"name":"Honeyville","stateId":1414,"stateCode":"UT","stateName":"Utah","countryId":233,"countryCode":"US","countryName":"United States","latitude":"41.63854000","longitude":"-112.07939000","wikiDataId":"Q129969"},{"id":118633,"name":"Hooper","stateId":1414,"stateCode":"UT","stateName":"Utah","countryId":233,"countryCode":"US","countryName":"United States","latitude":"41.16383000","longitude":"-112.12244000","wikiDataId":"Q482638"},{"id":118803,"name":"Huntington","stateId":1414,"stateCode":"UT","stateName":"Utah","countryId":233,"countryCode":"US","countryName":"United States","latitude":"39.32664000","longitude":"-110.96461000","wikiDataId":"Q483315"},{"id":118828,"name":"Hurricane","stateId":1414,"stateCode":"UT","stateName":"Utah","countryId":233,"countryCode":"US","countryName":"United States","latitude":"37.17526000","longitude":"-113.28995000","wikiDataId":"Q482646"},{"id":118853,"name":"Hyde Park","stateId":1414,"stateCode":"UT","stateName":"Utah","countryId":233,"countryCode":"US","countryName":"United States","latitude":"41.79882000","longitude":"-111.81911000","wikiDataId":"Q483232"},{"id":118857,"name":"Hyrum","stateId":1414,"stateCode":"UT","stateName":"Utah","countryId":233,"countryCode":"US","countryName":"United States","latitude":"41.63410000","longitude":"-111.85217000","wikiDataId":"Q129996"},{"id":118991,"name":"Iron County","stateId":1414,"stateCode":"UT","stateName":"Utah","countryId":233,"countryCode":"US","countryName":"United States","latitude":"37.85917000","longitude":"-113.28927000","wikiDataId":"Q26723"},{"id":119051,"name":"Ivins","stateId":1414,"stateCode":"UT","stateName":"Utah","countryId":233,"countryCode":"US","countryName":"United States","latitude":"37.16859000","longitude":"-113.67941000","wikiDataId":"Q482401"},{"id":119325,"name":"Juab County","stateId":1414,"stateCode":"UT","stateName":"Utah","countryId":233,"countryCode":"US","countryName":"United States","latitude":"39.70262000","longitude":"-112.78477000","wikiDataId":"Q26689"},{"id":119332,"name":"Junction","stateId":1414,"stateCode":"UT","stateName":"Utah","countryId":233,"countryCode":"US","countryName":"United States","latitude":"38.23748000","longitude":"-112.21993000","wikiDataId":"Q129952"},{"id":119370,"name":"Kamas","stateId":1414,"stateCode":"UT","stateName":"Utah","countryId":233,"countryCode":"US","countryName":"United States","latitude":"40.64301000","longitude":"-111.28074000","wikiDataId":"Q483326"},{"id":119372,"name":"Kanab","stateId":1414,"stateCode":"UT","stateName":"Utah","countryId":233,"countryCode":"US","countryName":"United States","latitude":"37.04749000","longitude":"-112.52631000","wikiDataId":"Q130069"},{"id":119378,"name":"Kane County","stateId":1414,"stateCode":"UT","stateName":"Utah","countryId":233,"countryCode":"US","countryName":"United States","latitude":"37.28507000","longitude":"-111.88785000","wikiDataId":"Q26628"},{"id":119403,"name":"Kaysville","stateId":1414,"stateCode":"UT","stateName":"Utah","countryId":233,"countryCode":"US","countryName":"United States","latitude":"41.03522000","longitude":"-111.93855000","wikiDataId":"Q482516"},{"id":119411,"name":"Kearns","stateId":1414,"stateCode":"UT","stateName":"Utah","countryId":233,"countryCode":"US","countryName":"United States","latitude":"40.65995000","longitude":"-111.99633000","wikiDataId":"Q3306750"},{"id":119807,"name":"LaVerkin","stateId":1414,"stateCode":"UT","stateName":"Utah","countryId":233,"countryCode":"US","countryName":"United States","latitude":"37.20109000","longitude":"-113.26967000","wikiDataId":"Q482758"},{"id":120254,"name":"Layton","stateId":1414,"stateCode":"UT","stateName":"Utah","countryId":233,"countryCode":"US","countryName":"United States","latitude":"41.06022000","longitude":"-111.97105000","wikiDataId":"Q52474"},{"id":120333,"name":"Lehi","stateId":1414,"stateCode":"UT","stateName":"Utah","countryId":233,"countryCode":"US","countryName":"United States","latitude":"40.39162000","longitude":"-111.85077000","wikiDataId":"Q1010595"},{"id":120429,"name":"Lewiston","stateId":1414,"stateCode":"UT","stateName":"Utah","countryId":233,"countryCode":"US","countryName":"United States","latitude":"41.97576000","longitude":"-111.85634000","wikiDataId":"Q483294"},{"id":120468,"name":"Liberty","stateId":1414,"stateCode":"UT","stateName":"Utah","countryId":233,"countryCode":"US","countryName":"United States","latitude":"41.33355000","longitude":"-111.86355000","wikiDataId":"Q5974828"},{"id":120571,"name":"Lindon","stateId":1414,"stateCode":"UT","stateName":"Utah","countryId":233,"countryCode":"US","countryName":"United States","latitude":"40.34329000","longitude":"-111.72076000","wikiDataId":"Q482609"},{"id":120615,"name":"Little Cottonwood Creek Valley","stateId":1414,"stateCode":"UT","stateName":"Utah","countryId":233,"countryCode":"US","countryName":"United States","latitude":"40.60439000","longitude":"-111.82938000","wikiDataId":"Q2415455"},{"id":120668,"name":"Loa","stateId":1414,"stateCode":"UT","stateName":"Utah","countryId":233,"countryCode":"US","countryName":"United States","latitude":"38.40276000","longitude":"-111.64296000","wikiDataId":"Q483311"},{"id":120695,"name":"Logan","stateId":1414,"stateCode":"UT","stateName":"Utah","countryId":233,"countryCode":"US","countryName":"United States","latitude":"41.73549000","longitude":"-111.83439000","wikiDataId":"Q482657"},{"id":121030,"name":"Maeser","stateId":1414,"stateCode":"UT","stateName":"Utah","countryId":233,"countryCode":"US","countryName":"United States","latitude":"40.47718000","longitude":"-109.58681000","wikiDataId":"Q2493098"},{"id":121034,"name":"Magna","stateId":1414,"stateCode":"UT","stateName":"Utah","countryId":233,"countryCode":"US","countryName":"United States","latitude":"40.70911000","longitude":"-112.10161000","wikiDataId":"Q255187"},{"id":121120,"name":"Manila","stateId":1414,"stateCode":"UT","stateName":"Utah","countryId":233,"countryCode":"US","countryName":"United States","latitude":"40.98801000","longitude":"-109.72265000","wikiDataId":"Q129960"},{"id":121157,"name":"Manti","stateId":1414,"stateCode":"UT","stateName":"Utah","countryId":233,"countryCode":"US","countryName":"United States","latitude":"39.26830000","longitude":"-111.63686000","wikiDataId":"Q130158"},{"id":121176,"name":"Mapleton","stateId":1414,"stateCode":"UT","stateName":"Utah","countryId":233,"countryCode":"US","countryName":"United States","latitude":"40.13023000","longitude":"-111.57853000","wikiDataId":"Q482504"},{"id":121297,"name":"Marriott-Slaterville","stateId":1414,"stateCode":"UT","stateName":"Utah","countryId":233,"countryCode":"US","countryName":"United States","latitude":"41.25161000","longitude":"-112.02550000","wikiDataId":"Q483174"},{"id":121655,"name":"Mendon","stateId":1414,"stateCode":"UT","stateName":"Utah","countryId":233,"countryCode":"US","countryName":"United States","latitude":"41.70993000","longitude":"-111.97773000","wikiDataId":"Q483241"},{"id":121811,"name":"Midvale","stateId":1414,"stateCode":"UT","stateName":"Utah","countryId":233,"countryCode":"US","countryName":"United States","latitude":"40.61106000","longitude":"-111.89994000","wikiDataId":"Q482518"},{"id":121819,"name":"Midway","stateId":1414,"stateCode":"UT","stateName":"Utah","countryId":233,"countryCode":"US","countryName":"United States","latitude":"40.51218000","longitude":"-111.47435000","wikiDataId":"Q485211"},{"id":121859,"name":"Milford","stateId":1414,"stateCode":"UT","stateName":"Utah","countryId":233,"countryCode":"US","countryName":"United States","latitude":"38.39691000","longitude":"-113.01079000","wikiDataId":"Q386969"},{"id":121869,"name":"Millard County","stateId":1414,"stateCode":"UT","stateName":"Utah","countryId":233,"countryCode":"US","countryName":"United States","latitude":"39.07381000","longitude":"-113.10046000","wikiDataId":"Q26760"},{"id":121875,"name":"Millcreek","stateId":1414,"stateCode":"UT","stateName":"Utah","countryId":233,"countryCode":"US","countryName":"United States","latitude":"40.68689000","longitude":"-111.87549000","wikiDataId":"Q1829357"},{"id":121906,"name":"Millville","stateId":1414,"stateCode":"UT","stateName":"Utah","countryId":233,"countryCode":"US","countryName":"United States","latitude":"41.68160000","longitude":"-111.82300000","wikiDataId":"Q483007"},{"id":122006,"name":"Moab","stateId":1414,"stateCode":"UT","stateName":"Utah","countryId":233,"countryCode":"US","countryName":"United States","latitude":"38.57332000","longitude":"-109.54984000","wikiDataId":"Q130134"},{"id":122031,"name":"Mona","stateId":1414,"stateCode":"UT","stateName":"Utah","countryId":233,"countryCode":"US","countryName":"United States","latitude":"39.81607000","longitude":"-111.85549000","wikiDataId":"Q483698"},{"id":122064,"name":"Monroe","stateId":1414,"stateCode":"UT","stateName":"Utah","countryId":233,"countryCode":"US","countryName":"United States","latitude":"38.62997000","longitude":"-112.12076000","wikiDataId":"Q483264"},{"id":122171,"name":"Monticello","stateId":1414,"stateCode":"UT","stateName":"Utah","countryId":233,"countryCode":"US","countryName":"United States","latitude":"37.87138000","longitude":"-109.34289000","wikiDataId":"Q130063"},{"id":122234,"name":"Morgan","stateId":1414,"stateCode":"UT","stateName":"Utah","countryId":233,"countryCode":"US","countryName":"United States","latitude":"41.03606000","longitude":"-111.67688000","wikiDataId":"Q129992"},{"id":122245,"name":"Morgan County","stateId":1414,"stateCode":"UT","stateName":"Utah","countryId":233,"countryCode":"US","countryName":"United States","latitude":"41.08932000","longitude":"-111.57312000","wikiDataId":"Q26880"},{"id":122262,"name":"Moroni","stateId":1414,"stateCode":"UT","stateName":"Utah","countryId":233,"countryCode":"US","countryName":"United States","latitude":"39.52496000","longitude":"-111.59047000","wikiDataId":"Q482849"},{"id":122372,"name":"Mount Olympus","stateId":1414,"stateCode":"UT","stateName":"Utah","countryId":233,"countryCode":"US","countryName":"United States","latitude":"40.68550000","longitude":"-111.78854000","wikiDataId":"Q3306712"},{"id":122381,"name":"Mount Pleasant","stateId":1414,"stateCode":"UT","stateName":"Utah","countryId":233,"countryCode":"US","countryName":"United States","latitude":"39.54691000","longitude":"-111.45547000","wikiDataId":"Q482399"},{"id":122413,"name":"Mountain Green","stateId":1414,"stateCode":"UT","stateName":"Utah","countryId":233,"countryCode":"US","countryName":"United States","latitude":"41.14300000","longitude":"-111.79160000","wikiDataId":"Q9035432"},{"id":122492,"name":"Murray","stateId":1414,"stateCode":"UT","stateName":"Utah","countryId":233,"countryCode":"US","countryName":"United States","latitude":"40.66689000","longitude":"-111.88799000","wikiDataId":"Q482822"},{"id":122555,"name":"Naples","stateId":1414,"stateCode":"UT","stateName":"Utah","countryId":233,"countryCode":"US","countryName":"United States","latitude":"40.42691000","longitude":"-109.49930000","wikiDataId":"Q482396"},{"id":122635,"name":"Nephi","stateId":1414,"stateCode":"UT","stateName":"Utah","countryId":233,"countryCode":"US","countryName":"United States","latitude":"39.71023000","longitude":"-111.83632000","wikiDataId":"Q130153"},{"id":122884,"name":"Nibley","stateId":1414,"stateCode":"UT","stateName":"Utah","countryId":233,"countryCode":"US","countryName":"United States","latitude":"41.67438000","longitude":"-111.83300000","wikiDataId":"Q483245"},{"id":123060,"name":"North Logan","stateId":1414,"stateCode":"UT","stateName":"Utah","countryId":233,"countryCode":"US","countryName":"United States","latitude":"41.76937000","longitude":"-111.80467000","wikiDataId":"Q482954"},{"id":123074,"name":"North Ogden","stateId":1414,"stateCode":"UT","stateName":"Utah","countryId":233,"countryCode":"US","countryName":"United States","latitude":"41.30716000","longitude":"-111.96022000","wikiDataId":"Q483349"},{"id":123099,"name":"North Salt Lake","stateId":1414,"stateCode":"UT","stateName":"Utah","countryId":233,"countryCode":"US","countryName":"United States","latitude":"40.84856000","longitude":"-111.90688000","wikiDataId":"Q482763"},{"id":123300,"name":"Oakley","stateId":1414,"stateCode":"UT","stateName":"Utah","countryId":233,"countryCode":"US","countryName":"United States","latitude":"40.71467000","longitude":"-111.30074000","wikiDataId":"Q483431"},{"id":123369,"name":"Ogden","stateId":1414,"stateCode":"UT","stateName":"Utah","countryId":233,"countryCode":"US","countryName":"United States","latitude":"41.22300000","longitude":"-111.97383000","wikiDataId":"Q52471"},{"id":123501,"name":"Oquirrh","stateId":1414,"stateCode":"UT","stateName":"Utah","countryId":233,"countryCode":"US","countryName":"United States","latitude":"40.63050000","longitude":"-112.03383000","wikiDataId":"Q2236190"},{"id":123531,"name":"Orangeville","stateId":1414,"stateCode":"UT","stateName":"Utah","countryId":233,"countryCode":"US","countryName":"United States","latitude":"39.22719000","longitude":"-111.05350000","wikiDataId":"Q482419"},{"id":123551,"name":"Orem","stateId":1414,"stateCode":"UT","stateName":"Utah","countryId":233,"countryCode":"US","countryName":"United States","latitude":"40.29690000","longitude":"-111.69465000","wikiDataId":"Q52468"},{"id":123800,"name":"Panguitch","stateId":1414,"stateCode":"UT","stateName":"Utah","countryId":233,"countryCode":"US","countryName":"United States","latitude":"37.82276000","longitude":"-112.43576000","wikiDataId":"Q129976"},{"id":123840,"name":"Park City","stateId":1414,"stateCode":"UT","stateName":"Utah","countryId":233,"countryCode":"US","countryName":"United States","latitude":"40.64606000","longitude":"-111.49797000","wikiDataId":"Q482993"},{"id":123888,"name":"Parowan","stateId":1414,"stateCode":"UT","stateName":"Utah","countryId":233,"countryCode":"US","countryName":"United States","latitude":"37.84220000","longitude":"-112.82800000","wikiDataId":"Q129989"},{"id":123950,"name":"Payson","stateId":1414,"stateCode":"UT","stateName":"Utah","countryId":233,"countryCode":"US","countryName":"United States","latitude":"40.04440000","longitude":"-111.73215000","wikiDataId":"Q482941"},{"id":124073,"name":"Perry","stateId":1414,"stateCode":"UT","stateName":"Utah","countryId":233,"countryCode":"US","countryName":"United States","latitude":"41.46494000","longitude":"-112.03245000","wikiDataId":"Q482784"},{"id":124307,"name":"Piute County","stateId":1414,"stateCode":"UT","stateName":"Utah","countryId":233,"countryCode":"US","countryName":"United States","latitude":"38.33645000","longitude":"-112.12695000","wikiDataId":"Q27245"},{"id":124315,"name":"Plain City","stateId":1414,"stateCode":"UT","stateName":"Utah","countryId":233,"countryCode":"US","countryName":"United States","latitude":"41.29800000","longitude":"-112.08605000","wikiDataId":"Q482813"},{"id":124367,"name":"Pleasant Grove","stateId":1414,"stateCode":"UT","stateName":"Utah","countryId":233,"countryCode":"US","countryName":"United States","latitude":"40.36412000","longitude":"-111.73854000","wikiDataId":"Q482842"},{"id":124381,"name":"Pleasant View","stateId":1414,"stateCode":"UT","stateName":"Utah","countryId":233,"countryCode":"US","countryName":"United States","latitude":"41.31828000","longitude":"-111.99216000","wikiDataId":"Q483030"},{"id":124663,"name":"Price","stateId":1414,"stateCode":"UT","stateName":"Utah","countryId":233,"countryCode":"US","countryName":"United States","latitude":"39.59941000","longitude":"-110.81071000","wikiDataId":"Q482891"},{"id":124717,"name":"Providence","stateId":1414,"stateCode":"UT","stateName":"Utah","countryId":233,"countryCode":"US","countryName":"United States","latitude":"41.70632000","longitude":"-111.81717000","wikiDataId":"Q482412"},{"id":124721,"name":"Provo","stateId":1414,"stateCode":"UT","stateName":"Utah","countryId":233,"countryCode":"US","countryName":"United States","latitude":"40.23384000","longitude":"-111.65853000","wikiDataId":"Q23443"},{"id":124870,"name":"Randolph","stateId":1414,"stateCode":"UT","stateName":"Utah","countryId":233,"countryCode":"US","countryName":"United States","latitude":"41.66578000","longitude":"-111.18214000","wikiDataId":"Q130014"},{"id":125056,"name":"Rich County","stateId":1414,"stateCode":"UT","stateName":"Utah","countryId":233,"countryCode":"US","countryName":"United States","latitude":"41.63232000","longitude":"-111.24445000","wikiDataId":"Q26907"},{"id":125063,"name":"Richfield","stateId":1414,"stateCode":"UT","stateName":"Utah","countryId":233,"countryCode":"US","countryName":"United States","latitude":"38.77247000","longitude":"-112.08409000","wikiDataId":"Q483319"},{"id":125097,"name":"Richmond","stateId":1414,"stateCode":"UT","stateName":"Utah","countryId":233,"countryCode":"US","countryName":"United States","latitude":"41.92271000","longitude":"-111.81356000","wikiDataId":"Q129991"},{"id":125181,"name":"River Heights","stateId":1414,"stateCode":"UT","stateName":"Utah","countryId":233,"countryCode":"US","countryName":"United States","latitude":"41.72160000","longitude":"-111.82133000","wikiDataId":"Q130162"},{"id":125197,"name":"Riverdale","stateId":1414,"stateCode":"UT","stateName":"Utah","countryId":233,"countryCode":"US","countryName":"United States","latitude":"41.17689000","longitude":"-112.00383000","wikiDataId":"Q129941"},{"id":125215,"name":"Riverton","stateId":1414,"stateCode":"UT","stateName":"Utah","countryId":233,"countryCode":"US","countryName":"United States","latitude":"40.52189000","longitude":"-111.93910000","wikiDataId":"Q129965"},{"id":125392,"name":"Roosevelt","stateId":1414,"stateCode":"UT","stateName":"Utah","countryId":233,"countryCode":"US","countryName":"United States","latitude":"40.29940000","longitude":"-109.98876000","wikiDataId":"Q129946"},{"id":125487,"name":"Roy","stateId":1414,"stateCode":"UT","stateName":"Utah","countryId":233,"countryCode":"US","countryName":"United States","latitude":"41.16161000","longitude":"-112.02633000","wikiDataId":"Q130167"},{"id":125644,"name":"Saint George","stateId":1414,"stateCode":"UT","stateName":"Utah","countryId":233,"countryCode":"US","countryName":"United States","latitude":"37.10415000","longitude":"-113.58412000","wikiDataId":"Q52472"},{"id":125739,"name":"Salem","stateId":1414,"stateCode":"UT","stateName":"Utah","countryId":233,"countryCode":"US","countryName":"United States","latitude":"40.05301000","longitude":"-111.67354000","wikiDataId":"Q483292"},{"id":125746,"name":"Salina","stateId":1414,"stateCode":"UT","stateName":"Utah","countryId":233,"countryCode":"US","countryName":"United States","latitude":"38.95774000","longitude":"-111.85993000","wikiDataId":"Q483370"},{"id":125767,"name":"Salt Lake City","stateId":1414,"stateCode":"UT","stateName":"Utah","countryId":233,"countryCode":"US","countryName":"United States","latitude":"40.76078000","longitude":"-111.89105000","wikiDataId":"Q23337"},{"id":125768,"name":"Salt Lake County","stateId":1414,"stateCode":"UT","stateName":"Utah","countryId":233,"countryCode":"US","countryName":"United States","latitude":"40.66758000","longitude":"-111.92403000","wikiDataId":"Q484556"},{"id":125822,"name":"San Juan County","stateId":1414,"stateCode":"UT","stateName":"Utah","countryId":233,"countryCode":"US","countryName":"United States","latitude":"37.62601000","longitude":"-109.80457000","wikiDataId":"Q26622"},{"id":125881,"name":"Sandy","stateId":1414,"stateCode":"UT","stateName":"Utah","countryId":233,"countryCode":"US","countryName":"United States","latitude":"40.59161000","longitude":"-111.88410000","wikiDataId":"Q52470"},{"id":125882,"name":"Sandy Hills","stateId":1414,"stateCode":"UT","stateName":"Utah","countryId":233,"countryCode":"US","countryName":"United States","latitude":"40.58106000","longitude":"-111.85077000","wikiDataId":"Q52470"},{"id":125896,"name":"Sanpete County","stateId":1414,"stateCode":"UT","stateName":"Utah","countryId":233,"countryCode":"US","countryName":"United States","latitude":"39.37396000","longitude":"-111.57634000","wikiDataId":"Q484577"},{"id":125905,"name":"Santa Clara","stateId":1414,"stateCode":"UT","stateName":"Utah","countryId":233,"countryCode":"US","countryName":"United States","latitude":"37.13304000","longitude":"-113.65413000","wikiDataId":"Q483249"},{"id":125929,"name":"Santaquin","stateId":1414,"stateCode":"UT","stateName":"Utah","countryId":233,"countryCode":"US","countryName":"United States","latitude":"39.97551000","longitude":"-111.78521000","wikiDataId":"Q374692"},{"id":125945,"name":"Saratoga Springs","stateId":1414,"stateCode":"UT","stateName":"Utah","countryId":233,"countryCode":"US","countryName":"United States","latitude":"40.34912000","longitude":"-111.90466000","wikiDataId":"Q482618"},{"id":126182,"name":"Sevier County","stateId":1414,"stateCode":"UT","stateName":"Utah","countryId":233,"countryCode":"US","countryName":"United States","latitude":"38.74764000","longitude":"-111.80464000","wikiDataId":"Q484222"},{"id":126438,"name":"Silver Summit","stateId":1414,"stateCode":"UT","stateName":"Utah","countryId":233,"countryCode":"US","countryName":"United States","latitude":"40.74144000","longitude":"-111.48775000","wikiDataId":"Q2120153"},{"id":126521,"name":"Smithfield","stateId":1414,"stateCode":"UT","stateName":"Utah","countryId":233,"countryCode":"US","countryName":"United States","latitude":"41.83826000","longitude":"-111.83272000","wikiDataId":"Q482387"},{"id":126552,"name":"Snyderville","stateId":1414,"stateCode":"UT","stateName":"Utah","countryId":233,"countryCode":"US","countryName":"United States","latitude":"40.69439000","longitude":"-111.54381000","wikiDataId":"Q3044377"},{"id":126680,"name":"South Jordan","stateId":1414,"stateCode":"UT","stateName":"Utah","countryId":233,"countryCode":"US","countryName":"United States","latitude":"40.56217000","longitude":"-111.92966000","wikiDataId":"Q52467"},{"id":126681,"name":"South Jordan Heights","stateId":1414,"stateCode":"UT","stateName":"Utah","countryId":233,"countryCode":"US","countryName":"United States","latitude":"40.56384000","longitude":"-111.94938000","wikiDataId":"Q52467"},{"id":126696,"name":"South Ogden","stateId":1414,"stateCode":"UT","stateName":"Utah","countryId":233,"countryCode":"US","countryName":"United States","latitude":"41.19189000","longitude":"-111.97133000","wikiDataId":"Q482606"},{"id":126722,"name":"South Salt Lake","stateId":1414,"stateCode":"UT","stateName":"Utah","countryId":233,"countryCode":"US","countryName":"United States","latitude":"40.71884000","longitude":"-111.88827000","wikiDataId":"Q482869"},{"id":126745,"name":"South Weber","stateId":1414,"stateCode":"UT","stateName":"Utah","countryId":233,"countryCode":"US","countryName":"United States","latitude":"41.13244000","longitude":"-111.93022000","wikiDataId":"Q483278"},{"id":126749,"name":"South Willard","stateId":1414,"stateCode":"UT","stateName":"Utah","countryId":233,"countryCode":"US","countryName":"United States","latitude":"41.36327000","longitude":"-112.03578000","wikiDataId":"Q1968925"},{"id":126798,"name":"Spanish Fork","stateId":1414,"stateCode":"UT","stateName":"Utah","countryId":233,"countryCode":"US","countryName":"United States","latitude":"40.11496000","longitude":"-111.65492000","wikiDataId":"Q482552"},{"id":126853,"name":"Spring City","stateId":1414,"stateCode":"UT","stateName":"Utah","countryId":233,"countryCode":"US","countryName":"United States","latitude":"39.48246000","longitude":"-111.49602000","wikiDataId":"Q482972"},{"id":126855,"name":"Spring Glen","stateId":1414,"stateCode":"UT","stateName":"Utah","countryId":233,"countryCode":"US","countryName":"United States","latitude":"39.65941000","longitude":"-110.85349000","wikiDataId":"Q2283301"},{"id":126918,"name":"Springville","stateId":1414,"stateCode":"UT","stateName":"Utah","countryId":233,"countryCode":"US","countryName":"United States","latitude":"40.16523000","longitude":"-111.61075000","wikiDataId":"Q482879"},{"id":126965,"name":"Stansbury park","stateId":1414,"stateCode":"UT","stateName":"Utah","countryId":233,"countryCode":"US","countryName":"United States","latitude":"40.63772000","longitude":"-112.29606000","wikiDataId":"Q2461509"},{"id":127217,"name":"Summit County","stateId":1414,"stateCode":"UT","stateName":"Utah","countryId":233,"countryCode":"US","countryName":"United States","latitude":"40.86815000","longitude":"-110.95567000","wikiDataId":"Q484563"},{"id":127219,"name":"Summit Park","stateId":1414,"stateCode":"UT","stateName":"Utah","countryId":233,"countryCode":"US","countryName":"United States","latitude":"40.74578000","longitude":"-111.61159000","wikiDataId":"Q2646550"},{"id":127273,"name":"Sunset","stateId":1414,"stateCode":"UT","stateName":"Utah","countryId":233,"countryCode":"US","countryName":"United States","latitude":"41.13633000","longitude":"-112.03105000","wikiDataId":"Q482966"},{"id":127367,"name":"Syracuse","stateId":1414,"stateCode":"UT","stateName":"Utah","countryId":233,"countryCode":"US","countryName":"United States","latitude":"41.08939000","longitude":"-112.06467000","wikiDataId":"Q482405"},{"id":127466,"name":"Taylorsville","stateId":1414,"stateCode":"UT","stateName":"Utah","countryId":233,"countryCode":"US","countryName":"United States","latitude":"40.66772000","longitude":"-111.93883000","wikiDataId":"Q52475"},{"id":127725,"name":"Tooele","stateId":1414,"stateCode":"UT","stateName":"Utah","countryId":233,"countryCode":"US","countryName":"United States","latitude":"40.53078000","longitude":"-112.29828000","wikiDataId":"Q482937"},{"id":127726,"name":"Tooele County","stateId":1414,"stateCode":"UT","stateName":"Utah","countryId":233,"countryCode":"US","countryName":"United States","latitude":"40.44875000","longitude":"-113.13106000","wikiDataId":"Q484548"},{"id":127738,"name":"Toquerville","stateId":1414,"stateCode":"UT","stateName":"Utah","countryId":233,"countryCode":"US","countryName":"United States","latitude":"37.25332000","longitude":"-113.28467000","wikiDataId":"Q483289"},{"id":127797,"name":"Tremonton","stateId":1414,"stateCode":"UT","stateName":"Utah","countryId":233,"countryCode":"US","countryName":"United States","latitude":"41.71187000","longitude":"-112.16551000","wikiDataId":"Q482628"},{"id":127956,"name":"Uintah","stateId":1414,"stateCode":"UT","stateName":"Utah","countryId":233,"countryCode":"US","countryName":"United States","latitude":"41.14411000","longitude":"-111.92327000","wikiDataId":"Q482693"},{"id":127957,"name":"Uintah County","stateId":1414,"stateCode":"UT","stateName":"Utah","countryId":233,"countryCode":"US","countryName":"United States","latitude":"40.12495000","longitude":"-109.51839000","wikiDataId":"Q484559"},{"id":128064,"name":"Utah County","stateId":1414,"stateCode":"UT","stateName":"Utah","countryId":233,"countryCode":"US","countryName":"United States","latitude":"40.11995000","longitude":"-111.67031000","wikiDataId":"Q27229"},{"id":128187,"name":"Vernal","stateId":1414,"stateCode":"UT","stateName":"Utah","countryId":233,"countryCode":"US","countryName":"United States","latitude":"40.45552000","longitude":"-109.52875000","wikiDataId":"Q482828"},{"id":128272,"name":"Vineyard","stateId":1414,"stateCode":"UT","stateName":"Utah","countryId":233,"countryCode":"US","countryName":"United States","latitude":"40.29704000","longitude":"-111.74670000","wikiDataId":"Q482435"},{"id":128526,"name":"Wasatch County","stateId":1414,"stateCode":"UT","stateName":"Utah","countryId":233,"countryCode":"US","countryName":"United States","latitude":"40.33035000","longitude":"-111.16847000","wikiDataId":"Q26766"},{"id":128551,"name":"Washington","stateId":1414,"stateCode":"UT","stateName":"Utah","countryId":233,"countryCode":"US","countryName":"United States","latitude":"37.13054000","longitude":"-113.50829000","wikiDataId":"Q482386"},{"id":128578,"name":"Washington County","stateId":1414,"stateCode":"UT","stateName":"Utah","countryId":233,"countryCode":"US","countryName":"United States","latitude":"37.28036000","longitude":"-113.50494000","wikiDataId":"Q27240"},{"id":128586,"name":"Washington Terrace","stateId":1414,"stateCode":"UT","stateName":"Utah","countryId":233,"countryCode":"US","countryName":"United States","latitude":"41.17272000","longitude":"-111.97661000","wikiDataId":"Q483256"},{"id":128703,"name":"Wayne County","stateId":1414,"stateCode":"UT","stateName":"Utah","countryId":233,"countryCode":"US","countryName":"United States","latitude":"38.32436000","longitude":"-110.90367000","wikiDataId":"Q27045"},{"id":128729,"name":"Weber County","stateId":1414,"stateCode":"UT","stateName":"Utah","countryId":233,"countryCode":"US","countryName":"United States","latitude":"41.26988000","longitude":"-111.91327000","wikiDataId":"Q26754"},{"id":128779,"name":"Wellington","stateId":1414,"stateCode":"UT","stateName":"Utah","countryId":233,"countryCode":"US","countryName":"United States","latitude":"39.54247000","longitude":"-110.73543000","wikiDataId":"Q482904"},{"id":128794,"name":"Wellsville","stateId":1414,"stateCode":"UT","stateName":"Utah","countryId":233,"countryCode":"US","countryName":"United States","latitude":"41.63854000","longitude":"-111.93383000","wikiDataId":"Q482873"},{"id":128801,"name":"Wendover","stateId":1414,"stateCode":"UT","stateName":"Utah","countryId":233,"countryCode":"US","countryName":"United States","latitude":"40.73715000","longitude":"-114.03751000","wikiDataId":"Q255781"},{"id":128829,"name":"West Bountiful","stateId":1414,"stateCode":"UT","stateName":"Utah","countryId":233,"countryCode":"US","countryName":"United States","latitude":"40.89383000","longitude":"-111.90188000","wikiDataId":"Q482385"},{"id":128888,"name":"West Haven","stateId":1414,"stateCode":"UT","stateName":"Utah","countryId":233,"countryCode":"US","countryName":"United States","latitude":"41.20300000","longitude":"-112.05105000","wikiDataId":"Q483598"},{"id":128905,"name":"West Jordan","stateId":1414,"stateCode":"UT","stateName":"Utah","countryId":233,"countryCode":"US","countryName":"United States","latitude":"40.60967000","longitude":"-111.93910000","wikiDataId":"Q52466"},{"id":128937,"name":"West Mountain","stateId":1414,"stateCode":"UT","stateName":"Utah","countryId":233,"countryCode":"US","countryName":"United States","latitude":"40.06079000","longitude":"-111.78827000","wikiDataId":"Q2886389"},{"id":128963,"name":"West Point","stateId":1414,"stateCode":"UT","stateName":"Utah","countryId":233,"countryCode":"US","countryName":"United States","latitude":"41.11828000","longitude":"-112.08411000","wikiDataId":"Q482675"},{"id":128997,"name":"West Valley City","stateId":1414,"stateCode":"UT","stateName":"Utah","countryId":233,"countryCode":"US","countryName":"United States","latitude":"40.69161000","longitude":"-112.00105000","wikiDataId":"Q52465"},{"id":129132,"name":"White City","stateId":1414,"stateCode":"UT","stateName":"Utah","countryId":233,"countryCode":"US","countryName":"United States","latitude":"40.56578000","longitude":"-111.86438000","wikiDataId":"Q2475654"},{"id":129258,"name":"Willard","stateId":1414,"stateCode":"UT","stateName":"Utah","countryId":233,"countryCode":"US","countryName":"United States","latitude":"41.40911000","longitude":"-112.03606000","wikiDataId":"Q482707"},{"id":129471,"name":"Wolf Creek","stateId":1414,"stateCode":"UT","stateName":"Utah","countryId":233,"countryCode":"US","countryName":"United States","latitude":"41.33327000","longitude":"-111.82716000","wikiDataId":"Q6168129"},{"id":129531,"name":"Woodland Hills","stateId":1414,"stateCode":"UT","stateName":"Utah","countryId":233,"countryCode":"US","countryName":"United States","latitude":"40.01532000","longitude":"-111.64868000","wikiDataId":"Q482390"},{"id":129551,"name":"Woods Cross","stateId":1414,"stateCode":"UT","stateName":"Utah","countryId":233,"countryCode":"US","countryName":"United States","latitude":"40.87161000","longitude":"-111.89216000","wikiDataId":"Q482876"}]