[{"id":97626,"name":"Andreapol’","stateId":1860,"stateCode":"TVE","stateName":"Tver Oblast","countryId":182,"countryCode":"RU","countryName":"Russia","latitude":"56.65134000","longitude":"32.26640000","wikiDataId":"Q103604"},{"id":97627,"name":"Andreapol’skiy Rayon","stateId":1860,"stateCode":"TVE","stateName":"Tver Oblast","countryId":182,"countryCode":"RU","countryName":"Russia","latitude":"56.66667000","longitude":"32.25000000","wikiDataId":"Q2711843"},{"id":97885,"name":"Bel’skiy Rayon","stateId":1860,"stateCode":"TVE","stateName":"Tver Oblast","countryId":182,"countryCode":"RU","countryName":"Russia","latitude":"55.83333000","longitude":"33.08333000","wikiDataId":"Q394751"},{"id":97878,"name":"Belyy","stateId":1860,"stateCode":"TVE","stateName":"Tver Oblast","countryId":182,"countryCode":"RU","countryName":"Russia","latitude":"55.84020000","longitude":"32.94190000","wikiDataId":"Q104984"},{"id":97879,"name":"Belyy Gorodok","stateId":1860,"stateCode":"TVE","stateName":"Tver Oblast","countryId":182,"countryCode":"RU","countryName":"Russia","latitude":"56.96500000","longitude":"37.51250000","wikiDataId":"Q31913949"},{"id":97894,"name":"Berezayka","stateId":1860,"stateCode":"TVE","stateName":"Tver Oblast","countryId":182,"countryCode":"RU","countryName":"Russia","latitude":"57.98833000","longitude":"33.90361000","wikiDataId":"Q31914372"},{"id":97899,"name":"Bernovo","stateId":1860,"stateCode":"TVE","stateName":"Tver Oblast","countryId":182,"countryCode":"RU","countryName":"Russia","latitude":"56.68633000","longitude":"34.70357000","wikiDataId":"Q31914882"},{"id":97920,"name":"Bezhetsk","stateId":1860,"stateCode":"TVE","stateName":"Tver Oblast","countryId":182,"countryCode":"RU","countryName":"Russia","latitude":"57.78506000","longitude":"36.69651000","wikiDataId":"Q104654"},{"id":97921,"name":"Bezhetskiy Rayon","stateId":1860,"stateCode":"TVE","stateName":"Tver Oblast","countryId":182,"countryCode":"RU","countryName":"Russia","latitude":"57.76667000","longitude":"36.58333000","wikiDataId":"Q2624164"},{"id":97993,"name":"Bologovskiy Rayon","stateId":1860,"stateCode":"TVE","stateName":"Tver Oblast","countryId":182,"countryCode":"RU","countryName":"Russia","latitude":"57.91667000","longitude":"34.00000000","wikiDataId":"Q1116052"},{"id":97994,"name":"Bologoye","stateId":1860,"stateCode":"TVE","stateName":"Tver Oblast","countryId":182,"countryCode":"RU","countryName":"Russia","latitude":"57.88585000","longitude":"34.04876000","wikiDataId":"Q105298"},{"id":97995,"name":"Bologoye-4","stateId":1860,"stateCode":"TVE","stateName":"Tver Oblast","countryId":182,"countryCode":"RU","countryName":"Russia","latitude":"57.90000000","longitude":"33.65000000","wikiDataId":"Q868484"},{"id":98393,"name":"Emmaus","stateId":1860,"stateCode":"TVE","stateName":"Tver Oblast","countryId":182,"countryCode":"RU","countryName":"Russia","latitude":"56.78055000","longitude":"36.11500000","wikiDataId":"Q37784809"},{"id":98429,"name":"Firovo","stateId":1860,"stateCode":"TVE","stateName":"Tver Oblast","countryId":182,"countryCode":"RU","countryName":"Russia","latitude":"57.48135000","longitude":"33.70211000","wikiDataId":"Q4484989"},{"id":98430,"name":"Firovskiy Rayon","stateId":1860,"stateCode":"TVE","stateName":"Tver Oblast","countryId":182,"countryCode":"RU","countryName":"Russia","latitude":"57.48333000","longitude":"33.70000000","wikiDataId":"Q394882"},{"id":98561,"name":"Gorodnya","stateId":1860,"stateCode":"TVE","stateName":"Tver Oblast","countryId":182,"countryCode":"RU","countryName":"Russia","latitude":"56.70550000","longitude":"36.31793000","wikiDataId":"Q37804321"},{"id":98656,"name":"Il’inskoye","stateId":1860,"stateCode":"TVE","stateName":"Tver Oblast","countryId":182,"countryCode":"RU","countryName":"Russia","latitude":"56.96667000","longitude":"37.18333000","wikiDataId":"Q37807543"},{"id":98758,"name":"Izoplit","stateId":1860,"stateCode":"TVE","stateName":"Tver Oblast","countryId":182,"countryCode":"RU","countryName":"Russia","latitude":"56.62558000","longitude":"36.22198000","wikiDataId":"Q37816392"},{"id":98781,"name":"Kalashnikovo","stateId":1860,"stateCode":"TVE","stateName":"Tver Oblast","countryId":182,"countryCode":"RU","countryName":"Russia","latitude":"57.28237000","longitude":"35.22617000","wikiDataId":"Q1970073"},{"id":98791,"name":"Kalininskiy Rayon","stateId":1860,"stateCode":"TVE","stateName":"Tver Oblast","countryId":182,"countryCode":"RU","countryName":"Russia","latitude":"56.75958000","longitude":"35.98945000","wikiDataId":"Q2373788"},{"id":98803,"name":"Kalyazin","stateId":1860,"stateCode":"TVE","stateName":"Tver Oblast","countryId":182,"countryCode":"RU","countryName":"Russia","latitude":"57.24028000","longitude":"37.84333000","wikiDataId":"Q143775"},{"id":98804,"name":"Kalyazinskiy Rayon","stateId":1860,"stateCode":"TVE","stateName":"Tver Oblast","countryId":182,"countryCode":"RU","countryName":"Russia","latitude":"57.25000000","longitude":"37.83333000","wikiDataId":"Q2624142"},{"id":98891,"name":"Kashin","stateId":1860,"stateCode":"TVE","stateName":"Tver Oblast","countryId":182,"countryCode":"RU","countryName":"Russia","latitude":"57.35917000","longitude":"37.60806000","wikiDataId":"Q145621"},{"id":98892,"name":"Kashinskiy Rayon","stateId":1860,"stateCode":"TVE","stateName":"Tver Oblast","countryId":182,"countryCode":"RU","countryName":"Russia","latitude":"57.41667000","longitude":"37.58333000","wikiDataId":"Q368518"},{"id":98943,"name":"Kesova Gora","stateId":1860,"stateCode":"TVE","stateName":"Tver Oblast","countryId":182,"countryCode":"RU","countryName":"Russia","latitude":"57.58361000","longitude":"37.29222000","wikiDataId":"Q2629983"},{"id":98944,"name":"Kesovogorskiy Rayon","stateId":1860,"stateCode":"TVE","stateName":"Tver Oblast","countryId":182,"countryCode":"RU","countryName":"Russia","latitude":"57.58333000","longitude":"37.33333000","wikiDataId":"Q394711"},{"id":99043,"name":"Kimrskiy Rayon","stateId":1860,"stateCode":"TVE","stateName":"Tver Oblast","countryId":182,"countryCode":"RU","countryName":"Russia","latitude":"56.91667000","longitude":"37.33333000","wikiDataId":"Q394644"},{"id":99044,"name":"Kimry","stateId":1860,"stateCode":"TVE","stateName":"Tver Oblast","countryId":182,"countryCode":"RU","countryName":"Russia","latitude":"56.86667000","longitude":"37.35000000","wikiDataId":"Q146435"},{"id":99177,"name":"Konakovo","stateId":1860,"stateCode":"TVE","stateName":"Tver Oblast","countryId":182,"countryCode":"RU","countryName":"Russia","latitude":"56.70000000","longitude":"36.76667000","wikiDataId":"Q155095"},{"id":99178,"name":"Konakovskiy Rayon","stateId":1860,"stateCode":"TVE","stateName":"Tver Oblast","countryId":182,"countryCode":"RU","countryName":"Russia","latitude":"56.66667000","longitude":"36.83333000","wikiDataId":"Q394616"},{"id":99268,"name":"Kozlovo","stateId":1860,"stateCode":"TVE","stateName":"Tver Oblast","countryId":182,"countryCode":"RU","countryName":"Russia","latitude":"56.50977000","longitude":"36.27326000","wikiDataId":"Q35701320"},{"id":99325,"name":"Krasnokholmskiy Rayon","stateId":1860,"stateCode":"TVE","stateName":"Tver Oblast","countryId":182,"countryCode":"RU","countryName":"Russia","latitude":"58.08333000","longitude":"37.16667000","wikiDataId":"Q394767"},{"id":99328,"name":"Krasnomayskiy","stateId":1860,"stateCode":"TVE","stateName":"Tver Oblast","countryId":182,"countryCode":"RU","countryName":"Russia","latitude":"57.61941000","longitude":"34.40987000","wikiDataId":"Q35702434"},{"id":99363,"name":"Krasnyy Kholm","stateId":1860,"stateCode":"TVE","stateName":"Tver Oblast","countryId":182,"countryCode":"RU","countryName":"Russia","latitude":"58.06070000","longitude":"37.12032000","wikiDataId":"Q155836"},{"id":99491,"name":"Kuvshinovo","stateId":1860,"stateCode":"TVE","stateName":"Tver Oblast","countryId":182,"countryCode":"RU","countryName":"Russia","latitude":"57.02953000","longitude":"34.17252000","wikiDataId":"Q155923"},{"id":99492,"name":"Kuvshinovskiy Rayon","stateId":1860,"stateCode":"TVE","stateName":"Tver Oblast","countryId":182,"countryCode":"RU","countryName":"Russia","latitude":"57.00000000","longitude":"34.16667000","wikiDataId":"Q394688"},{"id":99502,"name":"Kuzhenkino","stateId":1860,"stateCode":"TVE","stateName":"Tver Oblast","countryId":182,"countryCode":"RU","countryName":"Russia","latitude":"57.76111000","longitude":"33.95083000","wikiDataId":"Q35705948"},{"id":99598,"name":"Lesnoy Rayon","stateId":1860,"stateCode":"TVE","stateName":"Tver Oblast","countryId":182,"countryCode":"RU","countryName":"Russia","latitude":"58.25000000","longitude":"35.50000000","wikiDataId":"Q394684"},{"id":99599,"name":"Lesnoye","stateId":1860,"stateCode":"TVE","stateName":"Tver Oblast","countryId":182,"countryCode":"RU","countryName":"Russia","latitude":"58.28406000","longitude":"35.51584000","wikiDataId":"Q7242236"},{"id":99623,"name":"Likhoslavl’","stateId":1860,"stateCode":"TVE","stateName":"Tver Oblast","countryId":182,"countryCode":"RU","countryName":"Russia","latitude":"57.12747000","longitude":"35.46404000","wikiDataId":"Q157660"},{"id":99624,"name":"Likhoslavl’skiy Rayon","stateId":1860,"stateCode":"TVE","stateName":"Tver Oblast","countryId":182,"countryCode":"RU","countryName":"Russia","latitude":"57.16667000","longitude":"35.41667000","wikiDataId":"Q394722"},{"id":99746,"name":"Maksatikha","stateId":1860,"stateCode":"TVE","stateName":"Tver Oblast","countryId":182,"countryCode":"RU","countryName":"Russia","latitude":"57.79695000","longitude":"35.88254000","wikiDataId":"Q4276056"},{"id":99747,"name":"Maksatikhinskiy Rayon","stateId":1860,"stateCode":"TVE","stateName":"Tver Oblast","countryId":182,"countryCode":"RU","countryName":"Russia","latitude":"57.83333000","longitude":"35.91667000","wikiDataId":"Q394904"},{"id":99952,"name":"Molokovo","stateId":1860,"stateCode":"TVE","stateName":"Tver Oblast","countryId":182,"countryCode":"RU","countryName":"Russia","latitude":"58.16611000","longitude":"36.76278000","wikiDataId":"Q4300879"},{"id":100098,"name":"Nelidovo","stateId":1860,"stateCode":"TVE","stateName":"Tver Oblast","countryId":182,"countryCode":"RU","countryName":"Russia","latitude":"56.22107000","longitude":"32.77738000","wikiDataId":"Q172366"},{"id":100335,"name":"Novozavidovskiy","stateId":1860,"stateCode":"TVE","stateName":"Tver Oblast","countryId":182,"countryCode":"RU","countryName":"Russia","latitude":"56.55000000","longitude":"36.43333000","wikiDataId":"Q37898832"},{"id":100421,"name":"Olenino","stateId":1860,"stateCode":"TVE","stateName":"Tver Oblast","countryId":182,"countryCode":"RU","countryName":"Russia","latitude":"56.20917000","longitude":"33.48888000","wikiDataId":"Q4333592"},{"id":100477,"name":"Orsha","stateId":1860,"stateCode":"TVE","stateName":"Tver Oblast","countryId":182,"countryCode":"RU","countryName":"Russia","latitude":"56.91196000","longitude":"36.22862000","wikiDataId":"Q37903732"},{"id":100491,"name":"Ostashkov","stateId":1860,"stateCode":"TVE","stateName":"Tver Oblast","countryId":182,"countryCode":"RU","countryName":"Russia","latitude":"57.14667000","longitude":"33.10753000","wikiDataId":"Q176761"},{"id":100492,"name":"Ostashkovskiy Rayon","stateId":1860,"stateCode":"TVE","stateName":"Tver Oblast","countryId":182,"countryCode":"RU","countryName":"Russia","latitude":"57.16667000","longitude":"33.25000000","wikiDataId":"Q394894"},{"id":100593,"name":"Peno","stateId":1860,"stateCode":"TVE","stateName":"Tver Oblast","countryId":182,"countryCode":"RU","countryName":"Russia","latitude":"56.92624000","longitude":"32.74262000","wikiDataId":"Q3736963"},{"id":100594,"name":"Penovskiy Rayon","stateId":1860,"stateCode":"TVE","stateName":"Tver Oblast","countryId":182,"countryCode":"RU","countryName":"Russia","latitude":"56.91667000","longitude":"32.75000000","wikiDataId":"Q394876"},{"id":100922,"name":"Radchenko","stateId":1860,"stateCode":"TVE","stateName":"Tver Oblast","countryId":182,"countryCode":"RU","countryName":"Russia","latitude":"56.68027000","longitude":"36.37178000","wikiDataId":"Q37958694"},{"id":100937,"name":"Rameshki","stateId":1860,"stateCode":"TVE","stateName":"Tver Oblast","countryId":182,"countryCode":"RU","countryName":"Russia","latitude":"57.34390000","longitude":"36.04535000","wikiDataId":"Q37958669"},{"id":100938,"name":"Rameshkovskiy Rayon","stateId":1860,"stateCode":"TVE","stateName":"Tver Oblast","countryId":182,"countryCode":"RU","countryName":"Russia","latitude":"57.33333000","longitude":"36.08333000","wikiDataId":"Q394718"},{"id":100958,"name":"Redkino","stateId":1860,"stateCode":"TVE","stateName":"Tver Oblast","countryId":182,"countryCode":"RU","countryName":"Russia","latitude":"56.64754000","longitude":"36.29674000","wikiDataId":"Q2379655"},{"id":101060,"name":"Rzhev","stateId":1860,"stateCode":"TVE","stateName":"Tver Oblast","countryId":182,"countryCode":"RU","countryName":"Russia","latitude":"56.26241000","longitude":"34.32817000","wikiDataId":"Q191465"},{"id":101075,"name":"Sakharovo","stateId":1860,"stateCode":"TVE","stateName":"Tver Oblast","countryId":182,"countryCode":"RU","countryName":"Russia","latitude":"56.89949000","longitude":"36.05015000","wikiDataId":"Q37958366"},{"id":101098,"name":"Sandovo","stateId":1860,"stateCode":"TVE","stateName":"Tver Oblast","countryId":182,"countryCode":"RU","countryName":"Russia","latitude":"58.46022000","longitude":"36.41277000","wikiDataId":"Q37958317"},{"id":101099,"name":"Sandovskiy Rayon","stateId":1860,"stateCode":"TVE","stateName":"Tver Oblast","countryId":182,"countryCode":"RU","countryName":"Russia","latitude":"58.41667000","longitude":"36.41667000","wikiDataId":"Q394639"},{"id":101156,"name":"Selishche","stateId":1860,"stateCode":"TVE","stateName":"Tver Oblast","countryId":182,"countryCode":"RU","countryName":"Russia","latitude":"56.88794000","longitude":"33.26914000","wikiDataId":"Q37958161"},{"id":101157,"name":"Selizharovo","stateId":1860,"stateCode":"TVE","stateName":"Tver Oblast","countryId":182,"countryCode":"RU","countryName":"Russia","latitude":"56.85188000","longitude":"33.44869000","wikiDataId":"Q1970038"},{"id":101158,"name":"Selizharovskiy Rayon","stateId":1860,"stateCode":"TVE","stateName":"Tver Oblast","countryId":182,"countryCode":"RU","countryName":"Russia","latitude":"56.83333000","longitude":"33.41667000","wikiDataId":"Q394872"},{"id":101476,"name":"Sonkovo","stateId":1860,"stateCode":"TVE","stateName":"Tver Oblast","countryId":182,"countryCode":"RU","countryName":"Russia","latitude":"57.77816000","longitude":"37.15707000","wikiDataId":"Q104683"},{"id":101537,"name":"Spirovo","stateId":1860,"stateCode":"TVE","stateName":"Tver Oblast","countryId":182,"countryCode":"RU","countryName":"Russia","latitude":"57.41905000","longitude":"34.97658000","wikiDataId":"Q37957223"},{"id":101538,"name":"Spirovskiy Rayon","stateId":1860,"stateCode":"TVE","stateName":"Tver Oblast","countryId":182,"countryCode":"RU","countryName":"Russia","latitude":"57.41667000","longitude":"35.00000000","wikiDataId":"Q394761"},{"id":101554,"name":"Stantsia Staritsa","stateId":1860,"stateCode":"TVE","stateName":"Tver Oblast","countryId":182,"countryCode":"RU","countryName":"Russia","latitude":"56.53224000","longitude":"34.77287000","wikiDataId":"Q4439493"},{"id":101567,"name":"Staraya Toropa","stateId":1860,"stateCode":"TVE","stateName":"Tver Oblast","countryId":182,"countryCode":"RU","countryName":"Russia","latitude":"56.28012000","longitude":"31.67018000","wikiDataId":"Q4439812"},{"id":101569,"name":"Staritsa","stateId":1860,"stateCode":"TVE","stateName":"Tver Oblast","countryId":182,"countryCode":"RU","countryName":"Russia","latitude":"56.50752000","longitude":"34.93544000","wikiDataId":"Q196481"},{"id":101570,"name":"Staritskiy Rayon","stateId":1860,"stateCode":"TVE","stateName":"Tver Oblast","countryId":182,"countryCode":"RU","countryName":"Russia","latitude":"56.50000000","longitude":"34.91667000","wikiDataId":"Q394622"},{"id":101899,"name":"Toropets","stateId":1860,"stateCode":"TVE","stateName":"Tver Oblast","countryId":182,"countryCode":"RU","countryName":"Russia","latitude":"56.49779000","longitude":"31.63528000","wikiDataId":"Q48562"},{"id":101900,"name":"Toropetskiy Rayon","stateId":1860,"stateCode":"TVE","stateName":"Tver Oblast","countryId":182,"countryCode":"RU","countryName":"Russia","latitude":"56.58333000","longitude":"31.50000000","wikiDataId":"Q394729"},{"id":101901,"name":"Torzhok","stateId":1860,"stateCode":"TVE","stateName":"Tver Oblast","countryId":182,"countryCode":"RU","countryName":"Russia","latitude":"57.04360000","longitude":"34.96221000","wikiDataId":"Q196678"},{"id":101902,"name":"Torzhokskiy Rayon","stateId":1860,"stateCode":"TVE","stateName":"Tver Oblast","countryId":182,"countryCode":"RU","countryName":"Russia","latitude":"57.08333000","longitude":"35.00000000","wikiDataId":"Q394891"},{"id":101988,"name":"Tver","stateId":1860,"stateCode":"TVE","stateName":"Tver Oblast","countryId":182,"countryCode":"RU","countryName":"Russia","latitude":"56.85836000","longitude":"35.90057000","wikiDataId":"Q2288"},{"id":102024,"name":"Udomlya","stateId":1860,"stateCode":"TVE","stateName":"Tver Oblast","countryId":182,"countryCode":"RU","countryName":"Russia","latitude":"57.87944000","longitude":"34.99250000","wikiDataId":"Q196798"},{"id":102199,"name":"Vasil’yevskiy Mokh","stateId":1860,"stateCode":"TVE","stateName":"Tver Oblast","countryId":182,"countryCode":"RU","countryName":"Russia","latitude":"57.01316000","longitude":"35.91897000","wikiDataId":"Q1015741"},{"id":102216,"name":"Velikooktyabr’skiy","stateId":1860,"stateCode":"TVE","stateName":"Tver Oblast","countryId":182,"countryCode":"RU","countryName":"Russia","latitude":"57.43333000","longitude":"33.81595000","wikiDataId":"Q4106764"},{"id":102293,"name":"Ves’yegonsk","stateId":1860,"stateCode":"TVE","stateName":"Tver Oblast","countryId":182,"countryCode":"RU","countryName":"Russia","latitude":"58.66398000","longitude":"37.26040000","wikiDataId":"Q133061"},{"id":102294,"name":"Ves’yegonskiy Rayon","stateId":1860,"stateCode":"TVE","stateName":"Tver Oblast","countryId":182,"countryCode":"RU","countryName":"Russia","latitude":"58.66667000","longitude":"37.16667000","wikiDataId":"Q394230"},{"id":102429,"name":"Vydropuzhsk","stateId":1860,"stateCode":"TVE","stateName":"Tver Oblast","countryId":182,"countryCode":"RU","countryName":"Russia","latitude":"57.36470000","longitude":"34.84287000","wikiDataId":"Q37963111"},{"id":102434,"name":"Vypolzovo","stateId":1860,"stateCode":"TVE","stateName":"Tver Oblast","countryId":182,"countryCode":"RU","countryName":"Russia","latitude":"57.87667000","longitude":"33.69861000","wikiDataId":"Q4129078"},{"id":102441,"name":"Vyshnevolotskiy Rayon","stateId":1860,"stateCode":"TVE","stateName":"Tver Oblast","countryId":182,"countryCode":"RU","countryName":"Russia","latitude":"57.58333000","longitude":"34.58333000","wikiDataId":"Q2218449"},{"id":102443,"name":"Vyshniy Volochëk","stateId":1860,"stateCode":"TVE","stateName":"Tver Oblast","countryId":182,"countryCode":"RU","countryName":"Russia","latitude":"57.59125000","longitude":"34.56453000","wikiDataId":"Q134181"},{"id":102646,"name":"Zapadnaya Dvina","stateId":1860,"stateCode":"TVE","stateName":"Tver Oblast","countryId":182,"countryCode":"RU","countryName":"Russia","latitude":"56.25901000","longitude":"32.07454000","wikiDataId":"Q136656"},{"id":102672,"name":"Zavidovo","stateId":1860,"stateCode":"TVE","stateName":"Tver Oblast","countryId":182,"countryCode":"RU","countryName":"Russia","latitude":"56.53333000","longitude":"36.53333000","wikiDataId":"Q4183060"},{"id":102713,"name":"Zharkovskiy","stateId":1860,"stateCode":"TVE","stateName":"Tver Oblast","countryId":182,"countryCode":"RU","countryName":"Russia","latitude":"55.84900000","longitude":"32.26970000","wikiDataId":"Q33527529"},{"id":102773,"name":"Zubtsov","stateId":1860,"stateCode":"TVE","stateName":"Tver Oblast","countryId":182,"countryCode":"RU","countryName":"Russia","latitude":"56.17533000","longitude":"34.58935000","wikiDataId":"Q141342"},{"id":102774,"name":"Zubtsovskiy Rayon","stateId":1860,"stateCode":"TVE","stateName":"Tver Oblast","countryId":182,"countryCode":"RU","countryName":"Russia","latitude":"56.16667000","longitude":"34.58333000","wikiDataId":"Q2218003"}]