[{"id":10060,"name":"Abatiá","stateId":2022,"stateCode":"PR","stateName":"Paraná","countryId":31,"countryCode":"BR","countryName":"Brazil","latitude":"-23.29903000","longitude":"-50.32176000","wikiDataId":"Q784855"},{"id":10083,"name":"Adrianópolis","stateId":2022,"stateCode":"PR","stateName":"Paraná","countryId":31,"countryCode":"BR","countryName":"Brazil","latitude":"-24.76632000","longitude":"-48.79998000","wikiDataId":"Q676044"},{"id":10099,"name":"Agudos do Sul","stateId":2022,"stateCode":"PR","stateName":"Paraná","countryId":31,"countryCode":"BR","countryName":"Brazil","latitude":"-26.04616000","longitude":"-49.31186000","wikiDataId":"Q398170"},{"id":10144,"name":"Almirante Tamandaré","stateId":2022,"stateCode":"PR","stateName":"Paraná","countryId":31,"countryCode":"BR","countryName":"Brazil","latitude":"-25.32472000","longitude":"-49.31000000","wikiDataId":"Q1650078"},{"id":10155,"name":"Altamira do Paraná","stateId":2022,"stateCode":"PR","stateName":"Paraná","countryId":31,"countryCode":"BR","countryName":"Brazil","latitude":"-24.81257000","longitude":"-52.70740000","wikiDataId":"Q2013259"},{"id":10187,"name":"Altãnia","stateId":2022,"stateCode":"PR","stateName":"Paraná","countryId":31,"countryCode":"BR","countryName":"Brazil","latitude":"-23.87444000","longitude":"-53.90167000","wikiDataId":"Q22050222"},{"id":10177,"name":"Alto Paraíso","stateId":2022,"stateCode":"PR","stateName":"Paraná","countryId":31,"countryCode":"BR","countryName":"Brazil","latitude":"-23.55498000","longitude":"-53.80770000","wikiDataId":"Q2064812"},{"id":10175,"name":"Alto Paraná","stateId":2022,"stateCode":"PR","stateName":"Paraná","countryId":31,"countryCode":"BR","countryName":"Brazil","latitude":"-23.06783000","longitude":"-52.31196000","wikiDataId":"Q2075653"},{"id":10180,"name":"Alto Piquiri","stateId":2022,"stateCode":"PR","stateName":"Paraná","countryId":31,"countryCode":"BR","countryName":"Brazil","latitude":"-24.12973000","longitude":"-53.34661000","wikiDataId":"Q1804740"},{"id":10188,"name":"Altônia","stateId":2022,"stateCode":"PR","stateName":"Paraná","countryId":31,"countryCode":"BR","countryName":"Brazil","latitude":"-23.88648000","longitude":"-53.96852000","wikiDataId":"Q1805388"},{"id":10200,"name":"Alvorada do Sul","stateId":2022,"stateCode":"PR","stateName":"Paraná","countryId":31,"countryCode":"BR","countryName":"Brazil","latitude":"-22.80928000","longitude":"-51.27421000","wikiDataId":"Q449593"},{"id":10203,"name":"Amaporã","stateId":2022,"stateCode":"PR","stateName":"Paraná","countryId":31,"countryCode":"BR","countryName":"Brazil","latitude":"-23.13633000","longitude":"-52.83810000","wikiDataId":"Q1756032"},{"id":10222,"name":"Ampére","stateId":2022,"stateCode":"PR","stateName":"Paraná","countryId":31,"countryCode":"BR","countryName":"Brazil","latitude":"-25.91242000","longitude":"-53.49366000","wikiDataId":"Q2004241"},{"id":10229,"name":"Anahy","stateId":2022,"stateCode":"PR","stateName":"Paraná","countryId":31,"countryCode":"BR","countryName":"Brazil","latitude":"-24.66517000","longitude":"-53.13229000","wikiDataId":"Q1772546"},{"id":10243,"name":"Andirá","stateId":2022,"stateCode":"PR","stateName":"Paraná","countryId":31,"countryCode":"BR","countryName":"Brazil","latitude":"-23.03931000","longitude":"-50.27404000","wikiDataId":"Q1935710"},{"id":15681,"name":"Ângulo","stateId":2022,"stateCode":"PR","stateName":"Paraná","countryId":31,"countryCode":"BR","countryName":"Brazil","latitude":"-23.21625000","longitude":"-51.93851000","wikiDataId":"Q1205078"},{"id":10269,"name":"Antonina","stateId":2022,"stateCode":"PR","stateName":"Paraná","countryId":31,"countryCode":"BR","countryName":"Brazil","latitude":"-25.28425000","longitude":"-48.72037000","wikiDataId":"Q599068"},{"id":10279,"name":"Antônio Olinto","stateId":2022,"stateCode":"PR","stateName":"Paraná","countryId":31,"countryCode":"BR","countryName":"Brazil","latitude":"-25.96435000","longitude":"-50.12992000","wikiDataId":"Q1809601"},{"id":10301,"name":"Apucarana","stateId":2022,"stateCode":"PR","stateName":"Paraná","countryId":31,"countryCode":"BR","countryName":"Brazil","latitude":"-23.56159000","longitude":"-51.45358000","wikiDataId":"Q1638385"},{"id":10340,"name":"Arapongas","stateId":2022,"stateCode":"PR","stateName":"Paraná","countryId":31,"countryCode":"BR","countryName":"Brazil","latitude":"-23.41944000","longitude":"-51.42444000","wikiDataId":"Q1650073"},{"id":10342,"name":"Arapoti","stateId":2022,"stateCode":"PR","stateName":"Paraná","countryId":31,"countryCode":"BR","countryName":"Brazil","latitude":"-24.06902000","longitude":"-50.03733000","wikiDataId":"Q1650073"},{"id":10345,"name":"Arapuã","stateId":2022,"stateCode":"PR","stateName":"Paraná","countryId":31,"countryCode":"BR","countryName":"Brazil","latitude":"-24.31991000","longitude":"-51.81138000","wikiDataId":"Q1650073"},{"id":10358,"name":"Araruna","stateId":2022,"stateCode":"PR","stateName":"Paraná","countryId":31,"countryCode":"BR","countryName":"Brazil","latitude":"-23.97219000","longitude":"-52.59131000","wikiDataId":"Q2065337"},{"id":10363,"name":"Araucária","stateId":2022,"stateCode":"PR","stateName":"Paraná","countryId":31,"countryCode":"BR","countryName":"Brazil","latitude":"-25.59306000","longitude":"-49.41028000","wikiDataId":"Q1773313"},{"id":10398,"name":"Ariranha do Ivaí","stateId":2022,"stateCode":"PR","stateName":"Paraná","countryId":31,"countryCode":"BR","countryName":"Brazil","latitude":"-24.35185000","longitude":"-51.53194000","wikiDataId":"Q1646975"},{"id":10426,"name":"Assaí","stateId":2022,"stateCode":"PR","stateName":"Paraná","countryId":31,"countryCode":"BR","countryName":"Brazil","latitude":"-23.37333000","longitude":"-50.84139000","wikiDataId":"Q2005491"},{"id":10429,"name":"Assis Chateaubriand","stateId":2022,"stateCode":"PR","stateName":"Paraná","countryId":31,"countryCode":"BR","countryName":"Brazil","latitude":"-24.40824000","longitude":"-53.53328000","wikiDataId":"Q742227"},{"id":10433,"name":"Astorga","stateId":2022,"stateCode":"PR","stateName":"Paraná","countryId":31,"countryCode":"BR","countryName":"Brazil","latitude":"-23.24011000","longitude":"-51.69541000","wikiDataId":"Q2007427"},{"id":10435,"name":"Atalaia","stateId":2022,"stateCode":"PR","stateName":"Paraná","countryId":31,"countryCode":"BR","countryName":"Brazil","latitude":"-23.12728000","longitude":"-52.04286000","wikiDataId":"Q928274"},{"id":10491,"name":"Balsa Nova","stateId":2022,"stateCode":"PR","stateName":"Paraná","countryId":31,"countryCode":"BR","countryName":"Brazil","latitude":"-25.52151000","longitude":"-49.67738000","wikiDataId":"Q2881477"},{"id":10500,"name":"Bandeirantes","stateId":2022,"stateCode":"PR","stateName":"Paraná","countryId":31,"countryCode":"BR","countryName":"Brazil","latitude":"-23.15516000","longitude":"-50.33873000","wikiDataId":"Q2064780"},{"id":10510,"name":"Barbosa Ferraz","stateId":2022,"stateCode":"PR","stateName":"Paraná","countryId":31,"countryCode":"BR","countryName":"Brazil","latitude":"-24.06134000","longitude":"-52.05494000","wikiDataId":"Q602143"},{"id":10537,"name":"Barra do Jacaré","stateId":2022,"stateCode":"PR","stateName":"Paraná","countryId":31,"countryCode":"BR","countryName":"Brazil","latitude":"-23.11066000","longitude":"-50.15719000","wikiDataId":"Q577720"},{"id":10547,"name":"Barracão","stateId":2022,"stateCode":"PR","stateName":"Paraná","countryId":31,"countryCode":"BR","countryName":"Brazil","latitude":"-26.24009000","longitude":"-53.52586000","wikiDataId":"Q1784872"},{"id":10595,"name":"Bela Vista da Caroba","stateId":2022,"stateCode":"PR","stateName":"Paraná","countryId":31,"countryCode":"BR","countryName":"Brazil","latitude":"-25.87398000","longitude":"-53.62755000","wikiDataId":"Q1148023"},{"id":10599,"name":"Bela Vista do Paraíso","stateId":2022,"stateCode":"PR","stateName":"Paraná","countryId":31,"countryCode":"BR","countryName":"Brazil","latitude":"-22.99667000","longitude":"-51.19056000","wikiDataId":"Q1805395"},{"id":10655,"name":"Bituruna","stateId":2022,"stateCode":"PR","stateName":"Paraná","countryId":31,"countryCode":"BR","countryName":"Brazil","latitude":"-26.18538000","longitude":"-51.54497000","wikiDataId":"Q518845"},{"id":10659,"name":"Boa Esperança","stateId":2022,"stateCode":"PR","stateName":"Paraná","countryId":31,"countryCode":"BR","countryName":"Brazil","latitude":"-24.24372000","longitude":"-52.73574000","wikiDataId":"Q22062767"},{"id":10660,"name":"Boa Esperança do Iguaçu","stateId":2022,"stateCode":"PR","stateName":"Paraná","countryId":31,"countryCode":"BR","countryName":"Brazil","latitude":"-25.63520000","longitude":"-53.22621000","wikiDataId":"Q963673"},{"id":10665,"name":"Boa Ventura de São Roque","stateId":2022,"stateCode":"PR","stateName":"Paraná","countryId":31,"countryCode":"BR","countryName":"Brazil","latitude":"-24.84082000","longitude":"-51.55638000","wikiDataId":"Q268938"},{"id":10668,"name":"Boa Vista da Aparecida","stateId":2022,"stateCode":"PR","stateName":"Paraná","countryId":31,"countryCode":"BR","countryName":"Brazil","latitude":"-25.43709000","longitude":"-53.41293000","wikiDataId":"Q1808337"},{"id":10684,"name":"Bocaiúva do Sul","stateId":2022,"stateCode":"PR","stateName":"Paraná","countryId":31,"countryCode":"BR","countryName":"Brazil","latitude":"-25.10040000","longitude":"-48.87116000","wikiDataId":"Q1756928"},{"id":10714,"name":"Bom Jesus do Sul","stateId":2022,"stateCode":"PR","stateName":"Paraná","countryId":31,"countryCode":"BR","countryName":"Brazil","latitude":"-26.15280000","longitude":"-53.54963000","wikiDataId":"Q1807022"},{"id":10727,"name":"Bom Sucesso","stateId":2022,"stateCode":"PR","stateName":"Paraná","countryId":31,"countryCode":"BR","countryName":"Brazil","latitude":"-23.69506000","longitude":"-51.81945000","wikiDataId":"Q2355826"},{"id":10729,"name":"Bom Sucesso do Sul","stateId":2022,"stateCode":"PR","stateName":"Paraná","countryId":31,"countryCode":"BR","countryName":"Brazil","latitude":"-26.08239000","longitude":"-52.85103000","wikiDataId":"Q2004481"},{"id":10754,"name":"Borrazópolis","stateId":2022,"stateCode":"PR","stateName":"Paraná","countryId":31,"countryCode":"BR","countryName":"Brazil","latitude":"-23.93931000","longitude":"-51.60141000","wikiDataId":"Q1792820"},{"id":10764,"name":"Braganey","stateId":2022,"stateCode":"PR","stateName":"Paraná","countryId":31,"countryCode":"BR","countryName":"Brazil","latitude":"-24.79019000","longitude":"-53.08864000","wikiDataId":"Q614230"},{"id":10772,"name":"Brasilândia do Sul","stateId":2022,"stateCode":"PR","stateName":"Paraná","countryId":31,"countryCode":"BR","countryName":"Brazil","latitude":"-24.21682000","longitude":"-53.57250000","wikiDataId":"Q2329749"},{"id":10894,"name":"Cafeara","stateId":2022,"stateCode":"PR","stateName":"Paraná","countryId":31,"countryCode":"BR","countryName":"Brazil","latitude":"-22.79980000","longitude":"-51.71428000","wikiDataId":"Q1808307"},{"id":10896,"name":"Cafelândia","stateId":2022,"stateCode":"PR","stateName":"Paraná","countryId":31,"countryCode":"BR","countryName":"Brazil","latitude":"-24.69297000","longitude":"-53.35090000","wikiDataId":"Q2040790"},{"id":10897,"name":"Cafezal do Sul","stateId":2022,"stateCode":"PR","stateName":"Paraná","countryId":31,"countryCode":"BR","countryName":"Brazil","latitude":"-23.95645000","longitude":"-53.60910000","wikiDataId":"Q2040790"},{"id":10929,"name":"Califórnia","stateId":2022,"stateCode":"PR","stateName":"Paraná","countryId":31,"countryCode":"BR","countryName":"Brazil","latitude":"-23.66340000","longitude":"-51.32824000","wikiDataId":"Q2077893"},{"id":10944,"name":"Cambará","stateId":2022,"stateCode":"PR","stateName":"Paraná","countryId":31,"countryCode":"BR","countryName":"Brazil","latitude":"-23.00420000","longitude":"-50.08819000","wikiDataId":"Q2007353"},{"id":10951,"name":"Cambé","stateId":2022,"stateCode":"PR","stateName":"Paraná","countryId":31,"countryCode":"BR","countryName":"Brazil","latitude":"-23.27583000","longitude":"-51.27833000","wikiDataId":"Q1773340"},{"id":10946,"name":"Cambira","stateId":2022,"stateCode":"PR","stateName":"Paraná","countryId":31,"countryCode":"BR","countryName":"Brazil","latitude":"-23.63164000","longitude":"-51.56671000","wikiDataId":"Q612092"},{"id":10965,"name":"Campina da Lagoa","stateId":2022,"stateCode":"PR","stateName":"Paraná","countryId":31,"countryCode":"BR","countryName":"Brazil","latitude":"-24.60154000","longitude":"-52.78545000","wikiDataId":"Q1756064"},{"id":10968,"name":"Campina do Simão","stateId":2022,"stateCode":"PR","stateName":"Paraná","countryId":31,"countryCode":"BR","countryName":"Brazil","latitude":"-25.08478000","longitude":"-51.78423000","wikiDataId":"Q1756064"},{"id":10963,"name":"Campina Grande do Sul","stateId":2022,"stateCode":"PR","stateName":"Paraná","countryId":31,"countryCode":"BR","countryName":"Brazil","latitude":"-25.30556000","longitude":"-49.05528000","wikiDataId":"Q1773372"},{"id":10985,"name":"Campo Bonito","stateId":2022,"stateCode":"PR","stateName":"Paraná","countryId":31,"countryCode":"BR","countryName":"Brazil","latitude":"-24.88808000","longitude":"-53.01009000","wikiDataId":"Q595804"},{"id":11007,"name":"Campo do Tenente","stateId":2022,"stateCode":"PR","stateName":"Paraná","countryId":31,"countryCode":"BR","countryName":"Brazil","latitude":"-25.95791000","longitude":"-49.65936000","wikiDataId":"Q1801972"},{"id":10992,"name":"Campo Largo","stateId":2022,"stateCode":"PR","stateName":"Paraná","countryId":31,"countryCode":"BR","countryName":"Brazil","latitude":"-25.45955000","longitude":"-49.53014000","wikiDataId":"Q1026376"},{"id":10996,"name":"Campo Magro","stateId":2022,"stateCode":"PR","stateName":"Paraná","countryId":31,"countryCode":"BR","countryName":"Brazil","latitude":"-25.26822000","longitude":"-49.47580000","wikiDataId":"Q989794"},{"id":10998,"name":"Campo Mourão","stateId":2022,"stateCode":"PR","stateName":"Paraná","countryId":31,"countryCode":"BR","countryName":"Brazil","latitude":"-24.04309000","longitude":"-52.37929000","wikiDataId":"Q1773327"},{"id":11550,"name":"Cândido de Abreu","stateId":2022,"stateCode":"PR","stateName":"Paraná","countryId":31,"countryCode":"BR","countryName":"Brazil","latitude":"-24.56694000","longitude":"-51.33333000","wikiDataId":"Q1803993"},{"id":11039,"name":"Candói","stateId":2022,"stateCode":"PR","stateName":"Paraná","countryId":31,"countryCode":"BR","countryName":"Brazil","latitude":"-25.51315000","longitude":"-52.02243000","wikiDataId":"Q1786799"},{"id":11054,"name":"Cantagalo","stateId":2022,"stateCode":"PR","stateName":"Paraná","countryId":31,"countryCode":"BR","countryName":"Brazil","latitude":"-25.29530000","longitude":"-52.15269000","wikiDataId":"Q22062707"},{"id":11063,"name":"Capanema","stateId":2022,"stateCode":"PR","stateName":"Paraná","countryId":31,"countryCode":"BR","countryName":"Brazil","latitude":"-25.61839000","longitude":"-53.79262000","wikiDataId":"Q1947031"},{"id":11084,"name":"Capitão Leônidas Marques","stateId":2022,"stateCode":"PR","stateName":"Paraná","countryId":31,"countryCode":"BR","countryName":"Brazil","latitude":"-25.47998000","longitude":"-53.58797000","wikiDataId":"Q1791913"},{"id":11104,"name":"Carambeí","stateId":2022,"stateCode":"PR","stateName":"Paraná","countryId":31,"countryCode":"BR","countryName":"Brazil","latitude":"-24.95260000","longitude":"-50.11590000","wikiDataId":"Q1803923"},{"id":11141,"name":"Carlópolis","stateId":2022,"stateCode":"PR","stateName":"Paraná","countryId":31,"countryCode":"BR","countryName":"Brazil","latitude":"-23.44971000","longitude":"-49.70142000","wikiDataId":"Q1758557"},{"id":11176,"name":"Cascavel","stateId":2022,"stateCode":"PR","stateName":"Paraná","countryId":31,"countryCode":"BR","countryName":"Brazil","latitude":"-24.95583000","longitude":"-53.45528000","wikiDataId":"Q205681"},{"id":11191,"name":"Castro","stateId":2022,"stateCode":"PR","stateName":"Paraná","countryId":31,"countryCode":"BR","countryName":"Brazil","latitude":"-24.83040000","longitude":"-49.85535000","wikiDataId":"Q2077411"},{"id":11196,"name":"Catanduvas","stateId":2022,"stateCode":"PR","stateName":"Paraná","countryId":31,"countryCode":"BR","countryName":"Brazil","latitude":"-25.26047000","longitude":"-53.17016000","wikiDataId":"Q983683"},{"id":11237,"name":"Centenário do Sul","stateId":2022,"stateCode":"PR","stateName":"Paraná","countryId":31,"countryCode":"BR","countryName":"Brazil","latitude":"-22.82111000","longitude":"-51.59528000","wikiDataId":"Q1775764"},{"id":11249,"name":"Cerro Azul","stateId":2022,"stateCode":"PR","stateName":"Paraná","countryId":31,"countryCode":"BR","countryName":"Brazil","latitude":"-24.85878000","longitude":"-49.29561000","wikiDataId":"Q2201300"},{"id":11551,"name":"Céu Azul","stateId":2022,"stateCode":"PR","stateName":"Paraná","countryId":31,"countryCode":"BR","countryName":"Brazil","latitude":"-25.29831000","longitude":"-53.74848000","wikiDataId":"Q1803993"},{"id":11278,"name":"Chopinzinho","stateId":2022,"stateCode":"PR","stateName":"Paraná","countryId":31,"countryCode":"BR","countryName":"Brazil","latitude":"-25.81428000","longitude":"-52.45682000","wikiDataId":"Q972174"},{"id":11289,"name":"Cianorte","stateId":2022,"stateCode":"PR","stateName":"Paraná","countryId":31,"countryCode":"BR","countryName":"Brazil","latitude":"-23.66333000","longitude":"-52.60500000","wikiDataId":"Q1803580"},{"id":11290,"name":"Cidade Gaúcha","stateId":2022,"stateCode":"PR","stateName":"Paraná","countryId":31,"countryCode":"BR","countryName":"Brazil","latitude":"-23.36535000","longitude":"-52.97466000","wikiDataId":"Q1803580"},{"id":11300,"name":"Clevelândia","stateId":2022,"stateCode":"PR","stateName":"Paraná","countryId":31,"countryCode":"BR","countryName":"Brazil","latitude":"-26.39583000","longitude":"-52.47083000","wikiDataId":"Q1773364"},{"id":11328,"name":"Colombo","stateId":2022,"stateCode":"PR","stateName":"Paraná","countryId":31,"countryCode":"BR","countryName":"Brazil","latitude":"-25.30126000","longitude":"-49.16965000","wikiDataId":"Q926688"},{"id":11329,"name":"Colorado","stateId":2022,"stateCode":"PR","stateName":"Paraná","countryId":31,"countryCode":"BR","countryName":"Brazil","latitude":"-22.83750000","longitude":"-51.97306000","wikiDataId":"Q2077965"},{"id":11381,"name":"Congonhinhas","stateId":2022,"stateCode":"PR","stateName":"Paraná","countryId":31,"countryCode":"BR","countryName":"Brazil","latitude":"-23.62943000","longitude":"-50.49858000","wikiDataId":"Q275654"},{"id":11385,"name":"Conselheiro Mairinck","stateId":2022,"stateCode":"PR","stateName":"Paraná","countryId":31,"countryCode":"BR","countryName":"Brazil","latitude":"-23.58771000","longitude":"-50.11629000","wikiDataId":"Q570312"},{"id":11390,"name":"Contenda","stateId":2022,"stateCode":"PR","stateName":"Paraná","countryId":31,"countryCode":"BR","countryName":"Brazil","latitude":"-25.71409000","longitude":"-49.50798000","wikiDataId":"Q271333"},{"id":11398,"name":"Corbélia","stateId":2022,"stateCode":"PR","stateName":"Paraná","countryId":31,"countryCode":"BR","countryName":"Brazil","latitude":"-24.79889000","longitude":"-53.30667000","wikiDataId":"Q1804001"},{"id":11410,"name":"Cornélio Procópio","stateId":2022,"stateCode":"PR","stateName":"Paraná","countryId":31,"countryCode":"BR","countryName":"Brazil","latitude":"-23.18111000","longitude":"-50.64667000","wikiDataId":"Q2007572"},{"id":11417,"name":"Coronel Domingos Soares","stateId":2022,"stateCode":"PR","stateName":"Paraná","countryId":31,"countryCode":"BR","countryName":"Brazil","latitude":"-26.18290000","longitude":"-51.97777000","wikiDataId":"Q22062628"},{"id":11430,"name":"Coronel Vivida","stateId":2022,"stateCode":"PR","stateName":"Paraná","countryId":31,"countryCode":"BR","countryName":"Brazil","latitude":"-25.97972000","longitude":"-52.56778000","wikiDataId":"Q1803573"},{"id":11439,"name":"Corumbataí do Sul","stateId":2022,"stateCode":"PR","stateName":"Paraná","countryId":31,"countryCode":"BR","countryName":"Brazil","latitude":"-24.12007000","longitude":"-52.14622000","wikiDataId":"Q1061205"},{"id":11490,"name":"Cruz Machado","stateId":2022,"stateCode":"PR","stateName":"Paraná","countryId":31,"countryCode":"BR","countryName":"Brazil","latitude":"-25.91086000","longitude":"-51.22563000","wikiDataId":"Q985966"},{"id":11496,"name":"Cruzeiro do Iguaçu","stateId":2022,"stateCode":"PR","stateName":"Paraná","countryId":31,"countryCode":"BR","countryName":"Brazil","latitude":"-25.60303000","longitude":"-53.12736000","wikiDataId":"Q1003429"},{"id":11497,"name":"Cruzeiro do Oeste","stateId":2022,"stateCode":"PR","stateName":"Paraná","countryId":31,"countryCode":"BR","countryName":"Brazil","latitude":"-23.78500000","longitude":"-53.07333000","wikiDataId":"Q2003794"},{"id":11499,"name":"Cruzeiro do Sul","stateId":2022,"stateCode":"PR","stateName":"Paraná","countryId":31,"countryCode":"BR","countryName":"Brazil","latitude":"-22.97418000","longitude":"-52.15969000","wikiDataId":"Q941136"},{"id":11502,"name":"Cruzmaltina","stateId":2022,"stateCode":"PR","stateName":"Paraná","countryId":31,"countryCode":"BR","countryName":"Brazil","latitude":"-24.02357000","longitude":"-51.48481000","wikiDataId":"Q941136"},{"id":11524,"name":"Curitiba","stateId":2022,"stateCode":"PR","stateName":"Paraná","countryId":31,"countryCode":"BR","countryName":"Brazil","latitude":"-25.42778000","longitude":"-49.27306000","wikiDataId":"Q4361"},{"id":11526,"name":"Curiúva","stateId":2022,"stateCode":"PR","stateName":"Paraná","countryId":31,"countryCode":"BR","countryName":"Brazil","latitude":"-24.00386000","longitude":"-50.46541000","wikiDataId":"Q2007405"},{"id":11585,"name":"Diamante d'Oeste","stateId":2022,"stateCode":"PR","stateName":"Paraná","countryId":31,"countryCode":"BR","countryName":"Brazil","latitude":"-24.94559000","longitude":"-54.10349000","wikiDataId":"Q1804009"},{"id":11586,"name":"Diamante do Norte","stateId":2022,"stateCode":"PR","stateName":"Paraná","countryId":31,"countryCode":"BR","countryName":"Brazil","latitude":"-22.63752000","longitude":"-52.87280000","wikiDataId":"Q1804009"},{"id":11587,"name":"Diamante do Sul","stateId":2022,"stateCode":"PR","stateName":"Paraná","countryId":31,"countryCode":"BR","countryName":"Brazil","latitude":"-24.98680000","longitude":"-52.70134000","wikiDataId":"Q1804009"},{"id":11620,"name":"Dois Vizinhos","stateId":2022,"stateCode":"PR","stateName":"Paraná","countryId":31,"countryCode":"BR","countryName":"Brazil","latitude":"-25.73361000","longitude":"-53.05722000","wikiDataId":"Q1803648"},{"id":11650,"name":"Douradina","stateId":2022,"stateCode":"PR","stateName":"Paraná","countryId":31,"countryCode":"BR","countryName":"Brazil","latitude":"-23.34040000","longitude":"-53.27489000","wikiDataId":"Q2472540"},{"id":11655,"name":"Doutor Camargo","stateId":2022,"stateCode":"PR","stateName":"Paraná","countryId":31,"countryCode":"BR","countryName":"Brazil","latitude":"-23.56158000","longitude":"-52.22341000","wikiDataId":"Q651874"},{"id":11660,"name":"Doutor Ulysses","stateId":2022,"stateCode":"PR","stateName":"Paraná","countryId":31,"countryCode":"BR","countryName":"Brazil","latitude":"-24.63500000","longitude":"-49.40020000","wikiDataId":"Q651874"},{"id":11712,"name":"Enéas Marques","stateId":2022,"stateCode":"PR","stateName":"Paraná","countryId":31,"countryCode":"BR","countryName":"Brazil","latitude":"-25.86454000","longitude":"-53.15902000","wikiDataId":"Q22054061"},{"id":11698,"name":"Engenheiro Beltrão","stateId":2022,"stateCode":"PR","stateName":"Paraná","countryId":31,"countryCode":"BR","countryName":"Brazil","latitude":"-23.79722000","longitude":"-52.26917000","wikiDataId":"Q1803653"},{"id":11708,"name":"Entre Rios do Oeste","stateId":2022,"stateCode":"PR","stateName":"Paraná","countryId":31,"countryCode":"BR","countryName":"Brazil","latitude":"-24.70408000","longitude":"-54.21562000","wikiDataId":"Q1815627"},{"id":11732,"name":"Esperança Nova","stateId":2022,"stateCode":"PR","stateName":"Paraná","countryId":31,"countryCode":"BR","countryName":"Brazil","latitude":"-23.71008000","longitude":"-53.79362000","wikiDataId":"Q1816186"},{"id":11734,"name":"Espigão Alto do Iguaçu","stateId":2022,"stateCode":"PR","stateName":"Paraná","countryId":31,"countryCode":"BR","countryName":"Brazil","latitude":"-25.35011000","longitude":"-52.77923000","wikiDataId":"Q1784225"},{"id":11777,"name":"Farol","stateId":2022,"stateCode":"PR","stateName":"Paraná","countryId":31,"countryCode":"BR","countryName":"Brazil","latitude":"-24.10348000","longitude":"-52.66314000","wikiDataId":"Q2246005"},{"id":11781,"name":"Faxinal","stateId":2022,"stateCode":"PR","stateName":"Paraná","countryId":31,"countryCode":"BR","countryName":"Brazil","latitude":"-24.00028000","longitude":"-51.31944000","wikiDataId":"Q2005159"},{"id":11786,"name":"Fazenda Rio Grande","stateId":2022,"stateCode":"PR","stateName":"Paraná","countryId":31,"countryCode":"BR","countryName":"Brazil","latitude":"-25.66466000","longitude":"-49.30426000","wikiDataId":"Q2005159"},{"id":11909,"name":"Fênix","stateId":2022,"stateCode":"PR","stateName":"Paraná","countryId":31,"countryCode":"BR","countryName":"Brazil","latitude":"-23.90551000","longitude":"-52.03998000","wikiDataId":"Q593133"},{"id":11802,"name":"Fernandes Pinheiro","stateId":2022,"stateCode":"PR","stateName":"Paraná","countryId":31,"countryCode":"BR","countryName":"Brazil","latitude":"-25.44403000","longitude":"-50.51811000","wikiDataId":"Q194343"},{"id":11816,"name":"Figueira","stateId":2022,"stateCode":"PR","stateName":"Paraná","countryId":31,"countryCode":"BR","countryName":"Brazil","latitude":"-23.86125000","longitude":"-50.42076000","wikiDataId":"Q2029914"},{"id":11825,"name":"Flor da Serra do Sul","stateId":2022,"stateCode":"PR","stateName":"Paraná","countryId":31,"countryCode":"BR","countryName":"Brazil","latitude":"-26.23081000","longitude":"-53.30368000","wikiDataId":"Q1816177"},{"id":11828,"name":"Floraí","stateId":2022,"stateCode":"PR","stateName":"Paraná","countryId":31,"countryCode":"BR","countryName":"Brazil","latitude":"-23.32830000","longitude":"-52.32422000","wikiDataId":"Q1816177"},{"id":11835,"name":"Floresta","stateId":2022,"stateCode":"PR","stateName":"Paraná","countryId":31,"countryCode":"BR","countryName":"Brazil","latitude":"-23.63014000","longitude":"-52.07630000","wikiDataId":"Q2464842"},{"id":11840,"name":"Florestópolis","stateId":2022,"stateCode":"PR","stateName":"Paraná","countryId":31,"countryCode":"BR","countryName":"Brazil","latitude":"-22.86333000","longitude":"-51.38722000","wikiDataId":"Q1863917"},{"id":11846,"name":"Flórida","stateId":2022,"stateCode":"PR","stateName":"Paraná","countryId":31,"countryCode":"BR","countryName":"Brazil","latitude":"-23.11265000","longitude":"-51.97861000","wikiDataId":"Q1761119"},{"id":11854,"name":"Formosa do Oeste","stateId":2022,"stateCode":"PR","stateName":"Paraná","countryId":31,"countryCode":"BR","countryName":"Brazil","latitude":"-24.30836000","longitude":"-53.32776000","wikiDataId":"Q1003392"},{"id":11871,"name":"Foz do Iguaçu","stateId":2022,"stateCode":"PR","stateName":"Paraná","countryId":31,"countryCode":"BR","countryName":"Brazil","latitude":"-25.54778000","longitude":"-54.58806000","wikiDataId":"Q202316"},{"id":11872,"name":"Foz do Jordão","stateId":2022,"stateCode":"PR","stateName":"Paraná","countryId":31,"countryCode":"BR","countryName":"Brazil","latitude":"-25.69523000","longitude":"-52.06075000","wikiDataId":"Q1804288"},{"id":11876,"name":"Francisco Alves","stateId":2022,"stateCode":"PR","stateName":"Paraná","countryId":31,"countryCode":"BR","countryName":"Brazil","latitude":"-24.06510000","longitude":"-53.88444000","wikiDataId":"Q504587"},{"id":11879,"name":"Francisco Beltrão","stateId":2022,"stateCode":"PR","stateName":"Paraná","countryId":31,"countryCode":"BR","countryName":"Brazil","latitude":"-26.08111000","longitude":"-53.05500000","wikiDataId":"Q985577"},{"id":11934,"name":"General Carneiro","stateId":2022,"stateCode":"PR","stateName":"Paraná","countryId":31,"countryCode":"BR","countryName":"Brazil","latitude":"-26.43749000","longitude":"-51.40075000","wikiDataId":"Q1852620"},{"id":11955,"name":"Godoy Moreira","stateId":2022,"stateCode":"PR","stateName":"Paraná","countryId":31,"countryCode":"BR","countryName":"Brazil","latitude":"-24.14813000","longitude":"-51.91555000","wikiDataId":"Q1804101"},{"id":11968,"name":"Goioerê","stateId":2022,"stateCode":"PR","stateName":"Paraná","countryId":31,"countryCode":"BR","countryName":"Brazil","latitude":"-24.18868000","longitude":"-53.09916000","wikiDataId":"Q1797061"},{"id":11969,"name":"Goioxim","stateId":2022,"stateCode":"PR","stateName":"Paraná","countryId":31,"countryCode":"BR","countryName":"Brazil","latitude":"-25.09533000","longitude":"-52.00812000","wikiDataId":"Q1797061"},{"id":11996,"name":"Grandes Rios","stateId":2022,"stateCode":"PR","stateName":"Paraná","countryId":31,"countryCode":"BR","countryName":"Brazil","latitude":"-24.18645000","longitude":"-51.43460000","wikiDataId":"Q2043418"},{"id":12078,"name":"Guaíra","stateId":2022,"stateCode":"PR","stateName":"Paraná","countryId":31,"countryCode":"BR","countryName":"Brazil","latitude":"-24.26175000","longitude":"-54.23821000","wikiDataId":"Q2013622"},{"id":12015,"name":"Guairaçá","stateId":2022,"stateCode":"PR","stateName":"Paraná","countryId":31,"countryCode":"BR","countryName":"Brazil","latitude":"-22.90548000","longitude":"-52.74878000","wikiDataId":"Q2104157"},{"id":12023,"name":"Guamiranga","stateId":2022,"stateCode":"PR","stateName":"Paraná","countryId":31,"countryCode":"BR","countryName":"Brazil","latitude":"-25.15028000","longitude":"-50.86182000","wikiDataId":"Q983810"},{"id":12029,"name":"Guapirama","stateId":2022,"stateCode":"PR","stateName":"Paraná","countryId":31,"countryCode":"BR","countryName":"Brazil","latitude":"-23.46840000","longitude":"-50.09128000","wikiDataId":"Q1761565"},{"id":12030,"name":"Guaporema","stateId":2022,"stateCode":"PR","stateName":"Paraná","countryId":31,"countryCode":"BR","countryName":"Brazil","latitude":"-23.31022000","longitude":"-52.82479000","wikiDataId":"Q1761565"},{"id":12036,"name":"Guaraci","stateId":2022,"stateCode":"PR","stateName":"Paraná","countryId":31,"countryCode":"BR","countryName":"Brazil","latitude":"-22.97343000","longitude":"-51.69739000","wikiDataId":"Q1827121"},{"id":12047,"name":"Guaraniaçu","stateId":2022,"stateCode":"PR","stateName":"Paraná","countryId":31,"countryCode":"BR","countryName":"Brazil","latitude":"-25.10083000","longitude":"-52.87806000","wikiDataId":"Q1803606"},{"id":12052,"name":"Guarapuava","stateId":2022,"stateCode":"PR","stateName":"Paraná","countryId":31,"countryCode":"BR","countryName":"Brazil","latitude":"-25.39048000","longitude":"-51.46541000","wikiDataId":"Q326354"},{"id":12053,"name":"Guaraqueçaba","stateId":2022,"stateCode":"PR","stateName":"Paraná","countryId":31,"countryCode":"BR","countryName":"Brazil","latitude":"-25.15156000","longitude":"-48.35949000","wikiDataId":"Q326354"},{"id":12059,"name":"Guaratuba","stateId":2022,"stateCode":"PR","stateName":"Paraná","countryId":31,"countryCode":"BR","countryName":"Brazil","latitude":"-25.88278000","longitude":"-48.57472000","wikiDataId":"Q1779983"},{"id":12104,"name":"Honório Serpa","stateId":2022,"stateCode":"PR","stateName":"Paraná","countryId":31,"countryCode":"BR","countryName":"Brazil","latitude":"-26.13779000","longitude":"-52.39614000","wikiDataId":"Q687445"},{"id":12120,"name":"Ibaiti","stateId":2022,"stateCode":"PR","stateName":"Paraná","countryId":31,"countryCode":"BR","countryName":"Brazil","latitude":"-23.84861000","longitude":"-50.18778000","wikiDataId":"Q2005227"},{"id":12126,"name":"Ibema","stateId":2022,"stateCode":"PR","stateName":"Paraná","countryId":31,"countryCode":"BR","countryName":"Brazil","latitude":"-25.16493000","longitude":"-53.01268000","wikiDataId":"Q1760989"},{"id":12142,"name":"Ibiporã","stateId":2022,"stateCode":"PR","stateName":"Paraná","countryId":31,"countryCode":"BR","countryName":"Brazil","latitude":"-23.26917000","longitude":"-51.04806000","wikiDataId":"Q2006392"},{"id":12169,"name":"Icaraíma","stateId":2022,"stateCode":"PR","stateName":"Paraná","countryId":31,"countryCode":"BR","countryName":"Brazil","latitude":"-23.37235000","longitude":"-53.59492000","wikiDataId":"Q1761863"},{"id":12198,"name":"Iguaraçu","stateId":2022,"stateCode":"PR","stateName":"Paraná","countryId":31,"countryCode":"BR","countryName":"Brazil","latitude":"-23.23375000","longitude":"-51.85341000","wikiDataId":"Q1646941"},{"id":12202,"name":"Iguatu","stateId":2022,"stateCode":"PR","stateName":"Paraná","countryId":31,"countryCode":"BR","countryName":"Brazil","latitude":"-24.68784000","longitude":"-53.08691000","wikiDataId":"Q2322834"},{"id":12219,"name":"Imbaú","stateId":2022,"stateCode":"PR","stateName":"Paraná","countryId":31,"countryCode":"BR","countryName":"Brazil","latitude":"-24.44336000","longitude":"-50.73882000","wikiDataId":"Q2009933"},{"id":12221,"name":"Imbituva","stateId":2022,"stateCode":"PR","stateName":"Paraná","countryId":31,"countryCode":"BR","countryName":"Brazil","latitude":"-25.23000000","longitude":"-50.60444000","wikiDataId":"Q2004428"},{"id":12256,"name":"Inácio Martins","stateId":2022,"stateCode":"PR","stateName":"Paraná","countryId":31,"countryCode":"BR","countryName":"Brazil","latitude":"-25.64000000","longitude":"-51.22000000","wikiDataId":"Q986245"},{"id":12229,"name":"Inajá","stateId":2022,"stateCode":"PR","stateName":"Paraná","countryId":31,"countryCode":"BR","countryName":"Brazil","latitude":"-22.71509000","longitude":"-52.24126000","wikiDataId":"Q504755"},{"id":12238,"name":"Indianópolis","stateId":2022,"stateCode":"PR","stateName":"Paraná","countryId":31,"countryCode":"BR","countryName":"Brazil","latitude":"-23.47975000","longitude":"-52.64153000","wikiDataId":"Q2050304"},{"id":12275,"name":"Ipiranga","stateId":2022,"stateCode":"PR","stateName":"Paraná","countryId":31,"countryCode":"BR","countryName":"Brazil","latitude":"-25.01590000","longitude":"-50.55475000","wikiDataId":"Q2064845"},{"id":12286,"name":"Iporã","stateId":2022,"stateCode":"PR","stateName":"Paraná","countryId":31,"countryCode":"BR","countryName":"Brazil","latitude":"-24.04512000","longitude":"-53.71983000","wikiDataId":"Q2027403"},{"id":12301,"name":"Iracema do Oeste","stateId":2022,"stateCode":"PR","stateName":"Paraná","countryId":31,"countryCode":"BR","countryName":"Brazil","latitude":"-24.43665000","longitude":"-53.33842000","wikiDataId":"Q2130759"},{"id":12312,"name":"Irati","stateId":2022,"stateCode":"PR","stateName":"Paraná","countryId":31,"countryCode":"BR","countryName":"Brazil","latitude":"-25.46722000","longitude":"-50.65111000","wikiDataId":"Q2064763"},{"id":12318,"name":"Iretama","stateId":2022,"stateCode":"PR","stateName":"Paraná","countryId":31,"countryCode":"BR","countryName":"Brazil","latitude":"-24.34412000","longitude":"-52.10655000","wikiDataId":"Q1762180"},{"id":12350,"name":"Itaguajé","stateId":2022,"stateCode":"PR","stateName":"Paraná","countryId":31,"countryCode":"BR","countryName":"Brazil","latitude":"-22.66099000","longitude":"-51.98288000","wikiDataId":"Q782196"},{"id":12360,"name":"Itaipulândia","stateId":2022,"stateCode":"PR","stateName":"Paraná","countryId":31,"countryCode":"BR","countryName":"Brazil","latitude":"-25.16335000","longitude":"-54.34354000","wikiDataId":"Q662237"},{"id":12382,"name":"Itambaracá","stateId":2022,"stateCode":"PR","stateName":"Paraná","countryId":31,"countryCode":"BR","countryName":"Brazil","latitude":"-22.98385000","longitude":"-50.42715000","wikiDataId":"Q1754657"},{"id":12384,"name":"Itambé","stateId":2022,"stateCode":"PR","stateName":"Paraná","countryId":31,"countryCode":"BR","countryName":"Brazil","latitude":"-23.68805000","longitude":"-52.01227000","wikiDataId":"Q2283708"},{"id":12407,"name":"Itapejara d'Oeste","stateId":2022,"stateCode":"PR","stateName":"Paraná","countryId":31,"countryCode":"BR","countryName":"Brazil","latitude":"-25.97797000","longitude":"-52.82583000","wikiDataId":"Q2004451"},{"id":12411,"name":"Itaperuçu","stateId":2022,"stateCode":"PR","stateName":"Paraná","countryId":31,"countryCode":"BR","countryName":"Brazil","latitude":"-25.22000000","longitude":"-49.34778000","wikiDataId":"Q2004535"},{"id":12472,"name":"Itaúna do Sul","stateId":2022,"stateCode":"PR","stateName":"Paraná","countryId":31,"countryCode":"BR","countryName":"Brazil","latitude":"-22.73684000","longitude":"-52.89236000","wikiDataId":"Q628877"},{"id":12501,"name":"Ivaí","stateId":2022,"stateCode":"PR","stateName":"Paraná","countryId":31,"countryCode":"BR","countryName":"Brazil","latitude":"-24.99384000","longitude":"-50.86192000","wikiDataId":"Q745307"},{"id":12498,"name":"Ivaiporã","stateId":2022,"stateCode":"PR","stateName":"Paraná","countryId":31,"countryCode":"BR","countryName":"Brazil","latitude":"-24.28230000","longitude":"-51.63284000","wikiDataId":"Q745307"},{"id":12500,"name":"Ivaté","stateId":2022,"stateCode":"PR","stateName":"Paraná","countryId":31,"countryCode":"BR","countryName":"Brazil","latitude":"-23.33716000","longitude":"-53.42407000","wikiDataId":"Q745307"},{"id":12499,"name":"Ivatuba","stateId":2022,"stateCode":"PR","stateName":"Paraná","countryId":31,"countryCode":"BR","countryName":"Brazil","latitude":"-23.59716000","longitude":"-52.19434000","wikiDataId":"Q745307"},{"id":12513,"name":"Jaboti","stateId":2022,"stateCode":"PR","stateName":"Paraná","countryId":31,"countryCode":"BR","countryName":"Brazil","latitude":"-23.69532000","longitude":"-50.07376000","wikiDataId":"Q1808261"},{"id":12520,"name":"Jacarezinho","stateId":2022,"stateCode":"PR","stateName":"Paraná","countryId":31,"countryCode":"BR","countryName":"Brazil","latitude":"-23.19072000","longitude":"-49.95410000","wikiDataId":"Q1814491"},{"id":12536,"name":"Jaguapitã","stateId":2022,"stateCode":"PR","stateName":"Paraná","countryId":31,"countryCode":"BR","countryName":"Brazil","latitude":"-23.07631000","longitude":"-51.58296000","wikiDataId":"Q1804332"},{"id":12542,"name":"Jaguariaíva","stateId":2022,"stateCode":"PR","stateName":"Paraná","countryId":31,"countryCode":"BR","countryName":"Brazil","latitude":"-24.24423000","longitude":"-49.70932000","wikiDataId":"Q1803599"},{"id":12557,"name":"Jandaia do Sul","stateId":2022,"stateCode":"PR","stateName":"Paraná","countryId":31,"countryCode":"BR","countryName":"Brazil","latitude":"-23.60306000","longitude":"-51.64333000","wikiDataId":"Q1779910"},{"id":12563,"name":"Janiópolis","stateId":2022,"stateCode":"PR","stateName":"Paraná","countryId":31,"countryCode":"BR","countryName":"Brazil","latitude":"-24.08843000","longitude":"-52.80294000","wikiDataId":"Q1759342"},{"id":12571,"name":"Japira","stateId":2022,"stateCode":"PR","stateName":"Paraná","countryId":31,"countryCode":"BR","countryName":"Brazil","latitude":"-23.69047000","longitude":"-50.18011000","wikiDataId":"Q1787673"},{"id":12576,"name":"Japurá","stateId":2022,"stateCode":"PR","stateName":"Paraná","countryId":31,"countryCode":"BR","countryName":"Brazil","latitude":"-23.41860000","longitude":"-52.56220000","wikiDataId":"Q1112881"},{"id":12585,"name":"Jardim Alegre","stateId":2022,"stateCode":"PR","stateName":"Paraná","countryId":31,"countryCode":"BR","countryName":"Brazil","latitude":"-24.21451000","longitude":"-51.72270000","wikiDataId":"Q929116"},{"id":12586,"name":"Jardim Olinda","stateId":2022,"stateCode":"PR","stateName":"Paraná","countryId":31,"countryCode":"BR","countryName":"Brazil","latitude":"-22.56938000","longitude":"-52.06520000","wikiDataId":"Q929116"},{"id":12597,"name":"Jataizinho","stateId":2022,"stateCode":"PR","stateName":"Paraná","countryId":31,"countryCode":"BR","countryName":"Brazil","latitude":"-23.25417000","longitude":"-50.98000000","wikiDataId":"Q2004546"},{"id":12626,"name":"Jesuítas","stateId":2022,"stateCode":"PR","stateName":"Paraná","countryId":31,"countryCode":"BR","countryName":"Brazil","latitude":"-24.41301000","longitude":"-53.41344000","wikiDataId":"Q1806739"},{"id":12640,"name":"Joaquim Távora","stateId":2022,"stateCode":"PR","stateName":"Paraná","countryId":31,"countryCode":"BR","countryName":"Brazil","latitude":"-23.42218000","longitude":"-49.90251000","wikiDataId":"Q1401082"},{"id":12685,"name":"Jundiaí do Sul","stateId":2022,"stateCode":"PR","stateName":"Paraná","countryId":31,"countryCode":"BR","countryName":"Brazil","latitude":"-23.47919000","longitude":"-50.18065000","wikiDataId":"Q275109"},{"id":12695,"name":"Juranda","stateId":2022,"stateCode":"PR","stateName":"Paraná","countryId":31,"countryCode":"BR","countryName":"Brazil","latitude":"-24.41323000","longitude":"-52.82730000","wikiDataId":"Q1790506"},{"id":12706,"name":"Jussara","stateId":2022,"stateCode":"PR","stateName":"Paraná","countryId":31,"countryCode":"BR","countryName":"Brazil","latitude":"-23.62121000","longitude":"-52.47084000","wikiDataId":"Q1025757"},{"id":12720,"name":"Kaloré","stateId":2022,"stateCode":"PR","stateName":"Paraná","countryId":31,"countryCode":"BR","countryName":"Brazil","latitude":"-23.86713000","longitude":"-51.68029000","wikiDataId":"Q1754330"},{"id":12792,"name":"Lapa","stateId":2022,"stateCode":"PR","stateName":"Paraná","countryId":31,"countryCode":"BR","countryName":"Brazil","latitude":"-25.76972000","longitude":"-49.71583000","wikiDataId":"Q2064788"},{"id":12796,"name":"Laranjal","stateId":2022,"stateCode":"PR","stateName":"Paraná","countryId":31,"countryCode":"BR","countryName":"Brazil","latitude":"-24.92573000","longitude":"-52.45952000","wikiDataId":"Q979042"},{"id":12800,"name":"Laranjeiras do Sul","stateId":2022,"stateCode":"PR","stateName":"Paraná","countryId":31,"countryCode":"BR","countryName":"Brazil","latitude":"-25.40778000","longitude":"-52.41611000","wikiDataId":"Q1803900"},{"id":12822,"name":"Leópolis","stateId":2022,"stateCode":"PR","stateName":"Paraná","countryId":31,"countryCode":"BR","countryName":"Brazil","latitude":"-23.02502000","longitude":"-50.72558000","wikiDataId":"Q1805359"},{"id":12826,"name":"Lidianópolis","stateId":2022,"stateCode":"PR","stateName":"Paraná","countryId":31,"countryCode":"BR","countryName":"Brazil","latitude":"-24.08135000","longitude":"-51.64406000","wikiDataId":"Q22062417"},{"id":12835,"name":"Lindoeste","stateId":2022,"stateCode":"PR","stateName":"Paraná","countryId":31,"countryCode":"BR","countryName":"Brazil","latitude":"-25.26796000","longitude":"-53.56870000","wikiDataId":"Q1795215"},{"id":12846,"name":"Loanda","stateId":2022,"stateCode":"PR","stateName":"Paraná","countryId":31,"countryCode":"BR","countryName":"Brazil","latitude":"-22.92306000","longitude":"-53.13722000","wikiDataId":"Q1804157"},{"id":12847,"name":"Lobato","stateId":2022,"stateCode":"PR","stateName":"Paraná","countryId":31,"countryCode":"BR","countryName":"Brazil","latitude":"-22.96387000","longitude":"-52.00714000","wikiDataId":"Q303107"},{"id":12849,"name":"Londrina","stateId":2022,"stateCode":"PR","stateName":"Paraná","countryId":31,"countryCode":"BR","countryName":"Brazil","latitude":"-23.31028000","longitude":"-51.16278000","wikiDataId":"Q192387"},{"id":12866,"name":"Luiziana","stateId":2022,"stateCode":"PR","stateName":"Paraná","countryId":31,"countryCode":"BR","countryName":"Brazil","latitude":"-24.34081000","longitude":"-52.27043000","wikiDataId":"Q1761493"},{"id":12869,"name":"Lunardelli","stateId":2022,"stateCode":"PR","stateName":"Paraná","countryId":31,"countryCode":"BR","countryName":"Brazil","latitude":"-24.07214000","longitude":"-51.76003000","wikiDataId":"Q1761493"},{"id":12870,"name":"Lupionópolis","stateId":2022,"stateCode":"PR","stateName":"Paraná","countryId":31,"countryCode":"BR","countryName":"Brazil","latitude":"-22.73847000","longitude":"-51.68386000","wikiDataId":"Q1761493"},{"id":12929,"name":"Mallet","stateId":2022,"stateCode":"PR","stateName":"Paraná","countryId":31,"countryCode":"BR","countryName":"Brazil","latitude":"-25.90209000","longitude":"-50.83050000","wikiDataId":"Q741333"},{"id":12933,"name":"Mamborê","stateId":2022,"stateCode":"PR","stateName":"Paraná","countryId":31,"countryCode":"BR","countryName":"Brazil","latitude":"-24.40607000","longitude":"-52.61692000","wikiDataId":"Q1008338"},{"id":12942,"name":"Mandaguaçu","stateId":2022,"stateCode":"PR","stateName":"Paraná","countryId":31,"countryCode":"BR","countryName":"Brazil","latitude":"-23.34722000","longitude":"-52.09528000","wikiDataId":"Q675706"},{"id":12941,"name":"Mandaguari","stateId":2022,"stateCode":"PR","stateName":"Paraná","countryId":31,"countryCode":"BR","countryName":"Brazil","latitude":"-23.54750000","longitude":"-51.67083000","wikiDataId":"Q1803633"},{"id":12943,"name":"Mandirituba","stateId":2022,"stateCode":"PR","stateName":"Paraná","countryId":31,"countryCode":"BR","countryName":"Brazil","latitude":"-25.84677000","longitude":"-49.32704000","wikiDataId":"Q675706"},{"id":12945,"name":"Manfrinópolis","stateId":2022,"stateCode":"PR","stateName":"Paraná","countryId":31,"countryCode":"BR","countryName":"Brazil","latitude":"-26.10011000","longitude":"-53.35828000","wikiDataId":"Q1800707"},{"id":12948,"name":"Mangueirinha","stateId":2022,"stateCode":"PR","stateName":"Paraná","countryId":31,"countryCode":"BR","countryName":"Brazil","latitude":"-26.03649000","longitude":"-52.22257000","wikiDataId":"Q988680"},{"id":12953,"name":"Manoel Ribas","stateId":2022,"stateCode":"PR","stateName":"Paraná","countryId":31,"countryCode":"BR","countryName":"Brazil","latitude":"-24.52402000","longitude":"-51.63111000","wikiDataId":"Q43490"},{"id":12998,"name":"Marechal Cândido Rondon","stateId":2022,"stateCode":"PR","stateName":"Paraná","countryId":31,"countryCode":"BR","countryName":"Brazil","latitude":"-24.55611000","longitude":"-54.05667000","wikiDataId":"Q2003833"},{"id":13004,"name":"Maria Helena","stateId":2022,"stateCode":"PR","stateName":"Paraná","countryId":31,"countryCode":"BR","countryName":"Brazil","latitude":"-23.55348000","longitude":"-53.23153000","wikiDataId":"Q965785"},{"id":13006,"name":"Marialva","stateId":2022,"stateCode":"PR","stateName":"Paraná","countryId":31,"countryCode":"BR","countryName":"Brazil","latitude":"-23.48500000","longitude":"-51.79167000","wikiDataId":"Q1003473"},{"id":13017,"name":"Marilândia do Sul","stateId":2022,"stateCode":"PR","stateName":"Paraná","countryId":31,"countryCode":"BR","countryName":"Brazil","latitude":"-23.74380000","longitude":"-51.29410000","wikiDataId":"Q1806633"},{"id":13014,"name":"Marilena","stateId":2022,"stateCode":"PR","stateName":"Paraná","countryId":31,"countryCode":"BR","countryName":"Brazil","latitude":"-22.72742000","longitude":"-53.08170000","wikiDataId":"Q847037"},{"id":13015,"name":"Mariluz","stateId":2022,"stateCode":"PR","stateName":"Paraná","countryId":31,"countryCode":"BR","countryName":"Brazil","latitude":"-24.06183000","longitude":"-53.22984000","wikiDataId":"Q847037"},{"id":13018,"name":"Maringá","stateId":2022,"stateCode":"PR","stateName":"Paraná","countryId":31,"countryCode":"BR","countryName":"Brazil","latitude":"-23.42528000","longitude":"-51.93861000","wikiDataId":"Q208669"},{"id":13025,"name":"Mariópolis","stateId":2022,"stateCode":"PR","stateName":"Paraná","countryId":31,"countryCode":"BR","countryName":"Brazil","latitude":"-26.31630000","longitude":"-52.57421000","wikiDataId":"Q208669"},{"id":13020,"name":"Maripá","stateId":2022,"stateCode":"PR","stateName":"Paraná","countryId":31,"countryCode":"BR","countryName":"Brazil","latitude":"-24.46267000","longitude":"-53.80179000","wikiDataId":"Q208669"},{"id":13027,"name":"Marmeleiro","stateId":2022,"stateCode":"PR","stateName":"Paraná","countryId":31,"countryCode":"BR","countryName":"Brazil","latitude":"-26.23791000","longitude":"-53.09751000","wikiDataId":"Q208669"},{"id":13030,"name":"Marquinho","stateId":2022,"stateCode":"PR","stateName":"Paraná","countryId":31,"countryCode":"BR","countryName":"Brazil","latitude":"-25.10570000","longitude":"-52.25677000","wikiDataId":"Q1803569"},{"id":13037,"name":"Marumbi","stateId":2022,"stateCode":"PR","stateName":"Paraná","countryId":31,"countryCode":"BR","countryName":"Brazil","latitude":"-23.76658000","longitude":"-51.66062000","wikiDataId":"Q609459"},{"id":13052,"name":"Matelândia","stateId":2022,"stateCode":"PR","stateName":"Paraná","countryId":31,"countryCode":"BR","countryName":"Brazil","latitude":"-25.24083000","longitude":"-53.99639000","wikiDataId":"Q1803927"},{"id":13062,"name":"Matinhos","stateId":2022,"stateCode":"PR","stateName":"Paraná","countryId":31,"countryCode":"BR","countryName":"Brazil","latitude":"-25.76114000","longitude":"-48.57290000","wikiDataId":"Q1116758"},{"id":13068,"name":"Mato Rico","stateId":2022,"stateCode":"PR","stateName":"Paraná","countryId":31,"countryCode":"BR","countryName":"Brazil","latitude":"-24.70689000","longitude":"-52.24085000","wikiDataId":"Q1790074"},{"id":13084,"name":"Mauá da Serra","stateId":2022,"stateCode":"PR","stateName":"Paraná","countryId":31,"countryCode":"BR","countryName":"Brazil","latitude":"-23.91107000","longitude":"-51.18026000","wikiDataId":"Q331300"},{"id":13092,"name":"Medianeira","stateId":2022,"stateCode":"PR","stateName":"Paraná","countryId":31,"countryCode":"BR","countryName":"Brazil","latitude":"-25.29528000","longitude":"-54.09389000","wikiDataId":"Q375318"},{"id":13100,"name":"Mercedes","stateId":2022,"stateCode":"PR","stateName":"Paraná","countryId":31,"countryCode":"BR","countryName":"Brazil","latitude":"-24.42600000","longitude":"-54.17683000","wikiDataId":"Q1800752"},{"id":13135,"name":"Mirador","stateId":2022,"stateCode":"PR","stateName":"Paraná","countryId":31,"countryCode":"BR","countryName":"Brazil","latitude":"-23.21282000","longitude":"-52.75351000","wikiDataId":"Q2089741"},{"id":13148,"name":"Miraselva","stateId":2022,"stateCode":"PR","stateName":"Paraná","countryId":31,"countryCode":"BR","countryName":"Brazil","latitude":"-22.97660000","longitude":"-51.47042000","wikiDataId":"Q383765"},{"id":13157,"name":"Missal","stateId":2022,"stateCode":"PR","stateName":"Paraná","countryId":31,"countryCode":"BR","countryName":"Brazil","latitude":"-25.11125000","longitude":"-54.25786000","wikiDataId":"Q1790116"},{"id":13231,"name":"Moreira Sales","stateId":2022,"stateCode":"PR","stateName":"Paraná","countryId":31,"countryCode":"BR","countryName":"Brazil","latitude":"-24.06222000","longitude":"-53.00694000","wikiDataId":"Q2005476"},{"id":13235,"name":"Morretes","stateId":2022,"stateCode":"PR","stateName":"Paraná","countryId":31,"countryCode":"BR","countryName":"Brazil","latitude":"-25.53075000","longitude":"-48.87427000","wikiDataId":"Q1757400"},{"id":13273,"name":"Munhoz de Melo","stateId":2022,"stateCode":"PR","stateName":"Paraná","countryId":31,"countryCode":"BR","countryName":"Brazil","latitude":"-23.11288000","longitude":"-51.73192000","wikiDataId":"Q2289881"},{"id":13339,"name":"Nossa Senhora das Graças","stateId":2022,"stateCode":"PR","stateName":"Paraná","countryId":31,"countryCode":"BR","countryName":"Brazil","latitude":"-22.93036000","longitude":"-51.80240000","wikiDataId":"Q22038537"},{"id":13346,"name":"Nova Aliança do Ivaí","stateId":2022,"stateCode":"PR","stateName":"Paraná","countryId":31,"countryCode":"BR","countryName":"Brazil","latitude":"-23.18670000","longitude":"-52.62571000","wikiDataId":"Q2104808"},{"id":13350,"name":"Nova América da Colina","stateId":2022,"stateCode":"PR","stateName":"Paraná","countryId":31,"countryCode":"BR","countryName":"Brazil","latitude":"-23.33377000","longitude":"-50.69624000","wikiDataId":"Q2104808"},{"id":13353,"name":"Nova Aurora","stateId":2022,"stateCode":"PR","stateName":"Paraná","countryId":31,"countryCode":"BR","countryName":"Brazil","latitude":"-22.86667000","longitude":"-52.56667000","wikiDataId":"Q22038543"},{"id":13367,"name":"Nova Cantu","stateId":2022,"stateCode":"PR","stateName":"Paraná","countryId":31,"countryCode":"BR","countryName":"Brazil","latitude":"-24.65652000","longitude":"-52.56315000","wikiDataId":"Q734270"},{"id":13374,"name":"Nova Esperança","stateId":2022,"stateCode":"PR","stateName":"Paraná","countryId":31,"countryCode":"BR","countryName":"Brazil","latitude":"-23.18311000","longitude":"-52.25446000","wikiDataId":"Q1789722"},{"id":13376,"name":"Nova Esperança do Sudoeste","stateId":2022,"stateCode":"PR","stateName":"Paraná","countryId":31,"countryCode":"BR","countryName":"Brazil","latitude":"-25.88851000","longitude":"-53.26030000","wikiDataId":"Q1121422"},{"id":13382,"name":"Nova Fátima","stateId":2022,"stateCode":"PR","stateName":"Paraná","countryId":31,"countryCode":"BR","countryName":"Brazil","latitude":"-23.39579000","longitude":"-50.53565000","wikiDataId":"Q2472564"},{"id":13397,"name":"Nova Laranjeiras","stateId":2022,"stateCode":"PR","stateName":"Paraná","countryId":31,"countryCode":"BR","countryName":"Brazil","latitude":"-25.21942000","longitude":"-52.57752000","wikiDataId":"Q188897"},{"id":13399,"name":"Nova Londrina","stateId":2022,"stateCode":"PR","stateName":"Paraná","countryId":31,"countryCode":"BR","countryName":"Brazil","latitude":"-22.76583000","longitude":"-52.98500000","wikiDataId":"Q2004101"},{"id":13415,"name":"Nova Olímpia","stateId":2022,"stateCode":"PR","stateName":"Paraná","countryId":31,"countryCode":"BR","countryName":"Brazil","latitude":"-23.43206000","longitude":"-53.03895000","wikiDataId":"Q2103607"},{"id":13422,"name":"Nova Prata do Iguaçu","stateId":2022,"stateCode":"PR","stateName":"Paraná","countryId":31,"countryCode":"BR","countryName":"Brazil","latitude":"-25.60849000","longitude":"-53.38052000","wikiDataId":"Q1758146"},{"id":13431,"name":"Nova Santa Bárbara","stateId":2022,"stateCode":"PR","stateName":"Paraná","countryId":31,"countryCode":"BR","countryName":"Brazil","latitude":"-23.60238000","longitude":"-50.75450000","wikiDataId":"Q2005130"},{"id":13435,"name":"Nova Santa Rosa","stateId":2022,"stateCode":"PR","stateName":"Paraná","countryId":31,"countryCode":"BR","countryName":"Brazil","latitude":"-24.44687000","longitude":"-53.99553000","wikiDataId":"Q985571"},{"id":13438,"name":"Nova Tebas","stateId":2022,"stateCode":"PR","stateName":"Paraná","countryId":31,"countryCode":"BR","countryName":"Brazil","latitude":"-24.43082000","longitude":"-51.94584000","wikiDataId":"Q1772518"},{"id":13466,"name":"Novo Itacolomi","stateId":2022,"stateCode":"PR","stateName":"Paraná","countryId":31,"countryCode":"BR","countryName":"Brazil","latitude":"-23.77560000","longitude":"-51.53874000","wikiDataId":"Q1815907"},{"id":13525,"name":"Ortigueira","stateId":2022,"stateCode":"PR","stateName":"Paraná","countryId":31,"countryCode":"BR","countryName":"Brazil","latitude":"-24.20833000","longitude":"-50.94944000","wikiDataId":"Q2063986"},{"id":13535,"name":"Ourizona","stateId":2022,"stateCode":"PR","stateName":"Paraná","countryId":31,"countryCode":"BR","countryName":"Brazil","latitude":"-23.48358000","longitude":"-52.24274000","wikiDataId":"Q985605"},{"id":13549,"name":"Ouro Verde do Oeste","stateId":2022,"stateCode":"PR","stateName":"Paraná","countryId":31,"countryCode":"BR","countryName":"Brazil","latitude":"-24.79690000","longitude":"-53.93681000","wikiDataId":"Q1803223"},{"id":13573,"name":"Paiçandu","stateId":2022,"stateCode":"PR","stateName":"Paraná","countryId":31,"countryCode":"BR","countryName":"Brazil","latitude":"-23.45750000","longitude":"-52.04861000","wikiDataId":"Q2005187"},{"id":13586,"name":"Palmas","stateId":2022,"stateCode":"PR","stateName":"Paraná","countryId":31,"countryCode":"BR","countryName":"Brazil","latitude":"-26.48417000","longitude":"-51.99056000","wikiDataId":"Q928397"},{"id":13589,"name":"Palmeira","stateId":2022,"stateCode":"PR","stateName":"Paraná","countryId":31,"countryCode":"BR","countryName":"Brazil","latitude":"-25.42944000","longitude":"-50.00639000","wikiDataId":"Q2039438"},{"id":13606,"name":"Palmital","stateId":2022,"stateCode":"PR","stateName":"Paraná","countryId":31,"countryCode":"BR","countryName":"Brazil","latitude":"-24.84260000","longitude":"-52.25370000","wikiDataId":"Q1760365"},{"id":13611,"name":"Palotina","stateId":2022,"stateCode":"PR","stateName":"Paraná","countryId":31,"countryCode":"BR","countryName":"Brazil","latitude":"-24.28389000","longitude":"-53.84000000","wikiDataId":"Q949670"},{"id":13662,"name":"Paraíso do Norte","stateId":2022,"stateCode":"PR","stateName":"Paraná","countryId":31,"countryCode":"BR","countryName":"Brazil","latitude":"-23.25410000","longitude":"-52.63634000","wikiDataId":"Q22037256"},{"id":13636,"name":"Paranacity","stateId":2022,"stateCode":"PR","stateName":"Paraná","countryId":31,"countryCode":"BR","countryName":"Brazil","latitude":"-22.84648000","longitude":"-52.13457000","wikiDataId":"Q1793379"},{"id":13637,"name":"Paranaguá","stateId":2022,"stateCode":"PR","stateName":"Paraná","countryId":31,"countryCode":"BR","countryName":"Brazil","latitude":"-25.51626000","longitude":"-48.52537000","wikiDataId":"Q503852"},{"id":13640,"name":"Paranapoema","stateId":2022,"stateCode":"PR","stateName":"Paraná","countryId":31,"countryCode":"BR","countryName":"Brazil","latitude":"-22.65624000","longitude":"-52.07598000","wikiDataId":"Q1760996"},{"id":13644,"name":"Paranavaí","stateId":2022,"stateCode":"PR","stateName":"Paraná","countryId":31,"countryCode":"BR","countryName":"Brazil","latitude":"-23.07306000","longitude":"-52.46528000","wikiDataId":"Q1773355"},{"id":13704,"name":"Pato Bragado","stateId":2022,"stateCode":"PR","stateName":"Paraná","countryId":31,"countryCode":"BR","countryName":"Brazil","latitude":"-24.64323000","longitude":"-54.22745000","wikiDataId":"Q2066090"},{"id":13705,"name":"Pato Branco","stateId":2022,"stateCode":"PR","stateName":"Paraná","countryId":31,"countryCode":"BR","countryName":"Brazil","latitude":"-26.22861000","longitude":"-52.67056000","wikiDataId":"Q1772650"},{"id":13722,"name":"Paula Freitas","stateId":2022,"stateCode":"PR","stateName":"Paraná","countryId":31,"countryCode":"BR","countryName":"Brazil","latitude":"-26.17808000","longitude":"-50.84807000","wikiDataId":"Q1793494"},{"id":13733,"name":"Paulo Frontin","stateId":2022,"stateCode":"PR","stateName":"Paraná","countryId":31,"countryCode":"BR","countryName":"Brazil","latitude":"-26.04279000","longitude":"-50.74770000","wikiDataId":"Q2007799"},{"id":13743,"name":"Peabiru","stateId":2022,"stateCode":"PR","stateName":"Paraná","countryId":31,"countryCode":"BR","countryName":"Brazil","latitude":"-23.91278000","longitude":"-52.34306000","wikiDataId":"Q1803641"},{"id":13812,"name":"Perobal","stateId":2022,"stateCode":"PR","stateName":"Paraná","countryId":31,"countryCode":"BR","countryName":"Brazil","latitude":"-23.97015000","longitude":"-53.32376000","wikiDataId":"Q2028227"},{"id":14121,"name":"Pérola","stateId":2022,"stateCode":"PR","stateName":"Paraná","countryId":31,"countryCode":"BR","countryName":"Brazil","latitude":"-23.84076000","longitude":"-53.70733000","wikiDataId":"Q2027100"},{"id":14122,"name":"Pérola d'Oeste","stateId":2022,"stateCode":"PR","stateName":"Paraná","countryId":31,"countryCode":"BR","countryName":"Brazil","latitude":"-25.84683000","longitude":"-53.75640000","wikiDataId":"Q1803472"},{"id":13930,"name":"Piên","stateId":2022,"stateCode":"PR","stateName":"Paraná","countryId":31,"countryCode":"BR","countryName":"Brazil","latitude":"-26.08649000","longitude":"-49.45641000","wikiDataId":"Q1755744"},{"id":13858,"name":"Pinhais","stateId":2022,"stateCode":"PR","stateName":"Paraná","countryId":31,"countryCode":"BR","countryName":"Brazil","latitude":"-25.44472000","longitude":"-49.19250000","wikiDataId":"Q1788891"},{"id":13862,"name":"Pinhal de São Bento","stateId":2022,"stateCode":"PR","stateName":"Paraná","countryId":31,"countryCode":"BR","countryName":"Brazil","latitude":"-26.00683000","longitude":"-53.48906000","wikiDataId":"Q2007765"},{"id":13865,"name":"Pinhalão","stateId":2022,"stateCode":"PR","stateName":"Paraná","countryId":31,"countryCode":"BR","countryName":"Brazil","latitude":"-23.92456000","longitude":"-50.05444000","wikiDataId":"Q2007765"},{"id":13873,"name":"Pinhão","stateId":2022,"stateCode":"PR","stateName":"Paraná","countryId":31,"countryCode":"BR","countryName":"Brazil","latitude":"-25.69556000","longitude":"-51.65972000","wikiDataId":"Q935946"},{"id":13912,"name":"Piraí do Sul","stateId":2022,"stateCode":"PR","stateName":"Paraná","countryId":31,"countryCode":"BR","countryName":"Brazil","latitude":"-24.52611000","longitude":"-49.94861000","wikiDataId":"Q1803311"},{"id":13904,"name":"Piraquara","stateId":2022,"stateCode":"PR","stateName":"Paraná","countryId":31,"countryCode":"BR","countryName":"Brazil","latitude":"-25.44227000","longitude":"-49.06795000","wikiDataId":"Q2004395"},{"id":13921,"name":"Pitanga","stateId":2022,"stateCode":"PR","stateName":"Paraná","countryId":31,"countryCode":"BR","countryName":"Brazil","latitude":"-24.75722000","longitude":"-51.76139000","wikiDataId":"Q1802922"},{"id":13922,"name":"Pitangueiras","stateId":2022,"stateCode":"PR","stateName":"Paraná","countryId":31,"countryCode":"BR","countryName":"Brazil","latitude":"-23.19194000","longitude":"-51.56836000","wikiDataId":"Q1802922"},{"id":13935,"name":"Planaltina do Paraná","stateId":2022,"stateCode":"PR","stateName":"Paraná","countryId":31,"countryCode":"BR","countryName":"Brazil","latitude":"-23.09388000","longitude":"-52.92823000","wikiDataId":"Q1004078"},{"id":13938,"name":"Planalto","stateId":2022,"stateCode":"PR","stateName":"Paraná","countryId":31,"countryCode":"BR","countryName":"Brazil","latitude":"-25.72679000","longitude":"-53.72859000","wikiDataId":"Q1004078"},{"id":13957,"name":"Ponta Grossa","stateId":2022,"stateCode":"PR","stateName":"Paraná","countryId":31,"countryCode":"BR","countryName":"Brazil","latitude":"-25.09500000","longitude":"-50.16194000","wikiDataId":"Q242906"},{"id":13962,"name":"Pontal do Paraná","stateId":2022,"stateCode":"PR","stateName":"Paraná","countryId":31,"countryCode":"BR","countryName":"Brazil","latitude":"-25.67361000","longitude":"-48.51111000","wikiDataId":"Q1803813"},{"id":13985,"name":"Porecatu","stateId":2022,"stateCode":"PR","stateName":"Paraná","countryId":31,"countryCode":"BR","countryName":"Brazil","latitude":"-22.75583000","longitude":"-51.37917000","wikiDataId":"Q2007362"},{"id":13998,"name":"Porto Amazonas","stateId":2022,"stateCode":"PR","stateName":"Paraná","countryId":31,"countryCode":"BR","countryName":"Brazil","latitude":"-25.53897000","longitude":"-49.90183000","wikiDataId":"Q40269"},{"id":13999,"name":"Porto Barreiro","stateId":2022,"stateCode":"PR","stateName":"Paraná","countryId":31,"countryCode":"BR","countryName":"Brazil","latitude":"-25.58093000","longitude":"-52.39206000","wikiDataId":"Q40269"},{"id":14015,"name":"Porto Rico","stateId":2022,"stateCode":"PR","stateName":"Paraná","countryId":31,"countryCode":"BR","countryName":"Brazil","latitude":"-22.82902000","longitude":"-53.31785000","wikiDataId":"Q22036573"},{"id":14021,"name":"Porto Vitória","stateId":2022,"stateCode":"PR","stateName":"Paraná","countryId":31,"countryCode":"BR","countryName":"Brazil","latitude":"-26.25338000","longitude":"-51.24188000","wikiDataId":"Q1803844"},{"id":14060,"name":"Prado Ferreira","stateId":2022,"stateCode":"PR","stateName":"Paraná","countryId":31,"countryCode":"BR","countryName":"Brazil","latitude":"-23.02439000","longitude":"-51.37909000","wikiDataId":"Q1807887"},{"id":14067,"name":"Pranchita","stateId":2022,"stateCode":"PR","stateName":"Paraná","countryId":31,"countryCode":"BR","countryName":"Brazil","latitude":"-25.96586000","longitude":"-53.69675000","wikiDataId":"Q2009663"},{"id":14078,"name":"Presidente Castelo Branco","stateId":2022,"stateCode":"PR","stateName":"Paraná","countryId":31,"countryCode":"BR","countryName":"Brazil","latitude":"-23.26207000","longitude":"-52.14511000","wikiDataId":"Q2077944"},{"id":14105,"name":"Primeiro de Maio","stateId":2022,"stateCode":"PR","stateName":"Paraná","countryId":31,"countryCode":"BR","countryName":"Brazil","latitude":"-22.87095000","longitude":"-51.08897000","wikiDataId":"Q2099821"},{"id":14114,"name":"Prudentópolis","stateId":2022,"stateCode":"PR","stateName":"Paraná","countryId":31,"countryCode":"BR","countryName":"Brazil","latitude":"-25.21306000","longitude":"-50.97778000","wikiDataId":"Q751491"},{"id":14128,"name":"Quarto Centenário","stateId":2022,"stateCode":"PR","stateName":"Paraná","countryId":31,"countryCode":"BR","countryName":"Brazil","latitude":"-24.29608000","longitude":"-53.11994000","wikiDataId":"Q1637478"},{"id":14129,"name":"Quatiguá","stateId":2022,"stateCode":"PR","stateName":"Paraná","countryId":31,"countryCode":"BR","countryName":"Brazil","latitude":"-23.55499000","longitude":"-49.91985000","wikiDataId":"Q1637478"},{"id":14132,"name":"Quatro Barras","stateId":2022,"stateCode":"PR","stateName":"Paraná","countryId":31,"countryCode":"BR","countryName":"Brazil","latitude":"-25.36556000","longitude":"-49.07694000","wikiDataId":"Q650514"},{"id":14134,"name":"Quatro Pontes","stateId":2022,"stateCode":"PR","stateName":"Paraná","countryId":31,"countryCode":"BR","countryName":"Brazil","latitude":"-24.50435000","longitude":"-54.00566000","wikiDataId":"Q596343"},{"id":14137,"name":"Quedas do Iguaçu","stateId":2022,"stateCode":"PR","stateName":"Paraná","countryId":31,"countryCode":"BR","countryName":"Brazil","latitude":"-25.43169000","longitude":"-52.98265000","wikiDataId":"Q1772591"},{"id":14146,"name":"Querência do Norte","stateId":2022,"stateCode":"PR","stateName":"Paraná","countryId":31,"countryCode":"BR","countryName":"Brazil","latitude":"-23.10147000","longitude":"-53.56278000","wikiDataId":"Q1800756"},{"id":14150,"name":"Quinta do Sol","stateId":2022,"stateCode":"PR","stateName":"Paraná","countryId":31,"countryCode":"BR","countryName":"Brazil","latitude":"-23.79814000","longitude":"-52.15746000","wikiDataId":"Q1793720"},{"id":14156,"name":"Quitandinha","stateId":2022,"stateCode":"PR","stateName":"Paraná","countryId":31,"countryCode":"BR","countryName":"Brazil","latitude":"-25.90132000","longitude":"-49.50522000","wikiDataId":"Q986268"},{"id":14169,"name":"Ramilândia","stateId":2022,"stateCode":"PR","stateName":"Paraná","countryId":31,"countryCode":"BR","countryName":"Brazil","latitude":"-25.09153000","longitude":"-54.00622000","wikiDataId":"Q1802391"},{"id":14171,"name":"Rancho Alegre","stateId":2022,"stateCode":"PR","stateName":"Paraná","countryId":31,"countryCode":"BR","countryName":"Brazil","latitude":"-23.05892000","longitude":"-50.91888000","wikiDataId":"Q730276"},{"id":14172,"name":"Rancho Alegre d'Oeste","stateId":2022,"stateCode":"PR","stateName":"Paraná","countryId":31,"countryCode":"BR","countryName":"Brazil","latitude":"-24.30404000","longitude":"-52.98349000","wikiDataId":"Q2004390"},{"id":14177,"name":"Realeza","stateId":2022,"stateCode":"PR","stateName":"Paraná","countryId":31,"countryCode":"BR","countryName":"Brazil","latitude":"-25.67431000","longitude":"-53.54659000","wikiDataId":"Q1802916"},{"id":14178,"name":"Rebouças","stateId":2022,"stateCode":"PR","stateName":"Paraná","countryId":31,"countryCode":"BR","countryName":"Brazil","latitude":"-25.68296000","longitude":"-50.63115000","wikiDataId":"Q1802916"},{"id":14195,"name":"Renascença","stateId":2022,"stateCode":"PR","stateName":"Paraná","countryId":31,"countryCode":"BR","countryName":"Brazil","latitude":"-26.21457000","longitude":"-52.93431000","wikiDataId":"Q289067"},{"id":14199,"name":"Reserva","stateId":2022,"stateCode":"PR","stateName":"Paraná","countryId":31,"countryCode":"BR","countryName":"Brazil","latitude":"-24.57312000","longitude":"-50.93141000","wikiDataId":"Q177325"},{"id":14201,"name":"Reserva do Iguaçu","stateId":2022,"stateCode":"PR","stateName":"Paraná","countryId":31,"countryCode":"BR","countryName":"Brazil","latitude":"-25.84778000","longitude":"-51.94646000","wikiDataId":"Q177325"},{"id":14240,"name":"Ribeirão Claro","stateId":2022,"stateCode":"PR","stateName":"Paraná","countryId":31,"countryCode":"BR","countryName":"Brazil","latitude":"-23.29564000","longitude":"-49.78622000","wikiDataId":"Q734937"},{"id":14249,"name":"Ribeirão do Pinhal","stateId":2022,"stateCode":"PR","stateName":"Paraná","countryId":31,"countryCode":"BR","countryName":"Brazil","latitude":"-23.38629000","longitude":"-50.43197000","wikiDataId":"Q737689"},{"id":14258,"name":"Rio Azul","stateId":2022,"stateCode":"PR","stateName":"Paraná","countryId":31,"countryCode":"BR","countryName":"Brazil","latitude":"-25.74072000","longitude":"-50.73497000","wikiDataId":"Q1964938"},{"id":14260,"name":"Rio Bom","stateId":2022,"stateCode":"PR","stateName":"Paraná","countryId":31,"countryCode":"BR","countryName":"Brazil","latitude":"-23.80220000","longitude":"-51.44616000","wikiDataId":"Q1806671"},{"id":14262,"name":"Rio Bonito do Iguaçu","stateId":2022,"stateCode":"PR","stateName":"Paraná","countryId":31,"countryCode":"BR","countryName":"Brazil","latitude":"-25.54822000","longitude":"-52.62154000","wikiDataId":"Q1803367"},{"id":14265,"name":"Rio Branco do Ivaí","stateId":2022,"stateCode":"PR","stateName":"Paraná","countryId":31,"countryCode":"BR","countryName":"Brazil","latitude":"-24.35602000","longitude":"-51.34215000","wikiDataId":"Q1803505"},{"id":14266,"name":"Rio Branco do Sul","stateId":2022,"stateCode":"PR","stateName":"Paraná","countryId":31,"countryCode":"BR","countryName":"Brazil","latitude":"-25.19000000","longitude":"-49.31417000","wikiDataId":"Q2004402"},{"id":14283,"name":"Rio Negro","stateId":2022,"stateCode":"PR","stateName":"Paraná","countryId":31,"countryCode":"BR","countryName":"Brazil","latitude":"-26.09001000","longitude":"-49.71582000","wikiDataId":"Q1878476"},{"id":14337,"name":"Rolândia","stateId":2022,"stateCode":"PR","stateName":"Paraná","countryId":31,"countryCode":"BR","countryName":"Brazil","latitude":"-23.30972000","longitude":"-51.36917000","wikiDataId":"Q1008266"},{"id":14340,"name":"Roncador","stateId":2022,"stateCode":"PR","stateName":"Paraná","countryId":31,"countryCode":"BR","countryName":"Brazil","latitude":"-24.56358000","longitude":"-52.22448000","wikiDataId":"Q2003693"},{"id":14344,"name":"Rondon","stateId":2022,"stateCode":"PR","stateName":"Paraná","countryId":31,"countryCode":"BR","countryName":"Brazil","latitude":"-23.47457000","longitude":"-52.84502000","wikiDataId":"Q2083352"},{"id":14354,"name":"Rosário do Ivaí","stateId":2022,"stateCode":"PR","stateName":"Paraná","countryId":31,"countryCode":"BR","countryName":"Brazil","latitude":"-24.30569000","longitude":"-51.22024000","wikiDataId":"Q1789508"},{"id":14370,"name":"Sabáudia","stateId":2022,"stateCode":"PR","stateName":"Paraná","countryId":31,"countryCode":"BR","countryName":"Brazil","latitude":"-23.36584000","longitude":"-51.60539000","wikiDataId":"Q2021151"},{"id":14384,"name":"Salgado Filho","stateId":2022,"stateCode":"PR","stateName":"Paraná","countryId":31,"countryCode":"BR","countryName":"Brazil","latitude":"-26.12101000","longitude":"-53.43938000","wikiDataId":"Q2013090"},{"id":14401,"name":"Salto do Itararé","stateId":2022,"stateCode":"PR","stateName":"Paraná","countryId":31,"countryCode":"BR","countryName":"Brazil","latitude":"-23.61939000","longitude":"-49.68219000","wikiDataId":"Q1760043"},{"id":14403,"name":"Salto do Lontra","stateId":2022,"stateCode":"PR","stateName":"Paraná","countryId":31,"countryCode":"BR","countryName":"Brazil","latitude":"-25.77035000","longitude":"-53.29978000","wikiDataId":"Q1760043"},{"id":14419,"name":"Santa Amélia","stateId":2022,"stateCode":"PR","stateName":"Paraná","countryId":31,"countryCode":"BR","countryName":"Brazil","latitude":"-23.26039000","longitude":"-50.41329000","wikiDataId":"Q1760559"},{"id":14434,"name":"Santa Cecília do Pavão","stateId":2022,"stateCode":"PR","stateName":"Paraná","countryId":31,"countryCode":"BR","countryName":"Brazil","latitude":"-23.54436000","longitude":"-50.82283000","wikiDataId":"Q2102814"},{"id":14449,"name":"Santa Cruz de Monte Castelo","stateId":2022,"stateCode":"PR","stateName":"Paraná","countryId":31,"countryCode":"BR","countryName":"Brazil","latitude":"-23.14407000","longitude":"-53.36640000","wikiDataId":"Q1648129"},{"id":14464,"name":"Santa Fé","stateId":2022,"stateCode":"PR","stateName":"Paraná","countryId":31,"countryCode":"BR","countryName":"Brazil","latitude":"-23.03990000","longitude":"-51.81359000","wikiDataId":"Q2065314"},{"id":14472,"name":"Santa Helena","stateId":2022,"stateCode":"PR","stateName":"Paraná","countryId":31,"countryCode":"BR","countryName":"Brazil","latitude":"-24.90689000","longitude":"-54.28722000","wikiDataId":"Q2355851"},{"id":14479,"name":"Santa Inês","stateId":2022,"stateCode":"PR","stateName":"Paraná","countryId":31,"countryCode":"BR","countryName":"Brazil","latitude":"-22.68740000","longitude":"-51.89746000","wikiDataId":"Q2283744"},{"id":14482,"name":"Santa Isabel do Ivaí","stateId":2022,"stateCode":"PR","stateName":"Paraná","countryId":31,"countryCode":"BR","countryName":"Brazil","latitude":"-23.13820000","longitude":"-53.25909000","wikiDataId":"Q952830"},{"id":14484,"name":"Santa Izabel do Oeste","stateId":2022,"stateCode":"PR","stateName":"Paraná","countryId":31,"countryCode":"BR","countryName":"Brazil","latitude":"-25.77567000","longitude":"-53.41047000","wikiDataId":"Q1754543"},{"id":14499,"name":"Santa Lúcia","stateId":2022,"stateCode":"PR","stateName":"Paraná","countryId":31,"countryCode":"BR","countryName":"Brazil","latitude":"-25.41465000","longitude":"-53.55213000","wikiDataId":"Q1948975"},{"id":14513,"name":"Santa Maria do Oeste","stateId":2022,"stateCode":"PR","stateName":"Paraná","countryId":31,"countryCode":"BR","countryName":"Brazil","latitude":"-24.92004000","longitude":"-51.96628000","wikiDataId":"Q616486"},{"id":14518,"name":"Santa Mariana","stateId":2022,"stateCode":"PR","stateName":"Paraná","countryId":31,"countryCode":"BR","countryName":"Brazil","latitude":"-23.04831000","longitude":"-50.52939000","wikiDataId":"Q385048"},{"id":14521,"name":"Santa Mônica","stateId":2022,"stateCode":"PR","stateName":"Paraná","countryId":31,"countryCode":"BR","countryName":"Brazil","latitude":"-23.16554000","longitude":"-53.11244000","wikiDataId":"Q2003719"},{"id":14555,"name":"Santa Tereza do Oeste","stateId":2022,"stateCode":"PR","stateName":"Paraná","countryId":31,"countryCode":"BR","countryName":"Brazil","latitude":"-25.04438000","longitude":"-53.61939000","wikiDataId":"Q1757691"},{"id":14562,"name":"Santa Terezinha de Itaipu","stateId":2022,"stateCode":"PR","stateName":"Paraná","countryId":31,"countryCode":"BR","countryName":"Brazil","latitude":"-25.41349000","longitude":"-54.42251000","wikiDataId":"Q1802908"},{"id":14583,"name":"Santana do Itararé","stateId":2022,"stateCode":"PR","stateName":"Paraná","countryId":31,"countryCode":"BR","countryName":"Brazil","latitude":"-23.73441000","longitude":"-49.61942000","wikiDataId":"Q2021116"},{"id":14614,"name":"Santo Antônio da Platina","stateId":2022,"stateCode":"PR","stateName":"Paraná","countryId":31,"countryCode":"BR","countryName":"Brazil","latitude":"-23.29500000","longitude":"-50.07722000","wikiDataId":"Q929328"},{"id":14624,"name":"Santo Antônio do Caiuá","stateId":2022,"stateCode":"PR","stateName":"Paraná","countryId":31,"countryCode":"BR","countryName":"Brazil","latitude":"-22.69373000","longitude":"-52.30897000","wikiDataId":"Q522097"},{"id":14635,"name":"Santo Antônio do Paraíso","stateId":2022,"stateCode":"PR","stateName":"Paraná","countryId":31,"countryCode":"BR","countryName":"Brazil","latitude":"-23.56361000","longitude":"-50.61940000","wikiDataId":"Q956065"},{"id":14640,"name":"Santo Antônio do Sudoeste","stateId":2022,"stateCode":"PR","stateName":"Paraná","countryId":31,"countryCode":"BR","countryName":"Brazil","latitude":"-26.07361000","longitude":"-53.72528000","wikiDataId":"Q1803373"},{"id":14650,"name":"Santo Inácio","stateId":2022,"stateCode":"PR","stateName":"Paraná","countryId":31,"countryCode":"BR","countryName":"Brazil","latitude":"-22.72365000","longitude":"-51.80606000","wikiDataId":"Q1798847"},{"id":14857,"name":"São Carlos do Ivaí","stateId":2022,"stateCode":"PR","stateName":"Paraná","countryId":31,"countryCode":"BR","countryName":"Brazil","latitude":"-23.35478000","longitude":"-52.52074000","wikiDataId":"Q194338"},{"id":14929,"name":"São Jerônimo da Serra","stateId":2022,"stateCode":"PR","stateName":"Paraná","countryId":31,"countryCode":"BR","countryName":"Brazil","latitude":"-23.68708000","longitude":"-50.78987000","wikiDataId":"Q1639741"},{"id":14998,"name":"São João","stateId":2022,"stateCode":"PR","stateName":"Paraná","countryId":31,"countryCode":"BR","countryName":"Brazil","latitude":"-25.78385000","longitude":"-52.80418000","wikiDataId":"Q478818"},{"id":15026,"name":"São João do Caiuá","stateId":2022,"stateCode":"PR","stateName":"Paraná","countryId":31,"countryCode":"BR","countryName":"Brazil","latitude":"-22.82937000","longitude":"-52.28543000","wikiDataId":"Q740965"},{"id":15030,"name":"São João do Ivaí","stateId":2022,"stateCode":"PR","stateName":"Paraná","countryId":31,"countryCode":"BR","countryName":"Brazil","latitude":"-23.97916000","longitude":"-51.88263000","wikiDataId":"Q740965"},{"id":15047,"name":"São João do Triunfo","stateId":2022,"stateCode":"PR","stateName":"Paraná","countryId":31,"countryCode":"BR","countryName":"Brazil","latitude":"-25.70410000","longitude":"-50.26243000","wikiDataId":"Q1937319"},{"id":14935,"name":"São Jorge d'Oeste","stateId":2022,"stateCode":"PR","stateName":"Paraná","countryId":31,"countryCode":"BR","countryName":"Brazil","latitude":"-25.66317000","longitude":"-52.94857000","wikiDataId":"Q1803364"},{"id":14936,"name":"São Jorge do Ivaí","stateId":2022,"stateCode":"PR","stateName":"Paraná","countryId":31,"countryCode":"BR","countryName":"Brazil","latitude":"-23.43841000","longitude":"-52.30359000","wikiDataId":"Q1803364"},{"id":14937,"name":"São Jorge do Patrocínio","stateId":2022,"stateCode":"PR","stateName":"Paraná","countryId":31,"countryCode":"BR","countryName":"Brazil","latitude":"-23.74952000","longitude":"-53.88553000","wikiDataId":"Q1803364"},{"id":14941,"name":"São José da Boa Vista","stateId":2022,"stateCode":"PR","stateName":"Paraná","countryId":31,"countryCode":"BR","countryName":"Brazil","latitude":"-23.96483000","longitude":"-49.65190000","wikiDataId":"Q22035261"},{"id":14951,"name":"São José das Palmeiras","stateId":2022,"stateCode":"PR","stateName":"Paraná","countryId":31,"countryCode":"BR","countryName":"Brazil","latitude":"-24.83457000","longitude":"-54.12721000","wikiDataId":"Q1808190"},{"id":14995,"name":"São José dos Pinhais","stateId":2022,"stateCode":"PR","stateName":"Paraná","countryId":31,"countryCode":"BR","countryName":"Brazil","latitude":"-25.53020000","longitude":"-49.20836000","wikiDataId":"Q478818"},{"id":15069,"name":"São Manoel do Paraná","stateId":2022,"stateCode":"PR","stateName":"Paraná","countryId":31,"countryCode":"BR","countryName":"Brazil","latitude":"-23.38356000","longitude":"-52.58889000","wikiDataId":"Q1999321"},{"id":15077,"name":"São Mateus do Sul","stateId":2022,"stateCode":"PR","stateName":"Paraná","countryId":31,"countryCode":"BR","countryName":"Brazil","latitude":"-25.87417000","longitude":"-50.38278000","wikiDataId":"Q1803791"},{"id":15092,"name":"São Miguel do Iguaçu","stateId":2022,"stateCode":"PR","stateName":"Paraná","countryId":31,"countryCode":"BR","countryName":"Brazil","latitude":"-25.34806000","longitude":"-54.23778000","wikiDataId":"Q1773060"},{"id":15116,"name":"São Pedro do Iguaçu","stateId":2022,"stateCode":"PR","stateName":"Paraná","countryId":31,"countryCode":"BR","countryName":"Brazil","latitude":"-24.90931000","longitude":"-53.88765000","wikiDataId":"Q1750756"},{"id":15117,"name":"São Pedro do Ivaí","stateId":2022,"stateCode":"PR","stateName":"Paraná","countryId":31,"countryCode":"BR","countryName":"Brazil","latitude":"-23.83342000","longitude":"-51.86952000","wikiDataId":"Q1750756"},{"id":15118,"name":"São Pedro do Paraná","stateId":2022,"stateCode":"PR","stateName":"Paraná","countryId":31,"countryCode":"BR","countryName":"Brazil","latitude":"-22.76847000","longitude":"-53.16580000","wikiDataId":"Q1750756"},{"id":15137,"name":"São Sebastião da Amoreira","stateId":2022,"stateCode":"PR","stateName":"Paraná","countryId":31,"countryCode":"BR","countryName":"Brazil","latitude":"-23.45392000","longitude":"-50.71309000","wikiDataId":"Q2014339"},{"id":15162,"name":"São Tomé","stateId":2022,"stateCode":"PR","stateName":"Paraná","countryId":31,"countryCode":"BR","countryName":"Brazil","latitude":"-23.52364000","longitude":"-52.51400000","wikiDataId":"Q2019197"},{"id":14659,"name":"Sapopema","stateId":2022,"stateCode":"PR","stateName":"Paraná","countryId":31,"countryCode":"BR","countryName":"Brazil","latitude":"-23.87746000","longitude":"-50.61022000","wikiDataId":"Q983717"},{"id":14668,"name":"Sarandi","stateId":2022,"stateCode":"PR","stateName":"Paraná","countryId":31,"countryCode":"BR","countryName":"Brazil","latitude":"-23.44361000","longitude":"-51.87389000","wikiDataId":"Q22032729"},{"id":14676,"name":"Saudade do Iguaçu","stateId":2022,"stateCode":"PR","stateName":"Paraná","countryId":31,"countryCode":"BR","countryName":"Brazil","latitude":"-25.70473000","longitude":"-52.60816000","wikiDataId":"Q1793933"},{"id":14709,"name":"Sengés","stateId":2022,"stateCode":"PR","stateName":"Paraná","countryId":31,"countryCode":"BR","countryName":"Brazil","latitude":"-24.11335000","longitude":"-49.46315000","wikiDataId":"Q1803479"},{"id":14749,"name":"Serranópolis do Iguaçu","stateId":2022,"stateCode":"PR","stateName":"Paraná","countryId":31,"countryCode":"BR","countryName":"Brazil","latitude":"-25.47001000","longitude":"-54.01644000","wikiDataId":"Q1788624"},{"id":14757,"name":"Sertaneja","stateId":2022,"stateCode":"PR","stateName":"Paraná","countryId":31,"countryCode":"BR","countryName":"Brazil","latitude":"-22.95832000","longitude":"-50.88804000","wikiDataId":"Q919904"},{"id":14758,"name":"Sertanópolis","stateId":2022,"stateCode":"PR","stateName":"Paraná","countryId":31,"countryCode":"BR","countryName":"Brazil","latitude":"-23.05861000","longitude":"-51.03639000","wikiDataId":"Q2005080"},{"id":14792,"name":"Siqueira Campos","stateId":2022,"stateCode":"PR","stateName":"Paraná","countryId":31,"countryCode":"BR","countryName":"Brazil","latitude":"-23.68889000","longitude":"-49.83389000","wikiDataId":"Q2064771"},{"id":14822,"name":"Sulina","stateId":2022,"stateCode":"PR","stateName":"Paraná","countryId":31,"countryCode":"BR","countryName":"Brazil","latitude":"-25.67144000","longitude":"-52.68373000","wikiDataId":"Q2011653"},{"id":15209,"name":"Tamarana","stateId":2022,"stateCode":"PR","stateName":"Paraná","countryId":31,"countryCode":"BR","countryName":"Brazil","latitude":"-23.82556000","longitude":"-51.04683000","wikiDataId":"Q2011531"},{"id":15211,"name":"Tamboara","stateId":2022,"stateCode":"PR","stateName":"Paraná","countryId":31,"countryCode":"BR","countryName":"Brazil","latitude":"-23.19886000","longitude":"-52.46715000","wikiDataId":"Q650146"},{"id":15226,"name":"Tapejara","stateId":2022,"stateCode":"PR","stateName":"Paraná","countryId":31,"countryCode":"BR","countryName":"Brazil","latitude":"-23.62534000","longitude":"-52.91113000","wikiDataId":"Q22064023"},{"id":15234,"name":"Tapira","stateId":2022,"stateCode":"PR","stateName":"Paraná","countryId":31,"countryCode":"BR","countryName":"Brazil","latitude":"-23.30639000","longitude":"-53.13632000","wikiDataId":"Q1966758"},{"id":15266,"name":"Teixeira Soares","stateId":2022,"stateCode":"PR","stateName":"Paraná","countryId":31,"countryCode":"BR","countryName":"Brazil","latitude":"-25.27813000","longitude":"-50.43158000","wikiDataId":"Q1004229"},{"id":15273,"name":"Telêmaco Borba","stateId":2022,"stateCode":"PR","stateName":"Paraná","countryId":31,"countryCode":"BR","countryName":"Brazil","latitude":"-24.22442000","longitude":"-50.54151000","wikiDataId":"Q391843"},{"id":15290,"name":"Terra Boa","stateId":2022,"stateCode":"PR","stateName":"Paraná","countryId":31,"countryCode":"BR","countryName":"Brazil","latitude":"-23.67940000","longitude":"-52.34426000","wikiDataId":"Q956038"},{"id":15294,"name":"Terra Rica","stateId":2022,"stateCode":"PR","stateName":"Paraná","countryId":31,"countryCode":"BR","countryName":"Brazil","latitude":"-22.73272000","longitude":"-52.68457000","wikiDataId":"Q1814454"},{"id":15295,"name":"Terra Roxa","stateId":2022,"stateCode":"PR","stateName":"Paraná","countryId":31,"countryCode":"BR","countryName":"Brazil","latitude":"-24.22292000","longitude":"-54.09087000","wikiDataId":"Q22064018"},{"id":15304,"name":"Tibagi","stateId":2022,"stateCode":"PR","stateName":"Paraná","countryId":31,"countryCode":"BR","countryName":"Brazil","latitude":"-24.65805000","longitude":"-50.51861000","wikiDataId":"Q987328"},{"id":15310,"name":"Tijucas do Sul","stateId":2022,"stateCode":"PR","stateName":"Paraná","countryId":31,"countryCode":"BR","countryName":"Brazil","latitude":"-25.89852000","longitude":"-49.11779000","wikiDataId":"Q951660"},{"id":15329,"name":"Toledo","stateId":2022,"stateCode":"PR","stateName":"Paraná","countryId":31,"countryCode":"BR","countryName":"Brazil","latitude":"-24.71361000","longitude":"-53.74306000","wikiDataId":"Q1776774"},{"id":15332,"name":"Tomazina","stateId":2022,"stateCode":"PR","stateName":"Paraná","countryId":31,"countryCode":"BR","countryName":"Brazil","latitude":"-23.77655000","longitude":"-49.95552000","wikiDataId":"Q22033560"},{"id":15371,"name":"Três Barras do Paraná","stateId":2022,"stateCode":"PR","stateName":"Paraná","countryId":31,"countryCode":"BR","countryName":"Brazil","latitude":"-25.42222000","longitude":"-53.23148000","wikiDataId":"Q22063767"},{"id":15394,"name":"Tunas do Paraná","stateId":2022,"stateCode":"PR","stateName":"Paraná","countryId":31,"countryCode":"BR","countryName":"Brazil","latitude":"-24.96753000","longitude":"-48.86604000","wikiDataId":"Q1803262"},{"id":15395,"name":"Tuneiras do Oeste","stateId":2022,"stateCode":"PR","stateName":"Paraná","countryId":31,"countryCode":"BR","countryName":"Brazil","latitude":"-23.90168000","longitude":"-52.83572000","wikiDataId":"Q1803262"},{"id":15409,"name":"Tupãssi","stateId":2022,"stateCode":"PR","stateName":"Paraná","countryId":31,"countryCode":"BR","countryName":"Brazil","latitude":"-24.63318000","longitude":"-53.49207000","wikiDataId":"Q961143"},{"id":15418,"name":"Turvo","stateId":2022,"stateCode":"PR","stateName":"Paraná","countryId":31,"countryCode":"BR","countryName":"Brazil","latitude":"-24.97002000","longitude":"-51.50860000","wikiDataId":"Q1899023"},{"id":15436,"name":"Ubiratã","stateId":2022,"stateCode":"PR","stateName":"Paraná","countryId":31,"countryCode":"BR","countryName":"Brazil","latitude":"-24.50395000","longitude":"-53.01934000","wikiDataId":"Q1646327"},{"id":15451,"name":"Umuarama","stateId":2022,"stateCode":"PR","stateName":"Paraná","countryId":31,"countryCode":"BR","countryName":"Brazil","latitude":"-23.76639000","longitude":"-53.32500000","wikiDataId":"Q593948"},{"id":15459,"name":"União da Vitória","stateId":2022,"stateCode":"PR","stateName":"Paraná","countryId":31,"countryCode":"BR","countryName":"Brazil","latitude":"-26.09211000","longitude":"-51.11212000","wikiDataId":"Q988869"},{"id":15454,"name":"Uniflor","stateId":2022,"stateCode":"PR","stateName":"Paraná","countryId":31,"countryCode":"BR","countryName":"Brazil","latitude":"-23.06016000","longitude":"-52.09077000","wikiDataId":"Q1780258"},{"id":15466,"name":"Uraí","stateId":2022,"stateCode":"PR","stateName":"Paraná","countryId":31,"countryCode":"BR","countryName":"Brazil","latitude":"-23.19291000","longitude":"-50.79419000","wikiDataId":"Q1786764"},{"id":15528,"name":"Ventania","stateId":2022,"stateCode":"PR","stateName":"Paraná","countryId":31,"countryCode":"BR","countryName":"Brazil","latitude":"-24.14204000","longitude":"-50.22365000","wikiDataId":"Q1802298"},{"id":15536,"name":"Vera Cruz do Oeste","stateId":2022,"stateCode":"PR","stateName":"Paraná","countryId":31,"countryCode":"BR","countryName":"Brazil","latitude":"-24.94088000","longitude":"-53.92809000","wikiDataId":"Q22066862"},{"id":15546,"name":"Verê","stateId":2022,"stateCode":"PR","stateName":"Paraná","countryId":31,"countryCode":"BR","countryName":"Brazil","latitude":"-25.85329000","longitude":"-52.95920000","wikiDataId":"Q2065306"},{"id":15586,"name":"Virmond","stateId":2022,"stateCode":"PR","stateName":"Paraná","countryId":31,"countryCode":"BR","countryName":"Brazil","latitude":"-25.43010000","longitude":"-52.23673000","wikiDataId":"Q1787215"},{"id":15595,"name":"Vitorino","stateId":2022,"stateCode":"PR","stateName":"Paraná","countryId":31,"countryCode":"BR","countryName":"Brazil","latitude":"-26.24047000","longitude":"-52.81976000","wikiDataId":"Q1774460"},{"id":15629,"name":"Wenceslau Braz","stateId":2022,"stateCode":"PR","stateName":"Paraná","countryId":31,"countryCode":"BR","countryName":"Brazil","latitude":"-23.88811000","longitude":"-49.79148000","wikiDataId":"Q2006930"},{"id":15634,"name":"Xambrê","stateId":2022,"stateCode":"PR","stateName":"Paraná","countryId":31,"countryCode":"BR","countryName":"Brazil","latitude":"-23.73853000","longitude":"-53.60400000","wikiDataId":"Q961485"}]