[{"id":67404,"name":"Cegrane","stateId":693,"stateCode":"19","stateName":"Gostivar Municipality","countryId":129,"countryCode":"MK","countryName":"North Macedonia","latitude":"41.83889000","longitude":"20.97583000","wikiDataId":"Q338216"},{"id":67417,"name":"Dolna Banjica","stateId":693,"stateCode":"19","stateName":"Gostivar Municipality","countryId":129,"countryCode":"MK","countryName":"North Macedonia","latitude":"41.78611000","longitude":"20.90611000","wikiDataId":"Q3034185"},{"id":67426,"name":"Forino","stateId":693,"stateCode":"19","stateName":"Gostivar Municipality","countryId":129,"countryCode":"MK","countryName":"North Macedonia","latitude":"41.82334000","longitude":"20.96174000","wikiDataId":"Q20935974"},{"id":67433,"name":"Gostivar","stateId":693,"stateCode":"19","stateName":"Gostivar Municipality","countryId":129,"countryCode":"MK","countryName":"North Macedonia","latitude":"41.79601000","longitude":"20.90819000","wikiDataId":"Q157058"},{"id":67531,"name":"Srbinovo","stateId":693,"stateCode":"19","stateName":"Gostivar Municipality","countryId":129,"countryCode":"MK","countryName":"North Macedonia","latitude":"41.70586000","longitude":"20.95859000","wikiDataId":"Q1007540"},{"id":67560,"name":"Vrutok","stateId":693,"stateCode":"19","stateName":"Gostivar Municipality","countryId":129,"countryCode":"MK","countryName":"North Macedonia","latitude":"41.76861000","longitude":"20.83917000","wikiDataId":"Q915991"}]