[{"id":18874,"name":"Bangolo","stateId":2645,"stateCode":"06","stateName":"Dix-Huit Montagnes","countryId":54,"countryCode":"CI","countryName":"Cote D'Ivoire (Ivory Coast)","latitude":"7.01232000","longitude":"-7.48639000","wikiDataId":"Q2882487"},{"id":18875,"name":"Biankouma","stateId":2645,"stateCode":"06","stateName":"Dix-Huit Montagnes","countryId":54,"countryCode":"CI","countryName":"Cote D'Ivoire (Ivory Coast)","latitude":"7.73909000","longitude":"-7.61377000","wikiDataId":"Q1102796"},{"id":18889,"name":"Cavally","stateId":2645,"stateCode":"06","stateName":"Dix-Huit Montagnes","countryId":54,"countryCode":"CI","countryName":"Cote D'Ivoire (Ivory Coast)","latitude":"6.56343000","longitude":"-7.92526000","wikiDataId":"Q2922170"},{"id":18893,"name":"Danané","stateId":2645,"stateCode":"06","stateName":"Dix-Huit Montagnes","countryId":54,"countryCode":"CI","countryName":"Cote D'Ivoire (Ivory Coast)","latitude":"7.25957000","longitude":"-8.15498000","wikiDataId":"Q860304"},{"id":18897,"name":"Duekoué","stateId":2645,"stateCode":"06","stateName":"Dix-Huit Montagnes","countryId":54,"countryCode":"CI","countryName":"Cote D'Ivoire (Ivory Coast)","latitude":"6.74202000","longitude":"-7.34918000","wikiDataId":"Q1268139"},{"id":18908,"name":"Guémon","stateId":2645,"stateCode":"06","stateName":"Dix-Huit Montagnes","countryId":54,"countryCode":"CI","countryName":"Cote D'Ivoire (Ivory Coast)","latitude":"7.09300000","longitude":"-7.17785000","wikiDataId":"Q1553776"},{"id":18907,"name":"Guiglo","stateId":2645,"stateCode":"06","stateName":"Dix-Huit Montagnes","countryId":54,"countryCode":"CI","countryName":"Cote D'Ivoire (Ivory Coast)","latitude":"6.54368000","longitude":"-7.49350000","wikiDataId":"Q1553776"},{"id":18919,"name":"Man","stateId":2645,"stateCode":"06","stateName":"Dix-Huit Montagnes","countryId":54,"countryCode":"CI","countryName":"Cote D'Ivoire (Ivory Coast)","latitude":"7.41251000","longitude":"-7.55383000","wikiDataId":"Q1191011"},{"id":18936,"name":"Tonkpi","stateId":2645,"stateCode":"06","stateName":"Dix-Huit Montagnes","countryId":54,"countryCode":"CI","countryName":"Cote D'Ivoire (Ivory Coast)","latitude":"7.56785000","longitude":"-7.60941000","wikiDataId":"Q952665"},{"id":18938,"name":"Toulépleu Gueré","stateId":2645,"stateCode":"06","stateName":"Dix-Huit Montagnes","countryId":54,"countryCode":"CI","countryName":"Cote D'Ivoire (Ivory Coast)","latitude":"6.57395000","longitude":"-8.42592000","wikiDataId":"Q2308752"}]