[{"id":81031,"name":"Bogia","stateId":4843,"stateCode":"MPM","stateName":"Madang Province","countryId":171,"countryCode":"PG","countryName":"Papua new Guinea","latitude":"-4.50000000","longitude":"145.00000000","wikiDataId":"Q3710743"},{"id":81078,"name":"Madang","stateId":4843,"stateCode":"MPM","stateName":"Madang Province","countryId":171,"countryCode":"PG","countryName":"Papua new Guinea","latitude":"-5.22152000","longitude":"145.78695000","wikiDataId":"Q586673"},{"id":81084,"name":"Middle Ramu","stateId":4843,"stateCode":"MPM","stateName":"Madang Province","countryId":171,"countryCode":"PG","countryName":"Papua new Guinea","latitude":"-4.91667000","longitude":"144.75000000","wikiDataId":"Q3711164"},{"id":81103,"name":"Rai Coast","stateId":4843,"stateCode":"MPM","stateName":"Madang Province","countryId":171,"countryCode":"PG","countryName":"Papua new Guinea","latitude":"-5.72303000","longitude":"146.46149000","wikiDataId":"Q7278508"},{"id":81111,"name":"Sumkar","stateId":4843,"stateCode":"MPM","stateName":"Madang Province","countryId":171,"countryCode":"PG","countryName":"Papua new Guinea","latitude":"-4.80000000","longitude":"145.55000000","wikiDataId":"Q3711497"},{"id":81119,"name":"Usino Bundi","stateId":4843,"stateCode":"MPM","stateName":"Madang Province","countryId":171,"countryCode":"PG","countryName":"Papua new Guinea","latitude":"-5.53333000","longitude":"145.16667000","wikiDataId":"Q3711569"}]