[{"id":106830,"name":"Aileu","stateId":4520,"stateCode":"AL","stateName":"Aileu municipality","countryId":63,"countryCode":"TL","countryName":"East Timor","latitude":"-8.72806000","longitude":"125.56639000","wikiDataId":"Q405087"},{"id":106854,"name":"Lequidoe","stateId":4520,"stateCode":"AL","stateName":"Aileu municipality","countryId":63,"countryCode":"TL","countryName":"East Timor","latitude":"-8.69139000","longitude":"125.63611000","wikiDataId":"Q18079947"},{"id":106868,"name":"Remexio","stateId":4520,"stateCode":"AL","stateName":"Aileu municipality","countryId":63,"countryCode":"TL","countryName":"East Timor","latitude":"-8.61667000","longitude":"125.66667000","wikiDataId":"Q488823"},{"id":106831,"name":"Ainaro","stateId":4518,"stateCode":"AN","stateName":"Ainaro Municipality","countryId":63,"countryCode":"TL","countryName":"East Timor","latitude":"-8.99241000","longitude":"125.50816000","wikiDataId":"Q1026949"},{"id":106846,"name":"Hato-Udo","stateId":4518,"stateCode":"AN","stateName":"Ainaro Municipality","countryId":63,"countryCode":"TL","countryName":"East Timor","latitude":"-9.12036000","longitude":"125.58935000","wikiDataId":"Q1018872"},{"id":106834,"name":"Baguia","stateId":4521,"stateCode":"BA","stateName":"Baucau Municipality","countryId":63,"countryCode":"TL","countryName":"East Timor","latitude":"-8.62787000","longitude":"126.65743000","wikiDataId":"Q1026949"},{"id":106836,"name":"Baucau","stateId":4521,"stateCode":"BA","stateName":"Baucau Municipality","countryId":63,"countryCode":"TL","countryName":"East Timor","latitude":"-8.46667000","longitude":"126.45000000","wikiDataId":"Q18887906"},{"id":106837,"name":"Baukau","stateId":4521,"stateCode":"BA","stateName":"Baucau Municipality","countryId":63,"countryCode":"TL","countryName":"East Timor","latitude":"-8.47572000","longitude":"126.45633000","wikiDataId":"Q811130"},{"id":106852,"name":"Laga","stateId":4521,"stateCode":"BA","stateName":"Baucau Municipality","countryId":63,"countryCode":"TL","countryName":"East Timor","latitude":"-8.47411000","longitude":"126.59228000","wikiDataId":"Q1248198"},{"id":106866,"name":"Quelicai","stateId":4521,"stateCode":"BA","stateName":"Baucau Municipality","countryId":63,"countryCode":"TL","countryName":"East Timor","latitude":"-8.60135000","longitude":"126.55904000","wikiDataId":"Q1768027"},{"id":106877,"name":"Vemasse","stateId":4521,"stateCode":"BA","stateName":"Baucau Municipality","countryId":63,"countryCode":"TL","countryName":"East Timor","latitude":"-8.51036000","longitude":"126.20823000","wikiDataId":"Q2472571"},{"id":106878,"name":"Venilale","stateId":4521,"stateCode":"BA","stateName":"Baucau Municipality","countryId":63,"countryCode":"TL","countryName":"East Timor","latitude":"-8.64306000","longitude":"126.37833000","wikiDataId":"Q2472571"},{"id":106859,"name":"Maliana","stateId":4525,"stateCode":"BO","stateName":"Bobonaro Municipality","countryId":63,"countryCode":"TL","countryName":"East Timor","latitude":"-8.99167000","longitude":"125.21972000","wikiDataId":"Q1020338"},{"id":106843,"name":"Fatumean","stateId":4522,"stateCode":"CO","stateName":"Cova Lima Municipality","countryId":63,"countryCode":"TL","countryName":"East Timor","latitude":"-9.22917000","longitude":"125.03583000","wikiDataId":"Q1295231"},{"id":106844,"name":"Fohorem","stateId":4522,"stateCode":"CO","stateName":"Cova Lima Municipality","countryId":63,"countryCode":"TL","countryName":"East Timor","latitude":"-9.28361000","longitude":"125.08944000","wikiDataId":"Q1435182"},{"id":106863,"name":"Maucatar","stateId":4522,"stateCode":"CO","stateName":"Cova Lima Municipality","countryId":63,"countryCode":"TL","countryName":"East Timor","latitude":"-9.21772000","longitude":"125.22981000","wikiDataId":"Q1718757"},{"id":106871,"name":"Suai","stateId":4522,"stateCode":"CO","stateName":"Cova Lima Municipality","countryId":63,"countryCode":"TL","countryName":"East Timor","latitude":"-9.30000000","longitude":"125.25000000","wikiDataId":"Q18000293"},{"id":106872,"name":"Tilomar","stateId":4522,"stateCode":"CO","stateName":"Cova Lima Municipality","countryId":63,"countryCode":"TL","countryName":"East Timor","latitude":"-9.34182000","longitude":"125.10887000","wikiDataId":"Q18653443"},{"id":106833,"name":"Atauro Island","stateId":4524,"stateCode":"DI","stateName":"Dili municipality","countryId":63,"countryCode":"TL","countryName":"East Timor","latitude":"-8.26785000","longitude":"125.59699000","wikiDataId":"Q1026949"},{"id":106839,"name":"Cristo Rei","stateId":4524,"stateCode":"DI","stateName":"Dili municipality","countryId":63,"countryCode":"TL","countryName":"East Timor","latitude":"-8.52047000","longitude":"125.60837000","wikiDataId":"Q1140438"},{"id":106840,"name":"Dili","stateId":4524,"stateCode":"DI","stateName":"Dili municipality","countryId":63,"countryCode":"TL","countryName":"East Timor","latitude":"-8.55861000","longitude":"125.57361000","wikiDataId":"Q9310"},{"id":106864,"name":"Metinaro","stateId":4524,"stateCode":"DI","stateName":"Dili municipality","countryId":63,"countryCode":"TL","countryName":"East Timor","latitude":"-8.53007000","longitude":"125.74163000","wikiDataId":"Q18201468"},{"id":106841,"name":"Ermera Villa","stateId":4516,"stateCode":"ER","stateName":"Ermera District","countryId":63,"countryCode":"TL","countryName":"East Timor","latitude":"-8.75222000","longitude":"125.39694000","wikiDataId":"Q9310"},{"id":106845,"name":"Gleno","stateId":4516,"stateCode":"ER","stateName":"Ermera District","countryId":63,"countryCode":"TL","countryName":"East Timor","latitude":"-8.72389000","longitude":"125.43611000","wikiDataId":"Q1018872"},{"id":106847,"name":"Hatulia","stateId":4516,"stateCode":"ER","stateName":"Ermera District","countryId":63,"countryCode":"TL","countryName":"East Timor","latitude":"-8.81667000","longitude":"125.31667000","wikiDataId":"Q1589070"},{"id":106855,"name":"Letefoho","stateId":4516,"stateCode":"ER","stateName":"Ermera District","countryId":63,"countryCode":"TL","countryName":"East Timor","latitude":"-8.83444000","longitude":"125.42639000","wikiDataId":"Q18079947"},{"id":106867,"name":"Railaco","stateId":4516,"stateCode":"ER","stateName":"Ermera District","countryId":63,"countryCode":"TL","countryName":"East Timor","latitude":"-8.67237000","longitude":"125.42546000","wikiDataId":"Q1768027"},{"id":106848,"name":"Iliomar","stateId":4523,"stateCode":"LA","stateName":"Lautém Municipality","countryId":63,"countryCode":"TL","countryName":"East Timor","latitude":"-8.70917000","longitude":"126.82833000","wikiDataId":"Q1248198"},{"id":106853,"name":"Lautem","stateId":4523,"stateCode":"LA","stateName":"Lautém Municipality","countryId":63,"countryCode":"TL","countryName":"East Timor","latitude":"-8.36514000","longitude":"126.90389000","wikiDataId":"Q1248198"},{"id":106857,"name":"Lospalos","stateId":4523,"stateCode":"LA","stateName":"Lautém Municipality","countryId":63,"countryCode":"TL","countryName":"East Timor","latitude":"-8.52167000","longitude":"126.99833000","wikiDataId":"Q1017098"},{"id":106858,"name":"Luro","stateId":4523,"stateCode":"LA","stateName":"Lautém Municipality","countryId":63,"countryCode":"TL","countryName":"East Timor","latitude":"-8.54359000","longitude":"126.83003000","wikiDataId":"Q1017098"},{"id":106874,"name":"Tutuala","stateId":4523,"stateCode":"LA","stateName":"Lautém Municipality","countryId":63,"countryCode":"TL","countryName":"East Timor","latitude":"-8.39597000","longitude":"127.25923000","wikiDataId":"Q18653443"},{"id":106838,"name":"Bazartete","stateId":4515,"stateCode":"LI","stateName":"Liquiçá Municipality","countryId":63,"countryCode":"TL","countryName":"East Timor","latitude":"-8.62464000","longitude":"125.38168000","wikiDataId":"Q812658"},{"id":106856,"name":"Likisá","stateId":4515,"stateCode":"LI","stateName":"Liquiçá Municipality","countryId":63,"countryCode":"TL","countryName":"East Timor","latitude":"-8.58750000","longitude":"125.34194000","wikiDataId":"Q18079947"},{"id":106862,"name":"Maubara","stateId":4515,"stateCode":"LI","stateName":"Liquiçá Municipality","countryId":63,"countryCode":"TL","countryName":"East Timor","latitude":"-8.61194000","longitude":"125.20611000","wikiDataId":"Q1011873"},{"id":106835,"name":"Barique","stateId":4517,"stateCode":"MT","stateName":"Manatuto District","countryId":63,"countryCode":"TL","countryName":"East Timor","latitude":"-8.85472000","longitude":"126.06556000","wikiDataId":"Q18887906"},{"id":106849,"name":"Laclo","stateId":4517,"stateCode":"MT","stateName":"Manatuto District","countryId":63,"countryCode":"TL","countryName":"East Timor","latitude":"-8.55000000","longitude":"125.91667000","wikiDataId":"Q1248198"},{"id":106850,"name":"Laclubar","stateId":4517,"stateCode":"MT","stateName":"Manatuto District","countryId":63,"countryCode":"TL","countryName":"East Timor","latitude":"-8.74975000","longitude":"125.91186000","wikiDataId":"Q1248198"},{"id":106860,"name":"Manatuto","stateId":4517,"stateCode":"MT","stateName":"Manatuto District","countryId":63,"countryCode":"TL","countryName":"East Timor","latitude":"-8.52207000","longitude":"126.01516000","wikiDataId":"Q1020338"},{"id":106861,"name":"Manatutu","stateId":4517,"stateCode":"MT","stateName":"Manatuto District","countryId":63,"countryCode":"TL","countryName":"East Timor","latitude":"-8.51139000","longitude":"126.01306000","wikiDataId":"Q1011873"},{"id":106870,"name":"Soibada","stateId":4517,"stateCode":"MT","stateName":"Manatuto District","countryId":63,"countryCode":"TL","countryName":"East Timor","latitude":"-8.86000000","longitude":"125.94000000","wikiDataId":"Q488823"},{"id":106832,"name":"Alas","stateId":4519,"stateCode":"MF","stateName":"Manufahi Municipality","countryId":63,"countryCode":"TL","countryName":"East Timor","latitude":"-9.02730000","longitude":"125.78680000","wikiDataId":"Q1026949"},{"id":106842,"name":"Fatuberliu","stateId":4519,"stateCode":"MF","stateName":"Manufahi Municipality","countryId":63,"countryCode":"TL","countryName":"East Timor","latitude":"-8.94790000","longitude":"125.86633000","wikiDataId":"Q9310"},{"id":106869,"name":"Same","stateId":4519,"stateCode":"MF","stateName":"Manufahi Municipality","countryId":63,"countryCode":"TL","countryName":"East Timor","latitude":"-9.00000000","longitude":"125.65000000","wikiDataId":"Q488823"},{"id":106873,"name":"Turiscai","stateId":4519,"stateCode":"MF","stateName":"Manufahi Municipality","countryId":63,"countryCode":"TL","countryName":"East Timor","latitude":"-8.82371000","longitude":"125.70454000","wikiDataId":"Q18653443"},{"id":106851,"name":"Lacluta","stateId":4514,"stateCode":"VI","stateName":"Viqueque Municipality","countryId":63,"countryCode":"TL","countryName":"East Timor","latitude":"-8.80000000","longitude":"126.13333000","wikiDataId":"Q1248198"},{"id":106865,"name":"Ossu","stateId":4514,"stateCode":"VI","stateName":"Viqueque Municipality","countryId":63,"countryCode":"TL","countryName":"East Timor","latitude":"-8.73477000","longitude":"126.38324000","wikiDataId":"Q18201468"},{"id":106875,"name":"Uatocarabau","stateId":4514,"stateCode":"VI","stateName":"Viqueque Municipality","countryId":63,"countryCode":"TL","countryName":"East Timor","latitude":"-8.75658000","longitude":"126.68060000","wikiDataId":"Q2472571"},{"id":106876,"name":"Uatolari","stateId":4514,"stateCode":"VI","stateName":"Viqueque Municipality","countryId":63,"countryCode":"TL","countryName":"East Timor","latitude":"-8.76277000","longitude":"126.57353000","wikiDataId":"Q2472571"},{"id":106879,"name":"Viqueque","stateId":4514,"stateCode":"VI","stateName":"Viqueque Municipality","countryId":63,"countryCode":"TL","countryName":"East Timor","latitude":"-8.85908000","longitude":"126.36972000","wikiDataId":"Q2472571"}]