[{"id":65965,"name":"Anse La Raye","stateId":3757,"stateCode":"01","stateName":"Anse la Raye Quarter","countryId":186,"countryCode":"LC","countryName":"Saint Lucia","latitude":"13.94619000","longitude":"-61.03879000","wikiDataId":"Q569439"},{"id":65969,"name":"Au Tabor","stateId":3757,"stateCode":"01","stateName":"Anse la Raye Quarter","countryId":186,"countryCode":"LC","countryName":"Saint Lucia","latitude":"13.94540000","longitude":"-61.04112000","wikiDataId":"Q569439"},{"id":65970,"name":"Au Tabor Hill","stateId":3757,"stateCode":"01","stateName":"Anse la Raye Quarter","countryId":186,"countryCode":"LC","countryName":"Saint Lucia","latitude":"13.94457000","longitude":"-61.03559000","wikiDataId":"Q569439"},{"id":66019,"name":"Bois D'Inde","stateId":3757,"stateCode":"01","stateName":"Anse la Raye Quarter","countryId":186,"countryCode":"LC","countryName":"Saint Lucia","latitude":"13.94148000","longitude":"-61.00966000","wikiDataId":"Q569439"},{"id":66037,"name":"Caico/Millet","stateId":3757,"stateCode":"01","stateName":"Anse la Raye Quarter","countryId":186,"countryCode":"LC","countryName":"Saint Lucia","latitude":"13.91948000","longitude":"-60.99264000","wikiDataId":"Q569439"},{"id":66040,"name":"Canaries","stateId":3757,"stateCode":"01","stateName":"Anse la Raye Quarter","countryId":186,"countryCode":"LC","countryName":"Saint Lucia","latitude":"13.90224000","longitude":"-61.06459000","wikiDataId":"Q1032796"},{"id":66064,"name":"Champen Estate","stateId":3757,"stateCode":"01","stateName":"Anse la Raye Quarter","countryId":186,"countryCode":"LC","countryName":"Saint Lucia","latitude":"13.93575000","longitude":"-61.02991000","wikiDataId":"Q41699"},{"id":66112,"name":"Derriere Lagoon","stateId":3757,"stateCode":"01","stateName":"Anse la Raye Quarter","countryId":186,"countryCode":"LC","countryName":"Saint Lucia","latitude":"13.94168000","longitude":"-61.01891000","wikiDataId":"Q3556840"},{"id":66128,"name":"Durandeau","stateId":3757,"stateCode":"01","stateName":"Anse la Raye Quarter","countryId":186,"countryCode":"LC","countryName":"Saint Lucia","latitude":"13.92277000","longitude":"-60.99512000","wikiDataId":"Q3556840"},{"id":66132,"name":"Enbar Pwin","stateId":3757,"stateCode":"01","stateName":"Anse la Raye Quarter","countryId":186,"countryCode":"LC","countryName":"Saint Lucia","latitude":"13.91175000","longitude":"-60.99266000","wikiDataId":"Q3556840"},{"id":66198,"name":"Jacmel","stateId":3757,"stateCode":"01","stateName":"Anse la Raye Quarter","countryId":186,"countryCode":"LC","countryName":"Saint Lucia","latitude":"13.94796000","longitude":"-61.01297000","wikiDataId":"Q3116994"},{"id":66200,"name":"Jean Baptiste","stateId":3757,"stateCode":"01","stateName":"Anse la Raye Quarter","countryId":186,"countryCode":"LC","countryName":"Saint Lucia","latitude":"13.94704000","longitude":"-61.01578000","wikiDataId":"Q3116994"},{"id":66231,"name":"La Trielle","stateId":3757,"stateCode":"01","stateName":"Anse la Raye Quarter","countryId":186,"countryCode":"LC","countryName":"Saint Lucia","latitude":"13.94014000","longitude":"-60.99729000","wikiDataId":"Q3116994"},{"id":66260,"name":"Massacre","stateId":3757,"stateCode":"01","stateName":"Anse la Raye Quarter","countryId":186,"countryCode":"LC","countryName":"Saint Lucia","latitude":"13.94872000","longitude":"-61.03544000","wikiDataId":"Q13220042"},{"id":66266,"name":"Millet","stateId":3757,"stateCode":"01","stateName":"Anse la Raye Quarter","countryId":186,"countryCode":"LC","countryName":"Saint Lucia","latitude":"13.90985000","longitude":"-60.98884000","wikiDataId":"Q11779522"},{"id":66294,"name":"Morne Ciseaux","stateId":3757,"stateCode":"01","stateName":"Anse la Raye Quarter","countryId":186,"countryCode":"LC","countryName":"Saint Lucia","latitude":"13.93597000","longitude":"-61.00330000","wikiDataId":"Q11779522"},{"id":66296,"name":"Morne D'Or","stateId":3757,"stateCode":"01","stateName":"Anse la Raye Quarter","countryId":186,"countryCode":"LC","countryName":"Saint Lucia","latitude":"13.94931000","longitude":"-61.00601000","wikiDataId":"Q11779522"},{"id":66365,"name":"Roseau Valley","stateId":3757,"stateCode":"01","stateName":"Anse la Raye Quarter","countryId":186,"countryCode":"LC","countryName":"Saint Lucia","latitude":"13.95317000","longitude":"-61.02676000","wikiDataId":"Q11779522"},{"id":66381,"name":"St Lawrence","stateId":3757,"stateCode":"01","stateName":"Anse la Raye Quarter","countryId":186,"countryCode":"LC","countryName":"Saint Lucia","latitude":"13.93852000","longitude":"-61.02503000","wikiDataId":"Q493030"},{"id":66382,"name":"St Lawrence Estate","stateId":3757,"stateCode":"01","stateName":"Anse la Raye Quarter","countryId":186,"countryCode":"LC","countryName":"Saint Lucia","latitude":"13.94236000","longitude":"-61.04248000","wikiDataId":"Q493030"},{"id":66392,"name":"Tete Chemin","stateId":3757,"stateCode":"01","stateName":"Anse la Raye Quarter","countryId":186,"countryCode":"LC","countryName":"Saint Lucia","latitude":"13.89092000","longitude":"-60.99785000","wikiDataId":"Q493030"},{"id":66416,"name":"Vanard","stateId":3757,"stateCode":"01","stateName":"Anse la Raye Quarter","countryId":186,"countryCode":"LC","countryName":"Saint Lucia","latitude":"13.93558000","longitude":"-60.99363000","wikiDataId":"Q493030"},{"id":66417,"name":"Venus","stateId":3757,"stateCode":"01","stateName":"Anse la Raye Quarter","countryId":186,"countryCode":"LC","countryName":"Saint Lucia","latitude":"13.91558000","longitude":"-61.01676000","wikiDataId":"Q493030"},{"id":66427,"name":"Village","stateId":3757,"stateCode":"01","stateName":"Anse la Raye Quarter","countryId":186,"countryCode":"LC","countryName":"Saint Lucia","latitude":"13.93939000","longitude":"-61.04150000","wikiDataId":"Q3494579"},{"id":66429,"name":"Village/Petite Bourgh","stateId":3757,"stateCode":"01","stateName":"Anse la Raye Quarter","countryId":186,"countryCode":"LC","countryName":"Saint Lucia","latitude":"13.93801000","longitude":"-61.04184000","wikiDataId":"Q3494579"}]