[{"id":110989,"name":"Absarokee","stateId":1446,"stateCode":"MT","stateName":"Montana","countryId":233,"countryCode":"US","countryName":"United States","latitude":"45.52050000","longitude":"-109.44294000","wikiDataId":"Q832600"},{"id":111296,"name":"Anaconda","stateId":1446,"stateCode":"MT","stateName":"Montana","countryId":233,"countryCode":"US","countryName":"United States","latitude":"46.12854000","longitude":"-112.94226000","wikiDataId":"Q483539"},{"id":111739,"name":"Baker","stateId":1446,"stateCode":"MT","stateName":"Montana","countryId":233,"countryCode":"US","countryName":"United States","latitude":"46.36695000","longitude":"-104.28466000","wikiDataId":"Q955228"},{"id":112008,"name":"Beaverhead County","stateId":1446,"stateCode":"MT","stateName":"Montana","countryId":233,"countryCode":"US","countryName":"United States","latitude":"45.13273000","longitude":"-112.89889000","wikiDataId":"Q110212"},{"id":112062,"name":"Belgrade","stateId":1446,"stateCode":"MT","stateName":"Montana","countryId":233,"countryCode":"US","countryName":"United States","latitude":"45.77604000","longitude":"-111.17690000","wikiDataId":"Q815570"},{"id":112321,"name":"Big Horn County","stateId":1446,"stateCode":"MT","stateName":"Montana","countryId":233,"countryCode":"US","countryName":"United States","latitude":"45.42346000","longitude":"-107.48970000","wikiDataId":"Q109503"},{"id":112334,"name":"Big Sky","stateId":1446,"stateCode":"MT","stateName":"Montana","countryId":233,"countryCode":"US","countryName":"United States","latitude":"45.28465000","longitude":"-111.36829000","wikiDataId":"Q964258"},{"id":112338,"name":"Big Timber","stateId":1446,"stateCode":"MT","stateName":"Montana","countryId":233,"countryCode":"US","countryName":"United States","latitude":"45.83494000","longitude":"-109.95546000","wikiDataId":"Q859439"},{"id":112339,"name":"Bigfork","stateId":1446,"stateCode":"MT","stateName":"Montana","countryId":233,"countryCode":"US","countryName":"United States","latitude":"48.06329000","longitude":"-114.07261000","wikiDataId":"Q967392"},{"id":112344,"name":"Billings","stateId":1446,"stateCode":"MT","stateName":"Montana","countryId":233,"countryCode":"US","countryName":"United States","latitude":"45.78329000","longitude":"-108.50069000","wikiDataId":"Q11705538"},{"id":112408,"name":"Blaine County","stateId":1446,"stateCode":"MT","stateName":"Montana","countryId":233,"countryCode":"US","countryName":"United States","latitude":"48.43276000","longitude":"-108.95866000","wikiDataId":"Q192650"},{"id":112544,"name":"Bonner-West Riverside","stateId":1446,"stateCode":"MT","stateName":"Montana","countryId":233,"countryCode":"US","countryName":"United States","latitude":"46.87669000","longitude":"-113.88678000","wikiDataId":"Q964346"},{"id":112601,"name":"Boulder","stateId":1446,"stateCode":"MT","stateName":"Montana","countryId":233,"countryCode":"US","countryName":"United States","latitude":"46.23659000","longitude":"-112.12083000","wikiDataId":"Q967035"},{"id":112653,"name":"Bozeman","stateId":1446,"stateCode":"MT","stateName":"Montana","countryId":233,"countryCode":"US","countryName":"United States","latitude":"45.67965000","longitude":"-111.03856000","wikiDataId":"Q569678"},{"id":112826,"name":"Broadus","stateId":1446,"stateCode":"MT","stateName":"Montana","countryId":233,"countryCode":"US","countryName":"United States","latitude":"45.44387000","longitude":"-105.41133000","wikiDataId":"Q959328"},{"id":112829,"name":"Broadwater County","stateId":1446,"stateCode":"MT","stateName":"Montana","countryId":233,"countryCode":"US","countryName":"United States","latitude":"46.33199000","longitude":"-111.49547000","wikiDataId":"Q192753"},{"id":112918,"name":"Browning","stateId":1446,"stateCode":"MT","stateName":"Montana","countryId":233,"countryCode":"US","countryName":"United States","latitude":"48.55692000","longitude":"-113.01342000","wikiDataId":"Q964747"},{"id":113123,"name":"Butte","stateId":1446,"stateCode":"MT","stateName":"Montana","countryId":233,"countryCode":"US","countryName":"United States","latitude":"46.00382000","longitude":"-112.53474000","wikiDataId":"Q467664"},{"id":113128,"name":"Butte-Silver Bow (Balance)","stateId":1446,"stateCode":"MT","stateName":"Montana","countryId":233,"countryCode":"US","countryName":"United States","latitude":"45.90194000","longitude":"-112.65708000","wikiDataId":"Q2613601"},{"id":113384,"name":"Carbon County","stateId":1446,"stateCode":"MT","stateName":"Montana","countryId":233,"countryCode":"US","countryName":"United States","latitude":"45.22737000","longitude":"-109.02832000","wikiDataId":"Q192992"},{"id":113484,"name":"Carter County","stateId":1446,"stateCode":"MT","stateName":"Montana","countryId":233,"countryCode":"US","countryName":"United States","latitude":"45.51677000","longitude":"-104.53616000","wikiDataId":"Q193072"},{"id":113515,"name":"Cascade County","stateId":1446,"stateCode":"MT","stateName":"Montana","countryId":233,"countryCode":"US","countryName":"United States","latitude":"47.30802000","longitude":"-111.34715000","wikiDataId":"Q193167"},{"id":113893,"name":"Chester","stateId":1446,"stateCode":"MT","stateName":"Montana","countryId":233,"countryCode":"US","countryName":"United States","latitude":"48.51054000","longitude":"-110.96747000","wikiDataId":"Q967099"},{"id":113971,"name":"Chinook","stateId":1446,"stateCode":"MT","stateName":"Montana","countryId":233,"countryCode":"US","countryName":"United States","latitude":"48.59000000","longitude":"-109.23128000","wikiDataId":"Q966181"},{"id":113989,"name":"Choteau","stateId":1446,"stateCode":"MT","stateName":"Montana","countryId":233,"countryCode":"US","countryName":"United States","latitude":"47.81245000","longitude":"-112.18363000","wikiDataId":"Q967215"},{"id":113991,"name":"Chouteau County","stateId":1446,"stateCode":"MT","stateName":"Montana","countryId":233,"countryCode":"US","countryName":"United States","latitude":"47.88056000","longitude":"-110.43520000","wikiDataId":"Q193230"},{"id":114028,"name":"Circle","stateId":1446,"stateCode":"MT","stateName":"Montana","countryId":233,"countryCode":"US","countryName":"United States","latitude":"47.41667000","longitude":"-105.59222000","wikiDataId":"Q956256"},{"id":114098,"name":"Clancy","stateId":1446,"stateCode":"MT","stateName":"Montana","countryId":233,"countryCode":"US","countryName":"United States","latitude":"46.46521000","longitude":"-111.98638000","wikiDataId":"Q966526"},{"id":114287,"name":"Clinton","stateId":1446,"stateCode":"MT","stateName":"Montana","countryId":233,"countryCode":"US","countryName":"United States","latitude":"46.76909000","longitude":"-113.71260000","wikiDataId":"Q964126"},{"id":114462,"name":"Colstrip","stateId":1446,"stateCode":"MT","stateName":"Montana","countryId":233,"countryCode":"US","countryName":"United States","latitude":"45.88416000","longitude":"-106.62364000","wikiDataId":"Q959254"},{"id":114485,"name":"Columbia Falls","stateId":1446,"stateCode":"MT","stateName":"Montana","countryId":233,"countryCode":"US","countryName":"United States","latitude":"48.37246000","longitude":"-114.18152000","wikiDataId":"Q649200"},{"id":114499,"name":"Columbus","stateId":1446,"stateCode":"MT","stateName":"Montana","countryId":233,"countryCode":"US","countryName":"United States","latitude":"45.63661000","longitude":"-109.25211000","wikiDataId":"Q961735"},{"id":114569,"name":"Conrad","stateId":1446,"stateCode":"MT","stateName":"Montana","countryId":233,"countryCode":"US","countryName":"United States","latitude":"48.17025000","longitude":"-111.94613000","wikiDataId":"Q955205"},{"id":114860,"name":"Crow Agency","stateId":1446,"stateCode":"MT","stateName":"Montana","countryId":233,"countryCode":"US","countryName":"United States","latitude":"45.60164000","longitude":"-107.46119000","wikiDataId":"Q964578"},{"id":114939,"name":"Custer County","stateId":1446,"stateCode":"MT","stateName":"Montana","countryId":233,"countryCode":"US","countryName":"United States","latitude":"46.25270000","longitude":"-105.57178000","wikiDataId":"Q490789"},{"id":114941,"name":"Cut Bank","stateId":1446,"stateCode":"MT","stateName":"Montana","countryId":233,"countryCode":"US","countryName":"United States","latitude":"48.63304000","longitude":"-112.32616000","wikiDataId":"Q968158"},{"id":115024,"name":"Daniels County","stateId":1446,"stateCode":"MT","stateName":"Montana","countryId":233,"countryCode":"US","countryName":"United States","latitude":"48.78381000","longitude":"-105.54857000","wikiDataId":"Q427315"},{"id":115086,"name":"Dawson County","stateId":1446,"stateCode":"MT","stateName":"Montana","countryId":233,"countryCode":"US","countryName":"United States","latitude":"47.26638000","longitude":"-104.89946000","wikiDataId":"Q490762"},{"id":115173,"name":"Deer Lodge","stateId":1446,"stateCode":"MT","stateName":"Montana","countryId":233,"countryCode":"US","countryName":"United States","latitude":"46.39576000","longitude":"-112.73004000","wikiDataId":"Q960518"},{"id":115174,"name":"Deer Lodge County","stateId":1446,"stateCode":"MT","stateName":"Montana","countryId":233,"countryCode":"US","countryName":"United States","latitude":"46.06079000","longitude":"-113.06775000","wikiDataId":"Q490774"},{"id":115343,"name":"Dillon","stateId":1446,"stateCode":"MT","stateName":"Montana","countryId":233,"countryCode":"US","countryName":"United States","latitude":"45.21631000","longitude":"-112.63752000","wikiDataId":"Q955026"},{"id":115688,"name":"East Helena","stateId":1446,"stateCode":"MT","stateName":"Montana","countryId":233,"countryCode":"US","countryName":"United States","latitude":"46.58966000","longitude":"-111.91555000","wikiDataId":"Q967025"},{"id":115715,"name":"East Missoula","stateId":1446,"stateCode":"MT","stateName":"Montana","countryId":233,"countryCode":"US","countryName":"United States","latitude":"46.87076000","longitude":"-113.94455000","wikiDataId":"Q955834"},{"id":115910,"name":"Ekalaka","stateId":1446,"stateCode":"MT","stateName":"Montana","countryId":233,"countryCode":"US","countryName":"United States","latitude":"45.88889000","longitude":"-104.55273000","wikiDataId":"Q961306"},{"id":116236,"name":"Eureka","stateId":1446,"stateCode":"MT","stateName":"Montana","countryId":233,"countryCode":"US","countryName":"United States","latitude":"48.87996000","longitude":"-115.05350000","wikiDataId":"Q965170"},{"id":116264,"name":"Evergreen","stateId":1446,"stateCode":"MT","stateName":"Montana","countryId":233,"countryCode":"US","countryName":"United States","latitude":"48.22579000","longitude":"-114.27624000","wikiDataId":"Q651357"},{"id":116379,"name":"Fallon County","stateId":1446,"stateCode":"MT","stateName":"Montana","countryId":233,"countryCode":"US","countryName":"United States","latitude":"46.33402000","longitude":"-104.41742000","wikiDataId":"Q373575"},{"id":116478,"name":"Fergus County","stateId":1446,"stateCode":"MT","stateName":"Montana","countryId":233,"countryCode":"US","countryName":"United States","latitude":"47.26357000","longitude":"-109.22433000","wikiDataId":"Q496693"},{"id":116554,"name":"Flathead County","stateId":1446,"stateCode":"MT","stateName":"Montana","countryId":233,"countryCode":"US","countryName":"United States","latitude":"48.29516000","longitude":"-114.04981000","wikiDataId":"Q496607"},{"id":116685,"name":"Forsyth","stateId":1446,"stateCode":"MT","stateName":"Montana","countryId":233,"countryCode":"US","countryName":"United States","latitude":"46.26638000","longitude":"-106.67781000","wikiDataId":"Q960505"},{"id":116690,"name":"Fort Belknap Agency","stateId":1446,"stateCode":"MT","stateName":"Montana","countryId":233,"countryCode":"US","countryName":"United States","latitude":"48.48250000","longitude":"-108.76544000","wikiDataId":"Q957580"},{"id":116693,"name":"Fort Benton","stateId":1446,"stateCode":"MT","stateName":"Montana","countryId":233,"countryCode":"US","countryName":"United States","latitude":"47.81830000","longitude":"-110.66744000","wikiDataId":"Q285655"},{"id":116790,"name":"Four Corners","stateId":1446,"stateCode":"MT","stateName":"Montana","countryId":233,"countryCode":"US","countryName":"United States","latitude":"45.62965000","longitude":"-111.18606000","wikiDataId":"Q961038"},{"id":116935,"name":"Frenchtown","stateId":1446,"stateCode":"MT","stateName":"Montana","countryId":233,"countryCode":"US","countryName":"United States","latitude":"47.01492000","longitude":"-114.22984000","wikiDataId":"Q955673"},{"id":117036,"name":"Gallatin County","stateId":1446,"stateCode":"MT","stateName":"Montana","countryId":233,"countryCode":"US","countryName":"United States","latitude":"45.54049000","longitude":"-111.17035000","wikiDataId":"Q387978"},{"id":117086,"name":"Garfield County","stateId":1446,"stateCode":"MT","stateName":"Montana","countryId":233,"countryCode":"US","countryName":"United States","latitude":"47.27770000","longitude":"-106.99283000","wikiDataId":"Q486961"},{"id":117231,"name":"Glacier County","stateId":1446,"stateCode":"MT","stateName":"Montana","countryId":233,"countryCode":"US","countryName":"United States","latitude":"48.70508000","longitude":"-112.99475000","wikiDataId":"Q31091"},{"id":117249,"name":"Glasgow","stateId":1446,"stateCode":"MT","stateName":"Montana","countryId":233,"countryCode":"US","countryName":"United States","latitude":"48.19696000","longitude":"-106.63671000","wikiDataId":"Q955640"},{"id":117289,"name":"Glendive","stateId":1446,"stateCode":"MT","stateName":"Montana","countryId":233,"countryCode":"US","countryName":"United States","latitude":"47.10529000","longitude":"-104.71246000","wikiDataId":"Q967324"},{"id":117358,"name":"Golden Valley County","stateId":1446,"stateCode":"MT","stateName":"Montana","countryId":233,"countryCode":"US","countryName":"United States","latitude":"46.38126000","longitude":"-109.17494000","wikiDataId":"Q502554"},{"id":117495,"name":"Granite County","stateId":1446,"stateCode":"MT","stateName":"Montana","countryId":233,"countryCode":"US","countryName":"United States","latitude":"46.40444000","longitude":"-113.44026000","wikiDataId":"Q496622"},{"id":117573,"name":"Great Falls","stateId":1446,"stateCode":"MT","stateName":"Montana","countryId":233,"countryCode":"US","countryName":"United States","latitude":"47.50024000","longitude":"-111.30081000","wikiDataId":"Q466190"},{"id":117894,"name":"Hamilton","stateId":1446,"stateCode":"MT","stateName":"Montana","countryId":233,"countryCode":"US","countryName":"United States","latitude":"46.24687000","longitude":"-114.16037000","wikiDataId":"Q602520"},{"id":117998,"name":"Hardin","stateId":1446,"stateCode":"MT","stateName":"Montana","countryId":233,"countryCode":"US","countryName":"United States","latitude":"45.73248000","longitude":"-107.61203000","wikiDataId":"Q964591"},{"id":118027,"name":"Harlowton","stateId":1446,"stateCode":"MT","stateName":"Montana","countryId":233,"countryCode":"US","countryName":"United States","latitude":"46.43551000","longitude":"-109.83435000","wikiDataId":"Q967125"},{"id":118154,"name":"Havre","stateId":1446,"stateCode":"MT","stateName":"Montana","countryId":233,"countryCode":"US","countryName":"United States","latitude":"48.55000000","longitude":"-109.68409000","wikiDataId":"Q959425"},{"id":118251,"name":"Helena","stateId":1446,"stateCode":"MT","stateName":"Montana","countryId":233,"countryCode":"US","countryName":"United States","latitude":"46.59271000","longitude":"-112.03611000","wikiDataId":"Q38733"},{"id":118252,"name":"Helena Valley Northeast","stateId":1446,"stateCode":"MT","stateName":"Montana","countryId":233,"countryCode":"US","countryName":"United States","latitude":"46.69882000","longitude":"-111.95207000","wikiDataId":"Q955810"},{"id":118253,"name":"Helena Valley Northwest","stateId":1446,"stateCode":"MT","stateName":"Montana","countryId":233,"countryCode":"US","countryName":"United States","latitude":"46.72894000","longitude":"-112.06275000","wikiDataId":"Q961007"},{"id":118254,"name":"Helena Valley Southeast","stateId":1446,"stateCode":"MT","stateName":"Montana","countryId":233,"countryCode":"US","countryName":"United States","latitude":"46.61527000","longitude":"-111.92156000","wikiDataId":"Q959729"},{"id":118255,"name":"Helena Valley West Central","stateId":1446,"stateCode":"MT","stateName":"Montana","countryId":233,"countryCode":"US","countryName":"United States","latitude":"46.66291000","longitude":"-112.06044000","wikiDataId":"Q961066"},{"id":118256,"name":"Helena West Side","stateId":1446,"stateCode":"MT","stateName":"Montana","countryId":233,"countryCode":"US","countryName":"United States","latitude":"46.59672000","longitude":"-112.11304000","wikiDataId":"Q966599"},{"id":118437,"name":"Hill County","stateId":1446,"stateCode":"MT","stateName":"Montana","countryId":233,"countryCode":"US","countryName":"United States","latitude":"48.62823000","longitude":"-110.11131000","wikiDataId":"Q496589"},{"id":118858,"name":"Hysham","stateId":1446,"stateCode":"MT","stateName":"Montana","countryId":233,"countryCode":"US","countryName":"United States","latitude":"46.29277000","longitude":"-107.23423000","wikiDataId":"Q956063"},{"id":119196,"name":"Jefferson County","stateId":1446,"stateCode":"MT","stateName":"Montana","countryId":233,"countryCode":"US","countryName":"United States","latitude":"46.14849000","longitude":"-112.09374000","wikiDataId":"Q496737"},{"id":119317,"name":"Jordan","stateId":1446,"stateCode":"MT","stateName":"Montana","countryId":233,"countryCode":"US","countryName":"United States","latitude":"47.32083000","longitude":"-106.91007000","wikiDataId":"Q955017"},{"id":119326,"name":"Judith Basin County","stateId":1446,"stateCode":"MT","stateName":"Montana","countryId":233,"countryCode":"US","countryName":"United States","latitude":"47.04546000","longitude":"-110.26607000","wikiDataId":"Q490471"},{"id":119365,"name":"Kalispell","stateId":1446,"stateCode":"MT","stateName":"Montana","countryId":233,"countryCode":"US","countryName":"United States","latitude":"48.19579000","longitude":"-114.31291000","wikiDataId":"Q853175"},{"id":119898,"name":"Lake County","stateId":1446,"stateCode":"MT","stateName":"Montana","countryId":233,"countryCode":"US","countryName":"United States","latitude":"47.64594000","longitude":"-114.08935000","wikiDataId":"Q496700"},{"id":120033,"name":"Lakeside","stateId":1446,"stateCode":"MT","stateName":"Montana","countryId":233,"countryCode":"US","countryName":"United States","latitude":"48.01939000","longitude":"-114.22457000","wikiDataId":"Q964914"},{"id":120070,"name":"Lame Deer","stateId":1446,"stateCode":"MT","stateName":"Montana","countryId":233,"countryCode":"US","countryName":"United States","latitude":"45.62305000","longitude":"-106.66670000","wikiDataId":"Q960936"},{"id":120193,"name":"Laurel","stateId":1446,"stateCode":"MT","stateName":"Montana","countryId":233,"countryCode":"US","countryName":"United States","latitude":"45.66912000","longitude":"-108.77153000","wikiDataId":"Q768628"},{"id":120418,"name":"Lewis and Clark County","stateId":1446,"stateCode":"MT","stateName":"Montana","countryId":233,"countryCode":"US","countryName":"United States","latitude":"47.12234000","longitude":"-112.39035000","wikiDataId":"Q496656"},{"id":120433,"name":"Lewistown","stateId":1446,"stateCode":"MT","stateName":"Montana","countryId":233,"countryCode":"US","countryName":"United States","latitude":"47.06247000","longitude":"-109.42824000","wikiDataId":"Q959471"},{"id":120457,"name":"Libby","stateId":1446,"stateCode":"MT","stateName":"Montana","countryId":233,"countryCode":"US","countryName":"United States","latitude":"48.38829000","longitude":"-115.55600000","wikiDataId":"Q957370"},{"id":120473,"name":"Liberty County","stateId":1446,"stateCode":"MT","stateName":"Montana","countryId":233,"countryCode":"US","countryName":"United States","latitude":"48.56169000","longitude":"-111.02461000","wikiDataId":"Q496568"},{"id":120512,"name":"Lincoln","stateId":1446,"stateCode":"MT","stateName":"Montana","countryId":233,"countryCode":"US","countryName":"United States","latitude":"46.95494000","longitude":"-112.68171000","wikiDataId":"Q966705"},{"id":120534,"name":"Lincoln County","stateId":1446,"stateCode":"MT","stateName":"Montana","countryId":233,"countryCode":"US","countryName":"United States","latitude":"48.54253000","longitude":"-115.40519000","wikiDataId":"Q490344"},{"id":120653,"name":"Livingston","stateId":1446,"stateCode":"MT","stateName":"Montana","countryId":233,"countryCode":"US","countryName":"United States","latitude":"45.66244000","longitude":"-110.56104000","wikiDataId":"Q960253"},{"id":120683,"name":"Lockwood","stateId":1446,"stateCode":"MT","stateName":"Montana","countryId":233,"countryCode":"US","countryName":"United States","latitude":"45.81912000","longitude":"-108.41486000","wikiDataId":"Q960561"},{"id":120710,"name":"Lolo","stateId":1446,"stateCode":"MT","stateName":"Montana","countryId":233,"countryCode":"US","countryName":"United States","latitude":"46.75881000","longitude":"-114.08094000","wikiDataId":"Q960712"},{"id":121019,"name":"Madison County","stateId":1446,"stateCode":"MT","stateName":"Montana","countryId":233,"countryCode":"US","countryName":"United States","latitude":"45.30074000","longitude":"-111.92033000","wikiDataId":"Q496596"},{"id":121064,"name":"Malmstrom Air Force Base","stateId":1446,"stateCode":"MT","stateName":"Montana","countryId":233,"countryCode":"US","countryName":"United States","latitude":"47.50549000","longitude":"-111.18302000","wikiDataId":"Q3314231"},{"id":121068,"name":"Malta","stateId":1446,"stateCode":"MT","stateName":"Montana","countryId":233,"countryCode":"US","countryName":"United States","latitude":"48.35972000","longitude":"-107.87428000","wikiDataId":"Q963370"},{"id":121116,"name":"Manhattan","stateId":1446,"stateCode":"MT","stateName":"Montana","countryId":233,"countryCode":"US","countryName":"United States","latitude":"45.85660000","longitude":"-111.33246000","wikiDataId":"Q966105"},{"id":121475,"name":"McCone County","stateId":1446,"stateCode":"MT","stateName":"Montana","countryId":233,"countryCode":"US","countryName":"United States","latitude":"47.64523000","longitude":"-105.79534000","wikiDataId":"Q497652"},{"id":121576,"name":"Meagher County","stateId":1446,"stateCode":"MT","stateName":"Montana","countryId":233,"countryCode":"US","countryName":"United States","latitude":"46.59819000","longitude":"-110.88564000","wikiDataId":"Q491569"},{"id":121844,"name":"Miles City","stateId":1446,"stateCode":"MT","stateName":"Montana","countryId":233,"countryCode":"US","countryName":"United States","latitude":"46.40834000","longitude":"-105.84056000","wikiDataId":"Q960167"},{"id":121937,"name":"Mineral County","stateId":1446,"stateCode":"MT","stateName":"Montana","countryId":233,"countryCode":"US","countryName":"United States","latitude":"47.14732000","longitude":"-114.99850000","wikiDataId":"Q370329"},{"id":121991,"name":"Missoula","stateId":1446,"stateCode":"MT","stateName":"Montana","countryId":233,"countryCode":"US","countryName":"United States","latitude":"46.87215000","longitude":"-113.99400000","wikiDataId":"Q189602"},{"id":121992,"name":"Missoula County","stateId":1446,"stateCode":"MT","stateName":"Montana","countryId":233,"countryCode":"US","countryName":"United States","latitude":"47.03649000","longitude":"-113.92371000","wikiDataId":"Q496558"},{"id":122101,"name":"Montana City","stateId":1446,"stateCode":"MT","stateName":"Montana","countryId":233,"countryCode":"US","countryName":"United States","latitude":"46.53771000","longitude":"-111.93277000","wikiDataId":"Q960527"},{"id":122514,"name":"Musselshell County","stateId":1446,"stateCode":"MT","stateName":"Montana","countryId":233,"countryCode":"US","countryName":"United States","latitude":"46.49655000","longitude":"-108.39771000","wikiDataId":"Q496583"},{"id":122998,"name":"North Browning","stateId":1446,"stateCode":"MT","stateName":"Montana","countryId":233,"countryCode":"US","countryName":"United States","latitude":"48.57025000","longitude":"-113.00953000","wikiDataId":"Q960734"},{"id":123535,"name":"Orchard Homes","stateId":1446,"stateCode":"MT","stateName":"Montana","countryId":233,"countryCode":"US","countryName":"United States","latitude":"46.86326000","longitude":"-114.04844000","wikiDataId":"Q957841"},{"id":123703,"name":"Pablo","stateId":1446,"stateCode":"MT","stateName":"Montana","countryId":233,"countryCode":"US","countryName":"United States","latitude":"47.60021000","longitude":"-114.11900000","wikiDataId":"Q968511"},{"id":123842,"name":"Park County","stateId":1446,"stateCode":"MT","stateName":"Montana","countryId":233,"countryCode":"US","countryName":"United States","latitude":"45.48834000","longitude":"-110.52632000","wikiDataId":"Q496644"},{"id":124112,"name":"Petroleum County","stateId":1446,"stateCode":"MT","stateName":"Montana","countryId":233,"countryCode":"US","countryName":"United States","latitude":"47.11751000","longitude":"-108.25012000","wikiDataId":"Q496636"},{"id":124132,"name":"Philipsburg","stateId":1446,"stateCode":"MT","stateName":"Montana","countryId":233,"countryCode":"US","countryName":"United States","latitude":"46.33215000","longitude":"-113.29423000","wikiDataId":"Q967012"},{"id":124138,"name":"Phillips County","stateId":1446,"stateCode":"MT","stateName":"Montana","countryId":233,"countryCode":"US","countryName":"United States","latitude":"48.25909000","longitude":"-107.91329000","wikiDataId":"Q496577"},{"id":124326,"name":"Plains","stateId":1446,"stateCode":"MT","stateName":"Montana","countryId":233,"countryCode":"US","countryName":"United States","latitude":"47.46021000","longitude":"-114.88291000","wikiDataId":"Q962882"},{"id":124390,"name":"Plentywood","stateId":1446,"stateCode":"MT","stateName":"Montana","countryId":233,"countryCode":"US","countryName":"United States","latitude":"48.77475000","longitude":"-104.56246000","wikiDataId":"Q964732"},{"id":124455,"name":"Polson","stateId":1446,"stateCode":"MT","stateName":"Montana","countryId":233,"countryCode":"US","countryName":"United States","latitude":"47.69355000","longitude":"-114.16317000","wikiDataId":"Q963395"},{"id":124468,"name":"Pondera County","stateId":1446,"stateCode":"MT","stateName":"Montana","countryId":233,"countryCode":"US","countryName":"United States","latitude":"48.22798000","longitude":"-112.22639000","wikiDataId":"Q496708"},{"id":124607,"name":"Powder River County","stateId":1446,"stateCode":"MT","stateName":"Montana","countryId":233,"countryCode":"US","countryName":"United States","latitude":"45.39501000","longitude":"-105.63010000","wikiDataId":"Q496242"},{"id":124613,"name":"Powell County","stateId":1446,"stateCode":"MT","stateName":"Montana","countryId":233,"countryCode":"US","countryName":"United States","latitude":"46.85663000","longitude":"-112.93620000","wikiDataId":"Q496602"},{"id":124625,"name":"Prairie County","stateId":1446,"stateCode":"MT","stateName":"Montana","countryId":233,"countryCode":"US","countryName":"United States","latitude":"46.86049000","longitude":"-105.37794000","wikiDataId":"Q496678"},{"id":124903,"name":"Ravalli County","stateId":1446,"stateCode":"MT","stateName":"Montana","countryId":233,"countryCode":"US","countryName":"United States","latitude":"46.08170000","longitude":"-114.12069000","wikiDataId":"Q496758"},{"id":124954,"name":"Red Lodge","stateId":1446,"stateCode":"MT","stateName":"Montana","countryId":233,"countryCode":"US","countryName":"United States","latitude":"45.18578000","longitude":"-109.24682000","wikiDataId":"Q959349"},{"id":125078,"name":"Richland County","stateId":1446,"stateCode":"MT","stateName":"Montana","countryId":233,"countryCode":"US","countryName":"United States","latitude":"47.78792000","longitude":"-104.56134000","wikiDataId":"Q496716"},{"id":125386,"name":"Ronan","stateId":1446,"stateCode":"MT","stateName":"Montana","countryId":233,"countryCode":"US","countryName":"United States","latitude":"47.52882000","longitude":"-114.10150000","wikiDataId":"Q966977"},{"id":125394,"name":"Roosevelt County","stateId":1446,"stateCode":"MT","stateName":"Montana","countryId":233,"countryCode":"US","countryName":"United States","latitude":"48.29455000","longitude":"-105.01652000","wikiDataId":"Q496751"},{"id":125413,"name":"Rosebud County","stateId":1446,"stateCode":"MT","stateName":"Montana","countryId":233,"countryCode":"US","countryName":"United States","latitude":"46.22974000","longitude":"-106.73082000","wikiDataId":"Q496664"},{"id":125474,"name":"Roundup","stateId":1446,"stateCode":"MT","stateName":"Montana","countryId":233,"countryCode":"US","countryName":"United States","latitude":"46.44524000","longitude":"-108.54180000","wikiDataId":"Q955369"},{"id":125564,"name":"Ryegate","stateId":1446,"stateCode":"MT","stateName":"Montana","countryId":233,"countryCode":"US","countryName":"United States","latitude":"46.29718000","longitude":"-109.25879000","wikiDataId":"Q956230"},{"id":125863,"name":"Sanders County","stateId":1446,"stateCode":"MT","stateName":"Montana","countryId":233,"countryCode":"US","countryName":"United States","latitude":"47.67483000","longitude":"-115.13329000","wikiDataId":"Q490734"},{"id":126031,"name":"Scobey","stateId":1446,"stateCode":"MT","stateName":"Montana","countryId":233,"countryCode":"US","countryName":"United States","latitude":"48.79252000","longitude":"-105.42083000","wikiDataId":"Q687728"},{"id":126125,"name":"Seeley Lake","stateId":1446,"stateCode":"MT","stateName":"Montana","countryId":233,"countryCode":"US","countryName":"United States","latitude":"47.17938000","longitude":"-113.48452000","wikiDataId":"Q955887"},{"id":126271,"name":"Shelby","stateId":1446,"stateCode":"MT","stateName":"Montana","countryId":233,"countryCode":"US","countryName":"United States","latitude":"48.50526000","longitude":"-111.85697000","wikiDataId":"Q967384"},{"id":126325,"name":"Sheridan County","stateId":1446,"stateCode":"MT","stateName":"Montana","countryId":233,"countryCode":"US","countryName":"United States","latitude":"48.72120000","longitude":"-104.50468000","wikiDataId":"Q496629"},{"id":126399,"name":"Sidney","stateId":1446,"stateCode":"MT","stateName":"Montana","countryId":233,"countryCode":"US","countryName":"United States","latitude":"47.71668000","longitude":"-104.15633000","wikiDataId":"Q959533"},{"id":126421,"name":"Silver Bow County","stateId":1446,"stateCode":"MT","stateName":"Montana","countryId":233,"countryCode":"US","countryName":"United States","latitude":"45.90236000","longitude":"-112.65672000","wikiDataId":"Q484513"},{"id":126577,"name":"Somers","stateId":1446,"stateCode":"MT","stateName":"Montana","countryId":233,"countryCode":"US","countryName":"United States","latitude":"48.08023000","longitude":"-114.22151000","wikiDataId":"Q961259"},{"id":126633,"name":"South Browning","stateId":1446,"stateCode":"MT","stateName":"Montana","countryId":233,"countryCode":"US","countryName":"United States","latitude":"48.54608000","longitude":"-113.01425000","wikiDataId":"Q522828"},{"id":126955,"name":"Stanford","stateId":1446,"stateCode":"MT","stateName":"Montana","countryId":233,"countryCode":"US","countryName":"United States","latitude":"47.15358000","longitude":"-110.21826000","wikiDataId":"Q964886"},{"id":127049,"name":"Stevensville","stateId":1446,"stateCode":"MT","stateName":"Montana","countryId":233,"countryCode":"US","countryName":"United States","latitude":"46.50992000","longitude":"-114.09316000","wikiDataId":"Q955315"},{"id":127063,"name":"Stillwater County","stateId":1446,"stateCode":"MT","stateName":"Montana","countryId":233,"countryCode":"US","countryName":"United States","latitude":"45.66944000","longitude":"-109.39477000","wikiDataId":"Q490750"},{"id":127238,"name":"Sun Prairie","stateId":1446,"stateCode":"MT","stateName":"Montana","countryId":233,"countryCode":"US","countryName":"United States","latitude":"47.53690000","longitude":"-111.48136000","wikiDataId":"Q964356"},{"id":127282,"name":"Superior","stateId":1446,"stateCode":"MT","stateName":"Montana","countryId":233,"countryCode":"US","countryName":"United States","latitude":"47.19159000","longitude":"-114.89180000","wikiDataId":"Q956970"},{"id":127336,"name":"Sweet Grass County","stateId":1446,"stateCode":"MT","stateName":"Montana","countryId":233,"countryCode":"US","countryName":"United States","latitude":"45.81373000","longitude":"-109.94105000","wikiDataId":"Q496616"},{"id":127531,"name":"Terry","stateId":1446,"stateCode":"MT","stateName":"Montana","countryId":233,"countryCode":"US","countryName":"United States","latitude":"46.79306000","longitude":"-105.31221000","wikiDataId":"Q192293"},{"id":127538,"name":"Teton County","stateId":1446,"stateCode":"MT","stateName":"Montana","countryId":233,"countryCode":"US","countryName":"United States","latitude":"47.83729000","longitude":"-112.24080000","wikiDataId":"Q496685"},{"id":127592,"name":"Thompson Falls","stateId":1446,"stateCode":"MT","stateName":"Montana","countryId":233,"countryCode":"US","countryName":"United States","latitude":"47.59489000","longitude":"-115.33834000","wikiDataId":"Q282540"},{"id":127611,"name":"Three Forks","stateId":1446,"stateCode":"MT","stateName":"Montana","countryId":233,"countryCode":"US","countryName":"United States","latitude":"45.89243000","longitude":"-111.55219000","wikiDataId":"Q966283"},{"id":127728,"name":"Toole County","stateId":1446,"stateCode":"MT","stateName":"Montana","countryId":233,"countryCode":"US","countryName":"United States","latitude":"48.65530000","longitude":"-111.69570000","wikiDataId":"Q496722"},{"id":127766,"name":"Townsend","stateId":1446,"stateCode":"MT","stateName":"Montana","countryId":233,"countryCode":"US","countryName":"United States","latitude":"46.31910000","longitude":"-111.52080000","wikiDataId":"Q956048"},{"id":127789,"name":"Treasure County","stateId":1446,"stateCode":"MT","stateName":"Montana","countryId":233,"countryCode":"US","countryName":"United States","latitude":"46.21147000","longitude":"-107.27170000","wikiDataId":"Q496744"},{"id":128105,"name":"Valley County","stateId":1446,"stateCode":"MT","stateName":"Montana","countryId":233,"countryCode":"US","countryName":"United States","latitude":"48.36531000","longitude":"-106.66752000","wikiDataId":"Q496764"},{"id":128289,"name":"Virginia City","stateId":1446,"stateCode":"MT","stateName":"Montana","countryId":233,"countryCode":"US","countryName":"United States","latitude":"45.29381000","longitude":"-111.94609000","wikiDataId":"Q955580"},{"id":128470,"name":"Warm Springs","stateId":1446,"stateCode":"MT","stateName":"Montana","countryId":233,"countryCode":"US","countryName":"United States","latitude":"46.18131000","longitude":"-112.78476000","wikiDataId":"Q4409917"},{"id":128878,"name":"West Glendive","stateId":1446,"stateCode":"MT","stateName":"Montana","countryId":233,"countryCode":"US","countryName":"United States","latitude":"47.11085000","longitude":"-104.74968000","wikiDataId":"Q960700"},{"id":129009,"name":"West Yellowstone","stateId":1446,"stateCode":"MT","stateName":"Montana","countryId":233,"countryCode":"US","countryName":"United States","latitude":"44.66215000","longitude":"-111.10411000","wikiDataId":"Q956110"},{"id":129110,"name":"Wheatland County","stateId":1446,"stateCode":"MT","stateName":"Montana","countryId":233,"countryCode":"US","countryName":"United States","latitude":"46.46634000","longitude":"-109.84440000","wikiDataId":"Q496161"},{"id":129163,"name":"White Sulphur Springs","stateId":1446,"stateCode":"MT","stateName":"Montana","countryId":233,"countryCode":"US","countryName":"United States","latitude":"46.54828000","longitude":"-110.90216000","wikiDataId":"Q957455"},{"id":129166,"name":"Whitefish","stateId":1446,"stateCode":"MT","stateName":"Montana","countryId":233,"countryCode":"US","countryName":"United States","latitude":"48.41108000","longitude":"-114.33763000","wikiDataId":"Q26446"},{"id":129172,"name":"Whitehall","stateId":1446,"stateCode":"MT","stateName":"Montana","countryId":233,"countryCode":"US","countryName":"United States","latitude":"45.87076000","longitude":"-112.09749000","wikiDataId":"Q962893"},{"id":129213,"name":"Wibaux","stateId":1446,"stateCode":"MT","stateName":"Montana","countryId":233,"countryCode":"US","countryName":"United States","latitude":"46.98501000","longitude":"-104.18827000","wikiDataId":"Q964844"},{"id":129214,"name":"Wibaux County","stateId":1446,"stateCode":"MT","stateName":"Montana","countryId":233,"countryCode":"US","countryName":"United States","latitude":"46.96535000","longitude":"-104.24897000","wikiDataId":"Q496109"},{"id":129415,"name":"Winnett","stateId":1446,"stateCode":"MT","stateName":"Montana","countryId":233,"countryCode":"US","countryName":"United States","latitude":"47.00276000","longitude":"-108.35207000","wikiDataId":"Q968779"},{"id":129473,"name":"Wolf Point","stateId":1446,"stateCode":"MT","stateName":"Montana","countryId":233,"countryCode":"US","countryName":"United States","latitude":"48.09057000","longitude":"-105.64056000","wikiDataId":"Q579020"},{"id":129679,"name":"Yellowstone County","stateId":1446,"stateCode":"MT","stateName":"Montana","countryId":233,"countryCode":"US","countryName":"United States","latitude":"45.93725000","longitude":"-108.27435000","wikiDataId":"Q490283"}]