[{"id":85783,"name":"Alwernia","stateId":1635,"stateCode":"MA","stateName":"Lesser Poland Voivodeship","countryId":176,"countryCode":"PL","countryName":"Poland","latitude":"50.06056000","longitude":"19.53953000","wikiDataId":"Q983896"},{"id":85785,"name":"Andrychów","stateId":1635,"stateCode":"MA","stateName":"Lesser Poland Voivodeship","countryId":176,"countryCode":"PL","countryName":"Poland","latitude":"49.85497000","longitude":"19.33834000","wikiDataId":"Q984857"},{"id":85790,"name":"Babice","stateId":1635,"stateCode":"MA","stateName":"Lesser Poland Voivodeship","countryId":176,"countryCode":"PL","countryName":"Poland","latitude":"50.05565000","longitude":"19.19955000","wikiDataId":"Q4837852"},{"id":85794,"name":"Bachowice","stateId":1635,"stateCode":"MA","stateName":"Lesser Poland Voivodeship","countryId":176,"countryCode":"PL","countryName":"Poland","latitude":"49.95812000","longitude":"19.49369000","wikiDataId":"Q2216196"},{"id":85795,"name":"Balice","stateId":1635,"stateCode":"MA","stateName":"Lesser Poland Voivodeship","countryId":176,"countryCode":"PL","countryName":"Poland","latitude":"50.08799000","longitude":"19.79462000","wikiDataId":"Q138828"},{"id":85797,"name":"Balin","stateId":1635,"stateCode":"MA","stateName":"Lesser Poland Voivodeship","countryId":176,"countryCode":"PL","countryName":"Poland","latitude":"50.16799000","longitude":"19.38340000","wikiDataId":"Q2880878"},{"id":85815,"name":"Barwałd Górny","stateId":1635,"stateCode":"MA","stateName":"Lesser Poland Voivodeship","countryId":176,"countryCode":"PL","countryName":"Poland","latitude":"49.86211000","longitude":"19.61746000","wikiDataId":"Q2840435"},{"id":85816,"name":"Barwałd Średni","stateId":1635,"stateCode":"MA","stateName":"Lesser Poland Voivodeship","countryId":176,"countryCode":"PL","countryName":"Poland","latitude":"49.86632000","longitude":"19.59360000","wikiDataId":"Q2202109"},{"id":86010,"name":"Bębło","stateId":1635,"stateCode":"MA","stateName":"Lesser Poland Voivodeship","countryId":176,"countryCode":"PL","countryName":"Poland","latitude":"50.18053000","longitude":"19.78741000","wikiDataId":"Q367087"},{"id":86011,"name":"Bęczarka","stateId":1635,"stateCode":"MA","stateName":"Lesser Poland Voivodeship","countryId":176,"countryCode":"PL","countryName":"Poland","latitude":"49.87793000","longitude":"19.86723000","wikiDataId":"Q4557003"},{"id":85840,"name":"Białka","stateId":1635,"stateCode":"MA","stateName":"Lesser Poland Voivodeship","countryId":176,"countryCode":"PL","countryName":"Poland","latitude":"49.69306000","longitude":"19.67033000","wikiDataId":"Q4902795"},{"id":85841,"name":"Białka Tatrzańska","stateId":1635,"stateCode":"MA","stateName":"Lesser Poland Voivodeship","countryId":176,"countryCode":"PL","countryName":"Poland","latitude":"49.38975000","longitude":"20.10507000","wikiDataId":"Q1841469"},{"id":85849,"name":"Biały Dunajec","stateId":1635,"stateCode":"MA","stateName":"Lesser Poland Voivodeship","countryId":176,"countryCode":"PL","countryName":"Poland","latitude":"49.37380000","longitude":"20.00898000","wikiDataId":"Q2470939"},{"id":85851,"name":"Biecz","stateId":1635,"stateCode":"MA","stateName":"Lesser Poland Voivodeship","countryId":176,"countryCode":"PL","countryName":"Poland","latitude":"49.73596000","longitude":"21.26301000","wikiDataId":"Q460971"},{"id":85869,"name":"Bieńkówka","stateId":1635,"stateCode":"MA","stateName":"Lesser Poland Voivodeship","countryId":176,"countryCode":"PL","countryName":"Poland","latitude":"49.77600000","longitude":"19.77179000","wikiDataId":"Q4904706"},{"id":85871,"name":"Binarowa","stateId":1635,"stateCode":"MA","stateName":"Lesser Poland Voivodeship","countryId":176,"countryCode":"PL","countryName":"Poland","latitude":"49.75621000","longitude":"21.22816000","wikiDataId":"Q863503"},{"id":85873,"name":"Biskupice Radłowskie","stateId":1635,"stateCode":"MA","stateName":"Lesser Poland Voivodeship","countryId":176,"countryCode":"PL","countryName":"Poland","latitude":"50.12069000","longitude":"20.85943000","wikiDataId":"Q2904701"},{"id":85885,"name":"Bobowa","stateId":1635,"stateCode":"MA","stateName":"Lesser Poland Voivodeship","countryId":176,"countryCode":"PL","countryName":"Poland","latitude":"49.70866000","longitude":"20.94767000","wikiDataId":"Q2341034"},{"id":85892,"name":"Bochnia","stateId":1635,"stateCode":"MA","stateName":"Lesser Poland Voivodeship","countryId":176,"countryCode":"PL","countryName":"Poland","latitude":"49.96905000","longitude":"20.43028000","wikiDataId":"Q815903"},{"id":85908,"name":"Bolechowice","stateId":1635,"stateCode":"MA","stateName":"Lesser Poland Voivodeship","countryId":176,"countryCode":"PL","countryName":"Poland","latitude":"50.14831000","longitude":"19.79273000","wikiDataId":"Q4939140"},{"id":85916,"name":"Bolęcin","stateId":1635,"stateCode":"MA","stateName":"Lesser Poland Voivodeship","countryId":176,"countryCode":"PL","countryName":"Poland","latitude":"50.11750000","longitude":"19.48116000","wikiDataId":"Q1817195"},{"id":85910,"name":"Bolesław","stateId":1635,"stateCode":"MA","stateName":"Lesser Poland Voivodeship","countryId":176,"countryCode":"PL","countryName":"Poland","latitude":"50.29729000","longitude":"19.48073000","wikiDataId":"Q10864397"},{"id":85918,"name":"Borek","stateId":1635,"stateCode":"MA","stateName":"Lesser Poland Voivodeship","countryId":176,"countryCode":"PL","countryName":"Poland","latitude":"50.01778000","longitude":"20.53087000","wikiDataId":"Q935966"},{"id":85930,"name":"Borzęcin","stateId":1635,"stateCode":"MA","stateName":"Lesser Poland Voivodeship","countryId":176,"countryCode":"PL","countryName":"Poland","latitude":"50.06540000","longitude":"20.71103000","wikiDataId":"Q894322"},{"id":85931,"name":"Borzęta","stateId":1635,"stateCode":"MA","stateName":"Lesser Poland Voivodeship","countryId":176,"countryCode":"PL","countryName":"Poland","latitude":"49.86228000","longitude":"19.97924000","wikiDataId":"Q4947007"},{"id":85949,"name":"Brodła","stateId":1635,"stateCode":"MA","stateName":"Lesser Poland Voivodeship","countryId":176,"countryCode":"PL","countryName":"Poland","latitude":"50.04331000","longitude":"19.58879000","wikiDataId":"Q2616132"},{"id":85946,"name":"Brody","stateId":1635,"stateCode":"MA","stateName":"Lesser Poland Voivodeship","countryId":176,"countryCode":"PL","countryName":"Poland","latitude":"49.86742000","longitude":"19.69746000","wikiDataId":"Q1962586"},{"id":85977,"name":"Brzączowice","stateId":1635,"stateCode":"MA","stateName":"Lesser Poland Voivodeship","countryId":176,"countryCode":"PL","countryName":"Poland","latitude":"49.87478000","longitude":"20.03709000","wikiDataId":"Q4981779"},{"id":85960,"name":"Brzesko","stateId":1635,"stateCode":"MA","stateName":"Lesser Poland Voivodeship","countryId":176,"countryCode":"PL","countryName":"Poland","latitude":"49.96911000","longitude":"20.60606000","wikiDataId":"Q324884"},{"id":85961,"name":"Brzeszcze","stateId":1635,"stateCode":"MA","stateName":"Lesser Poland Voivodeship","countryId":176,"countryCode":"PL","countryName":"Poland","latitude":"49.98203000","longitude":"19.15157000","wikiDataId":"Q916514"},{"id":85962,"name":"Brzezinka","stateId":1635,"stateCode":"MA","stateName":"Lesser Poland Voivodeship","countryId":176,"countryCode":"PL","countryName":"Poland","latitude":"50.04237000","longitude":"19.19020000","wikiDataId":"Q995437"},{"id":85968,"name":"Brzeźnica","stateId":1635,"stateCode":"MA","stateName":"Lesser Poland Voivodeship","countryId":176,"countryCode":"PL","countryName":"Poland","latitude":"49.96497000","longitude":"19.61952000","wikiDataId":"Q2192638"},{"id":85986,"name":"Budzów","stateId":1635,"stateCode":"MA","stateName":"Lesser Poland Voivodeship","countryId":176,"countryCode":"PL","countryName":"Poland","latitude":"49.77622000","longitude":"19.67274000","wikiDataId":"Q2296118"},{"id":85990,"name":"Bukowina Tatrzańska","stateId":1635,"stateCode":"MA","stateName":"Lesser Poland Voivodeship","countryId":176,"countryCode":"PL","countryName":"Poland","latitude":"49.34302000","longitude":"20.10807000","wikiDataId":"Q1003408"},{"id":85991,"name":"Bukowno","stateId":1635,"stateCode":"MA","stateName":"Lesser Poland Voivodeship","countryId":176,"countryCode":"PL","countryName":"Poland","latitude":"50.26474000","longitude":"19.45962000","wikiDataId":"Q985653"},{"id":85994,"name":"Bulowice","stateId":1635,"stateCode":"MA","stateName":"Lesser Poland Voivodeship","countryId":176,"countryCode":"PL","countryName":"Poland","latitude":"49.87650000","longitude":"19.28873000","wikiDataId":"Q34784413"},{"id":86000,"name":"Bystra","stateId":1635,"stateCode":"MA","stateName":"Lesser Poland Voivodeship","countryId":176,"countryCode":"PL","countryName":"Poland","latitude":"49.64796000","longitude":"19.77994000","wikiDataId":"Q5004546"},{"id":86029,"name":"Chełmek","stateId":1635,"stateCode":"MA","stateName":"Lesser Poland Voivodeship","countryId":176,"countryCode":"PL","countryName":"Poland","latitude":"50.10163000","longitude":"19.24801000","wikiDataId":"Q985669"},{"id":86030,"name":"Chełmiec","stateId":1635,"stateCode":"MA","stateName":"Lesser Poland Voivodeship","countryId":176,"countryCode":"PL","countryName":"Poland","latitude":"49.63051000","longitude":"20.66425000","wikiDataId":"Q1959173"},{"id":86043,"name":"Chocznia","stateId":1635,"stateCode":"MA","stateName":"Lesser Poland Voivodeship","countryId":176,"countryCode":"PL","countryName":"Poland","latitude":"49.87417000","longitude":"19.45438000","wikiDataId":"Q2379504"},{"id":86062,"name":"Chrzanów","stateId":1635,"stateCode":"MA","stateName":"Lesser Poland Voivodeship","countryId":176,"countryCode":"PL","countryName":"Poland","latitude":"50.13546000","longitude":"19.40203000","wikiDataId":"Q93323"},{"id":86071,"name":"Chyżne","stateId":1635,"stateCode":"MA","stateName":"Lesser Poland Voivodeship","countryId":176,"countryCode":"PL","countryName":"Poland","latitude":"49.42672000","longitude":"19.66956000","wikiDataId":"Q4176295"},{"id":86094,"name":"Ciężkowice","stateId":1635,"stateCode":"MA","stateName":"Lesser Poland Voivodeship","countryId":176,"countryCode":"PL","countryName":"Poland","latitude":"49.78575000","longitude":"20.97324000","wikiDataId":"Q782659"},{"id":86107,"name":"Czarna Góra","stateId":1635,"stateCode":"MA","stateName":"Lesser Poland Voivodeship","countryId":176,"countryCode":"PL","countryName":"Poland","latitude":"49.37662000","longitude":"20.13047000","wikiDataId":"Q34798435"},{"id":86112,"name":"Czarnochowice","stateId":1635,"stateCode":"MA","stateName":"Lesser Poland Voivodeship","countryId":176,"countryCode":"PL","countryName":"Poland","latitude":"50.00471000","longitude":"20.06790000","wikiDataId":"Q5201607"},{"id":86118,"name":"Czarny Dunajec","stateId":1635,"stateCode":"MA","stateName":"Lesser Poland Voivodeship","countryId":176,"countryCode":"PL","countryName":"Poland","latitude":"49.43663000","longitude":"19.85161000","wikiDataId":"Q2368603"},{"id":86121,"name":"Czchów","stateId":1635,"stateCode":"MA","stateName":"Lesser Poland Voivodeship","countryId":176,"countryCode":"PL","countryName":"Poland","latitude":"49.83726000","longitude":"20.68056000","wikiDataId":"Q1003264"},{"id":86133,"name":"Czernichów","stateId":1635,"stateCode":"MA","stateName":"Lesser Poland Voivodeship","countryId":176,"countryCode":"PL","countryName":"Poland","latitude":"49.98920000","longitude":"19.68115000","wikiDataId":"Q389125"},{"id":86147,"name":"Czułów","stateId":1635,"stateCode":"MA","stateName":"Lesser Poland Voivodeship","countryId":176,"countryCode":"PL","countryName":"Poland","latitude":"50.05956000","longitude":"19.70106000","wikiDataId":"Q5202204"},{"id":86241,"name":"Dąbrowa Tarnowska","stateId":1635,"stateCode":"MA","stateName":"Lesser Poland Voivodeship","countryId":176,"countryCode":"PL","countryName":"Poland","latitude":"50.17462000","longitude":"20.98633000","wikiDataId":"Q324971"},{"id":86251,"name":"Dębno","stateId":1635,"stateCode":"MA","stateName":"Lesser Poland Voivodeship","countryId":176,"countryCode":"PL","countryName":"Poland","latitude":"49.96701000","longitude":"20.71979000","wikiDataId":"Q5321015"},{"id":86164,"name":"Dobczyce","stateId":1635,"stateCode":"MA","stateName":"Lesser Poland Voivodeship","countryId":176,"countryCode":"PL","countryName":"Poland","latitude":"49.88109000","longitude":"20.08936000","wikiDataId":"Q976219"},{"id":86167,"name":"Dobra","stateId":1635,"stateCode":"MA","stateName":"Lesser Poland Voivodeship","countryId":176,"countryCode":"PL","countryName":"Poland","latitude":"49.71793000","longitude":"20.25347000","wikiDataId":"Q2285653"},{"id":86226,"name":"Dziewin","stateId":1635,"stateCode":"MA","stateName":"Lesser Poland Voivodeship","countryId":176,"countryCode":"PL","countryName":"Poland","latitude":"50.07554000","longitude":"20.45491000","wikiDataId":"Q682922"},{"id":86269,"name":"Filipowice","stateId":1635,"stateCode":"MA","stateName":"Lesser Poland Voivodeship","countryId":176,"countryCode":"PL","countryName":"Poland","latitude":"50.15573000","longitude":"19.56579000","wikiDataId":"Q5448678"},{"id":86277,"name":"Frydman","stateId":1635,"stateCode":"MA","stateName":"Lesser Poland Voivodeship","countryId":176,"countryCode":"PL","countryName":"Poland","latitude":"49.44927000","longitude":"20.22961000","wikiDataId":"Q652207"},{"id":86278,"name":"Frydrychowice","stateId":1635,"stateCode":"MA","stateName":"Lesser Poland Voivodeship","countryId":176,"countryCode":"PL","countryName":"Poland","latitude":"49.90481000","longitude":"19.41936000","wikiDataId":"Q2946617"},{"id":86293,"name":"Gdów","stateId":1635,"stateCode":"MA","stateName":"Lesser Poland Voivodeship","countryId":176,"countryCode":"PL","countryName":"Poland","latitude":"49.90818000","longitude":"20.19879000","wikiDataId":"Q385"},{"id":86295,"name":"Giebułtów","stateId":1635,"stateCode":"MA","stateName":"Lesser Poland Voivodeship","countryId":176,"countryCode":"PL","countryName":"Poland","latitude":"50.14556000","longitude":"19.87856000","wikiDataId":"Q2262914"},{"id":86298,"name":"Gierałtowice","stateId":1635,"stateCode":"MA","stateName":"Lesser Poland Voivodeship","countryId":176,"countryCode":"PL","countryName":"Poland","latitude":"49.94426000","longitude":"19.39070000","wikiDataId":"Q5559792"},{"id":86426,"name":"Głogoczów","stateId":1635,"stateCode":"MA","stateName":"Lesser Poland Voivodeship","countryId":176,"countryCode":"PL","countryName":"Poland","latitude":"49.89452000","longitude":"19.87410000","wikiDataId":"Q3149627"},{"id":86315,"name":"Gnojnik","stateId":1635,"stateCode":"MA","stateName":"Lesser Poland Voivodeship","countryId":176,"countryCode":"PL","countryName":"Poland","latitude":"49.89397000","longitude":"20.60863000","wikiDataId":"Q1950932"},{"id":86333,"name":"Gorenice","stateId":1635,"stateCode":"MA","stateName":"Lesser Poland Voivodeship","countryId":176,"countryCode":"PL","countryName":"Poland","latitude":"50.20800000","longitude":"19.62038000","wikiDataId":"Q5586163"},{"id":86334,"name":"Gorlice","stateId":1635,"stateCode":"MA","stateName":"Lesser Poland Voivodeship","countryId":176,"countryCode":"PL","countryName":"Poland","latitude":"49.65563000","longitude":"21.16035000","wikiDataId":"Q947521"},{"id":86402,"name":"Gręboszów","stateId":1635,"stateCode":"MA","stateName":"Lesser Poland Voivodeship","countryId":176,"countryCode":"PL","countryName":"Poland","latitude":"50.24501000","longitude":"20.77669000","wikiDataId":"Q581323"},{"id":86379,"name":"Grojec","stateId":1635,"stateCode":"MA","stateName":"Lesser Poland Voivodeship","countryId":176,"countryCode":"PL","countryName":"Poland","latitude":"49.98147000","longitude":"19.23792000","wikiDataId":"Q5610133"},{"id":86381,"name":"Gromnik","stateId":1635,"stateCode":"MA","stateName":"Lesser Poland Voivodeship","countryId":176,"countryCode":"PL","countryName":"Poland","latitude":"49.83843000","longitude":"20.96123000","wikiDataId":"Q5610133"},{"id":86387,"name":"Gruszów Wielki","stateId":1635,"stateCode":"MA","stateName":"Lesser Poland Voivodeship","countryId":176,"countryCode":"PL","countryName":"Poland","latitude":"50.19163000","longitude":"21.03144000","wikiDataId":"Q5612332"},{"id":86389,"name":"Grybów","stateId":1635,"stateCode":"MA","stateName":"Lesser Poland Voivodeship","countryId":176,"countryCode":"PL","countryName":"Poland","latitude":"49.62439000","longitude":"20.94797000","wikiDataId":"Q990669"},{"id":86393,"name":"Grzechynia","stateId":1635,"stateCode":"MA","stateName":"Lesser Poland Voivodeship","countryId":176,"countryCode":"PL","countryName":"Poland","latitude":"49.71360000","longitude":"19.64561000","wikiDataId":"Q5612505"},{"id":86443,"name":"Harbutowice","stateId":1635,"stateCode":"MA","stateName":"Lesser Poland Voivodeship","countryId":176,"countryCode":"PL","countryName":"Poland","latitude":"49.81235000","longitude":"19.78045000","wikiDataId":"Q5654931"},{"id":86461,"name":"Inwałd","stateId":1635,"stateCode":"MA","stateName":"Lesser Poland Voivodeship","countryId":176,"countryCode":"PL","countryName":"Poland","latitude":"49.86355000","longitude":"19.39276000","wikiDataId":"Q2521425"},{"id":86465,"name":"Iwkowa","stateId":1635,"stateCode":"MA","stateName":"Lesser Poland Voivodeship","countryId":176,"countryCode":"PL","countryName":"Poland","latitude":"49.81716000","longitude":"20.59018000","wikiDataId":"Q376752"},{"id":86471,"name":"Izdebnik","stateId":1635,"stateCode":"MA","stateName":"Lesser Poland Voivodeship","countryId":176,"countryCode":"PL","countryName":"Poland","latitude":"49.87218000","longitude":"19.76801000","wikiDataId":"Q3259401"},{"id":86480,"name":"Jabłonka","stateId":1635,"stateCode":"MA","stateName":"Lesser Poland Voivodeship","countryId":176,"countryCode":"PL","countryName":"Poland","latitude":"49.47968000","longitude":"19.69370000","wikiDataId":"Q921209"},{"id":86487,"name":"Jadowniki","stateId":1635,"stateCode":"MA","stateName":"Lesser Poland Voivodeship","countryId":176,"countryCode":"PL","countryName":"Poland","latitude":"49.95884000","longitude":"20.64434000","wikiDataId":"Q164066"},{"id":86488,"name":"Jadowniki Mokre","stateId":1635,"stateCode":"MA","stateName":"Lesser Poland Voivodeship","countryId":176,"countryCode":"PL","countryName":"Poland","latitude":"50.16546000","longitude":"20.72845000","wikiDataId":"Q6121511"},{"id":86497,"name":"Janowice","stateId":1635,"stateCode":"MA","stateName":"Lesser Poland Voivodeship","countryId":176,"countryCode":"PL","countryName":"Poland","latitude":"49.89154000","longitude":"20.86081000","wikiDataId":"Q6155352"},{"id":86510,"name":"Jaroszowice","stateId":1635,"stateCode":"MA","stateName":"Lesser Poland Voivodeship","countryId":176,"countryCode":"PL","countryName":"Poland","latitude":"49.86267000","longitude":"19.51962000","wikiDataId":"Q2136368"},{"id":86517,"name":"Jasień","stateId":1635,"stateCode":"MA","stateName":"Lesser Poland Voivodeship","countryId":176,"countryCode":"PL","countryName":"Poland","latitude":"49.96988000","longitude":"20.57190000","wikiDataId":"Q6161535"},{"id":86513,"name":"Jasienica","stateId":1635,"stateCode":"MA","stateName":"Lesser Poland Voivodeship","countryId":176,"countryCode":"PL","countryName":"Poland","latitude":"49.82281000","longitude":"19.84191000","wikiDataId":"Q4555856"},{"id":86526,"name":"Jastrzębia","stateId":1635,"stateCode":"MA","stateName":"Lesser Poland Voivodeship","countryId":176,"countryCode":"PL","countryName":"Poland","latitude":"49.79733000","longitude":"20.88089000","wikiDataId":"Q6164245"},{"id":86533,"name":"Jawornik","stateId":1635,"stateCode":"MA","stateName":"Lesser Poland Voivodeship","countryId":176,"countryCode":"PL","countryName":"Poland","latitude":"49.85580000","longitude":"19.89315000","wikiDataId":"Q2314424"},{"id":86554,"name":"Jerzmanowice","stateId":1635,"stateCode":"MA","stateName":"Lesser Poland Voivodeship","countryId":176,"countryCode":"PL","countryName":"Poland","latitude":"50.21267000","longitude":"19.74672000","wikiDataId":"Q986691"},{"id":86564,"name":"Jodłówka","stateId":1635,"stateCode":"MA","stateName":"Lesser Poland Voivodeship","countryId":176,"countryCode":"PL","countryName":"Poland","latitude":"49.99295000","longitude":"20.54821000","wikiDataId":"Q6208195"},{"id":86565,"name":"Jodłówka-Wałki","stateId":1635,"stateCode":"MA","stateName":"Lesser Poland Voivodeship","countryId":176,"countryCode":"PL","countryName":"Poland","latitude":"50.04992000","longitude":"21.13332000","wikiDataId":"Q6208200"},{"id":86568,"name":"Jordanów","stateId":1635,"stateCode":"MA","stateName":"Lesser Poland Voivodeship","countryId":176,"countryCode":"PL","countryName":"Poland","latitude":"49.64935000","longitude":"19.82981000","wikiDataId":"Q514407"},{"id":86571,"name":"Juszczyn","stateId":1635,"stateCode":"MA","stateName":"Lesser Poland Voivodeship","countryId":176,"countryCode":"PL","countryName":"Poland","latitude":"49.69290000","longitude":"19.69128000","wikiDataId":"Q841790"},{"id":86588,"name":"Kalwaria Zebrzydowska","stateId":1635,"stateCode":"MA","stateName":"Lesser Poland Voivodeship","countryId":176,"countryCode":"PL","countryName":"Poland","latitude":"49.86759000","longitude":"19.67720000","wikiDataId":"Q389860"},{"id":86599,"name":"Kamień","stateId":1635,"stateCode":"MA","stateName":"Lesser Poland Voivodeship","countryId":176,"countryCode":"PL","countryName":"Poland","latitude":"50.01215000","longitude":"19.58536000","wikiDataId":"Q11734451"},{"id":86590,"name":"Kamienica","stateId":1635,"stateCode":"MA","stateName":"Lesser Poland Voivodeship","countryId":176,"countryCode":"PL","countryName":"Poland","latitude":"49.57533000","longitude":"20.34505000","wikiDataId":"Q751812"},{"id":86604,"name":"Kamionka Wielka","stateId":1635,"stateCode":"MA","stateName":"Lesser Poland Voivodeship","countryId":176,"countryCode":"PL","countryName":"Poland","latitude":"49.56848000","longitude":"20.82364000","wikiDataId":"Q991887"},{"id":86619,"name":"Kasina Wielka","stateId":1635,"stateCode":"MA","stateName":"Lesser Poland Voivodeship","countryId":176,"countryCode":"PL","countryName":"Poland","latitude":"49.72969000","longitude":"20.13554000","wikiDataId":"Q749921"},{"id":86620,"name":"Kaszów","stateId":1635,"stateCode":"MA","stateName":"Lesser Poland Voivodeship","countryId":176,"countryCode":"PL","countryName":"Poland","latitude":"50.03884000","longitude":"19.71934000","wikiDataId":"Q3078847"},{"id":86859,"name":"Kęty","stateId":1635,"stateCode":"MA","stateName":"Lesser Poland Voivodeship","countryId":176,"countryCode":"PL","countryName":"Poland","latitude":"49.88214000","longitude":"19.22333000","wikiDataId":"Q773227"},{"id":86642,"name":"Klecza Dolna","stateId":1635,"stateCode":"MA","stateName":"Lesser Poland Voivodeship","countryId":176,"countryCode":"PL","countryName":"Poland","latitude":"49.88291000","longitude":"19.53764000","wikiDataId":"Q2311129"},{"id":86649,"name":"Klikuszowa","stateId":1635,"stateCode":"MA","stateName":"Lesser Poland Voivodeship","countryId":176,"countryCode":"PL","countryName":"Poland","latitude":"49.51930000","longitude":"19.98490000","wikiDataId":"Q6420863"},{"id":86651,"name":"Klimontów","stateId":1635,"stateCode":"MA","stateName":"Lesser Poland Voivodeship","countryId":176,"countryCode":"PL","countryName":"Poland","latitude":"50.22843000","longitude":"20.31990000","wikiDataId":"Q6420933"},{"id":86654,"name":"Klucze","stateId":1635,"stateCode":"MA","stateName":"Lesser Poland Voivodeship","countryId":176,"countryCode":"PL","countryName":"Poland","latitude":"50.33565000","longitude":"19.56236000","wikiDataId":"Q750358"},{"id":86656,"name":"Kluszkowce","stateId":1635,"stateCode":"MA","stateName":"Lesser Poland Voivodeship","countryId":176,"countryCode":"PL","countryName":"Poland","latitude":"49.45100000","longitude":"20.30179000","wikiDataId":"Q2381328"},{"id":86860,"name":"Kłaj","stateId":1635,"stateCode":"MA","stateName":"Lesser Poland Voivodeship","countryId":176,"countryCode":"PL","countryName":"Poland","latitude":"49.99246000","longitude":"20.29904000","wikiDataId":"Q773227"},{"id":86664,"name":"Kobylanka","stateId":1635,"stateCode":"MA","stateName":"Lesser Poland Voivodeship","countryId":176,"countryCode":"PL","countryName":"Poland","latitude":"49.66891000","longitude":"21.22293000","wikiDataId":"Q6424564"},{"id":86675,"name":"Kokotów","stateId":1635,"stateCode":"MA","stateName":"Lesser Poland Voivodeship","countryId":176,"countryCode":"PL","countryName":"Poland","latitude":"50.01254000","longitude":"20.07829000","wikiDataId":"Q4177334"},{"id":86709,"name":"Korzenna","stateId":1635,"stateCode":"MA","stateName":"Lesser Poland Voivodeship","countryId":176,"countryCode":"PL","countryName":"Poland","latitude":"49.68635000","longitude":"20.84355000","wikiDataId":"Q1950743"},{"id":86755,"name":"Kościelisko","stateId":1635,"stateCode":"MA","stateName":"Lesser Poland Voivodeship","countryId":176,"countryCode":"PL","countryName":"Poland","latitude":"49.29073000","longitude":"19.88929000","wikiDataId":"Q913909"},{"id":86718,"name":"Koszyce","stateId":1635,"stateCode":"MA","stateName":"Lesser Poland Voivodeship","countryId":176,"countryCode":"PL","countryName":"Poland","latitude":"49.97226000","longitude":"20.94166000","wikiDataId":"Q62868"},{"id":86719,"name":"Koszyce Wielkie","stateId":1635,"stateCode":"MA","stateName":"Lesser Poland Voivodeship","countryId":176,"countryCode":"PL","countryName":"Poland","latitude":"49.98076000","longitude":"20.94552000","wikiDataId":"Q6433708"},{"id":86739,"name":"Kozłów","stateId":1635,"stateCode":"MA","stateName":"Lesser Poland Voivodeship","countryId":176,"countryCode":"PL","countryName":"Poland","latitude":"50.48394000","longitude":"20.02456000","wikiDataId":"Q2847280"},{"id":86763,"name":"Kraków","stateId":1635,"stateCode":"MA","stateName":"Lesser Poland Voivodeship","countryId":176,"countryCode":"PL","countryName":"Poland","latitude":"50.07262000","longitude":"19.93250000","wikiDataId":"Q741667"},{"id":86787,"name":"Krościenko nad Dunajcem","stateId":1635,"stateCode":"MA","stateName":"Lesser Poland Voivodeship","countryId":176,"countryCode":"PL","countryName":"Poland","latitude":"49.44081000","longitude":"20.42624000","wikiDataId":"Q2586135"},{"id":86788,"name":"Krośnica","stateId":1635,"stateCode":"MA","stateName":"Lesser Poland Voivodeship","countryId":176,"countryCode":"PL","countryName":"Poland","latitude":"49.44787000","longitude":"20.33956000","wikiDataId":"Q6439132"},{"id":86795,"name":"Krynica-Zdrój","stateId":1635,"stateCode":"MA","stateName":"Lesser Poland Voivodeship","countryId":176,"countryCode":"PL","countryName":"Poland","latitude":"49.42225000","longitude":"20.95942000","wikiDataId":"Q259497"},{"id":86799,"name":"Kryspinów","stateId":1635,"stateCode":"MA","stateName":"Lesser Poland Voivodeship","countryId":176,"countryCode":"PL","countryName":"Poland","latitude":"50.04380000","longitude":"19.79822000","wikiDataId":"Q3263231"},{"id":86801,"name":"Krzczonów","stateId":1635,"stateCode":"MA","stateName":"Lesser Poland Voivodeship","countryId":176,"countryCode":"PL","countryName":"Poland","latitude":"49.73813000","longitude":"19.91821000","wikiDataId":"Q6439891"},{"id":86827,"name":"Krzęcin","stateId":1635,"stateCode":"MA","stateName":"Lesser Poland Voivodeship","countryId":176,"countryCode":"PL","countryName":"Poland","latitude":"49.94316000","longitude":"19.74157000","wikiDataId":"Q6440422"},{"id":86804,"name":"Krzeczów","stateId":1635,"stateCode":"MA","stateName":"Lesser Poland Voivodeship","countryId":176,"countryCode":"PL","countryName":"Poland","latitude":"49.98876000","longitude":"20.48779000","wikiDataId":"Q6439923"},{"id":86812,"name":"Krzeszów","stateId":1635,"stateCode":"MA","stateName":"Lesser Poland Voivodeship","countryId":176,"countryCode":"PL","countryName":"Poland","latitude":"49.75915000","longitude":"19.48915000","wikiDataId":"Q6440009"},{"id":86808,"name":"Krzeszowice","stateId":1635,"stateCode":"MA","stateName":"Lesser Poland Voivodeship","countryId":176,"countryCode":"PL","countryName":"Poland","latitude":"50.14248000","longitude":"19.63223000","wikiDataId":"Q146509"},{"id":86816,"name":"Krzyszkowice","stateId":1635,"stateCode":"MA","stateName":"Lesser Poland Voivodeship","countryId":176,"countryCode":"PL","countryName":"Poland","latitude":"49.88346000","longitude":"19.92285000","wikiDataId":"Q4555963"},{"id":86817,"name":"Krzywaczka","stateId":1635,"stateCode":"MA","stateName":"Lesser Poland Voivodeship","countryId":176,"countryCode":"PL","countryName":"Poland","latitude":"49.89353000","longitude":"19.83221000","wikiDataId":"Q6440266"},{"id":86836,"name":"Kuków","stateId":1635,"stateCode":"MA","stateName":"Lesser Poland Voivodeship","countryId":176,"countryCode":"PL","countryName":"Poland","latitude":"49.73252000","longitude":"19.48485000","wikiDataId":"Q4504139"},{"id":86848,"name":"Kwaczała","stateId":1635,"stateCode":"MA","stateName":"Lesser Poland Voivodeship","countryId":176,"countryCode":"PL","countryName":"Poland","latitude":"50.06408000","longitude":"19.49215000","wikiDataId":"Q2235604"},{"id":86868,"name":"Lachowice","stateId":1635,"stateCode":"MA","stateName":"Lesser Poland Voivodeship","countryId":176,"countryCode":"PL","countryName":"Poland","latitude":"49.71555000","longitude":"19.47455000","wikiDataId":"Q2626357"},{"id":86870,"name":"Lanckorona","stateId":1635,"stateCode":"MA","stateName":"Lesser Poland Voivodeship","countryId":176,"countryCode":"PL","countryName":"Poland","latitude":"49.84496000","longitude":"19.71578000","wikiDataId":"Q3493672"},{"id":86871,"name":"Lasek","stateId":1635,"stateCode":"MA","stateName":"Lesser Poland Voivodeship","countryId":176,"countryCode":"PL","countryName":"Poland","latitude":"49.50883000","longitude":"19.98078000","wikiDataId":"Q6492925"},{"id":86872,"name":"Laskowa","stateId":1635,"stateCode":"MA","stateName":"Lesser Poland Voivodeship","countryId":176,"countryCode":"PL","countryName":"Poland","latitude":"49.76147000","longitude":"20.45045000","wikiDataId":"Q2049768"},{"id":86887,"name":"Leńcze","stateId":1635,"stateCode":"MA","stateName":"Lesser Poland Voivodeship","countryId":176,"countryCode":"PL","countryName":"Poland","latitude":"49.89895000","longitude":"19.73539000","wikiDataId":"Q6538269"},{"id":86891,"name":"Leśnica","stateId":1635,"stateCode":"MA","stateName":"Lesser Poland Voivodeship","countryId":176,"countryCode":"PL","countryName":"Poland","latitude":"49.40092000","longitude":"20.06001000","wikiDataId":"Q6538313"},{"id":86896,"name":"Libertów","stateId":1635,"stateCode":"MA","stateName":"Lesser Poland Voivodeship","countryId":176,"countryCode":"PL","countryName":"Poland","latitude":"49.97242000","longitude":"19.89461000","wikiDataId":"Q674352"},{"id":86897,"name":"Libiąż","stateId":1635,"stateCode":"MA","stateName":"Lesser Poland Voivodeship","countryId":176,"countryCode":"PL","countryName":"Poland","latitude":"50.10396000","longitude":"19.31568000","wikiDataId":"Q991998"},{"id":86902,"name":"Limanowa","stateId":1635,"stateCode":"MA","stateName":"Lesser Poland Voivodeship","countryId":176,"countryCode":"PL","countryName":"Poland","latitude":"49.70594000","longitude":"20.42204000","wikiDataId":"Q324964"},{"id":86908,"name":"Lipinki","stateId":1635,"stateCode":"MA","stateName":"Lesser Poland Voivodeship","countryId":176,"countryCode":"PL","countryName":"Poland","latitude":"49.67296000","longitude":"21.29288000","wikiDataId":"Q4396865"},{"id":86913,"name":"Lipnica Mała","stateId":1635,"stateCode":"MA","stateName":"Lesser Poland Voivodeship","countryId":176,"countryCode":"PL","countryName":"Poland","latitude":"49.51507000","longitude":"19.63497000","wikiDataId":"Q279516"},{"id":86914,"name":"Lipnica Wielka","stateId":1635,"stateCode":"MA","stateName":"Lesser Poland Voivodeship","countryId":176,"countryCode":"PL","countryName":"Poland","latitude":"49.70489000","longitude":"20.86844000","wikiDataId":"Q951028"},{"id":86915,"name":"Lipnik","stateId":1635,"stateCode":"MA","stateName":"Lesser Poland Voivodeship","countryId":176,"countryCode":"PL","countryName":"Poland","latitude":"49.78902000","longitude":"20.08455000","wikiDataId":"Q6556606"},{"id":86926,"name":"Lisia Góra","stateId":1635,"stateCode":"MA","stateName":"Lesser Poland Voivodeship","countryId":176,"countryCode":"PL","countryName":"Poland","latitude":"50.08039000","longitude":"21.04397000","wikiDataId":"Q2084333"},{"id":86928,"name":"Liszki","stateId":1635,"stateCode":"MA","stateName":"Lesser Poland Voivodeship","countryId":176,"countryCode":"PL","countryName":"Poland","latitude":"50.03884000","longitude":"19.76835000","wikiDataId":"Q549862"},{"id":86942,"name":"Lubień","stateId":1635,"stateCode":"MA","stateName":"Lesser Poland Voivodeship","countryId":176,"countryCode":"PL","countryName":"Poland","latitude":"49.71921000","longitude":"19.97847000","wikiDataId":"Q1992130"},{"id":86952,"name":"Lubomierz","stateId":1635,"stateCode":"MA","stateName":"Lesser Poland Voivodeship","countryId":176,"countryCode":"PL","countryName":"Poland","latitude":"49.60854000","longitude":"20.20214000","wikiDataId":"Q6695500"},{"id":86965,"name":"Ludźmierz","stateId":1635,"stateCode":"MA","stateName":"Lesser Poland Voivodeship","countryId":176,"countryCode":"PL","countryName":"Poland","latitude":"49.46656000","longitude":"19.98250000","wikiDataId":"Q1875493"},{"id":86966,"name":"Luszowice","stateId":1635,"stateCode":"MA","stateName":"Lesser Poland Voivodeship","countryId":176,"countryCode":"PL","countryName":"Poland","latitude":"50.17415000","longitude":"19.40426000","wikiDataId":"Q2587208"},{"id":88756,"name":"Łabowa","stateId":1635,"stateCode":"MA","stateName":"Lesser Poland Voivodeship","countryId":176,"countryCode":"PL","countryName":"Poland","latitude":"49.52766000","longitude":"20.85497000","wikiDataId":"Q345163"},{"id":88812,"name":"Łącko","stateId":1635,"stateCode":"MA","stateName":"Lesser Poland Voivodeship","countryId":176,"countryCode":"PL","countryName":"Poland","latitude":"49.55757000","longitude":"20.43586000","wikiDataId":"Q8081149"},{"id":88813,"name":"Łączany","stateId":1635,"stateCode":"MA","stateName":"Lesser Poland Voivodeship","countryId":176,"countryCode":"PL","countryName":"Poland","latitude":"49.98407000","longitude":"19.57867000","wikiDataId":"Q1921107"},{"id":88765,"name":"Łapanów","stateId":1635,"stateCode":"MA","stateName":"Lesser Poland Voivodeship","countryId":176,"countryCode":"PL","countryName":"Poland","latitude":"49.86538000","longitude":"20.29149000","wikiDataId":"Q960664"},{"id":88766,"name":"Łapczyca","stateId":1635,"stateCode":"MA","stateName":"Lesser Poland Voivodeship","countryId":176,"countryCode":"PL","countryName":"Poland","latitude":"49.95994000","longitude":"20.38445000","wikiDataId":"Q8080451"},{"id":88767,"name":"Łapsze Niżne","stateId":1635,"stateCode":"MA","stateName":"Lesser Poland Voivodeship","countryId":176,"countryCode":"PL","countryName":"Poland","latitude":"49.39807000","longitude":"20.24343000","wikiDataId":"Q345216"},{"id":88828,"name":"Łętownia","stateId":1635,"stateCode":"MA","stateName":"Lesser Poland Voivodeship","countryId":176,"countryCode":"PL","countryName":"Poland","latitude":"49.69745000","longitude":"19.87109000","wikiDataId":"Q8081385"},{"id":88790,"name":"Łopuszna","stateId":1635,"stateCode":"MA","stateName":"Lesser Poland Voivodeship","countryId":176,"countryCode":"PL","countryName":"Poland","latitude":"49.47281000","longitude":"20.13021000","wikiDataId":"Q8080751"},{"id":88794,"name":"Łososina Dolna","stateId":1635,"stateCode":"MA","stateName":"Lesser Poland Voivodeship","countryId":176,"countryCode":"PL","countryName":"Poland","latitude":"49.74977000","longitude":"20.63129000","wikiDataId":"Q345442"},{"id":88802,"name":"Łukowa","stateId":1635,"stateCode":"MA","stateName":"Lesser Poland Voivodeship","countryId":176,"countryCode":"PL","countryName":"Poland","latitude":"50.09300000","longitude":"20.97548000","wikiDataId":"Q8081013"},{"id":88804,"name":"Łukowica","stateId":1635,"stateCode":"MA","stateName":"Lesser Poland Voivodeship","countryId":176,"countryCode":"PL","countryName":"Poland","latitude":"49.61110000","longitude":"20.48289000","wikiDataId":"Q2460478"},{"id":88806,"name":"Łużna","stateId":1635,"stateCode":"MA","stateName":"Lesser Poland Voivodeship","countryId":176,"countryCode":"PL","countryName":"Poland","latitude":"49.71288000","longitude":"21.04637000","wikiDataId":"Q2717964"},{"id":86984,"name":"Maków Podhalański","stateId":1635,"stateCode":"MA","stateName":"Lesser Poland Voivodeship","countryId":176,"countryCode":"PL","countryName":"Poland","latitude":"49.73008000","longitude":"19.67711000","wikiDataId":"Q1280822"},{"id":86988,"name":"Malec","stateId":1635,"stateCode":"MA","stateName":"Lesser Poland Voivodeship","countryId":176,"countryCode":"PL","countryName":"Poland","latitude":"49.92106000","longitude":"19.24530000","wikiDataId":"Q6742948"},{"id":86990,"name":"Maniowy","stateId":1635,"stateCode":"MA","stateName":"Lesser Poland Voivodeship","countryId":176,"countryCode":"PL","countryName":"Poland","latitude":"49.45976000","longitude":"20.26454000","wikiDataId":"Q2461574"},{"id":87002,"name":"Maszkienice","stateId":1635,"stateCode":"MA","stateName":"Lesser Poland Voivodeship","countryId":176,"countryCode":"PL","countryName":"Poland","latitude":"49.98920000","longitude":"20.68657000","wikiDataId":"Q628357"},{"id":87125,"name":"Mędrzechów","stateId":1635,"stateCode":"MA","stateName":"Lesser Poland Voivodeship","countryId":176,"countryCode":"PL","countryName":"Poland","latitude":"50.28221000","longitude":"20.94749000","wikiDataId":"Q2279475"},{"id":87126,"name":"Mętków","stateId":1635,"stateCode":"MA","stateName":"Lesser Poland Voivodeship","countryId":176,"countryCode":"PL","countryName":"Poland","latitude":"50.05251000","longitude":"19.37525000","wikiDataId":"Q2685911"},{"id":87020,"name":"Michałowice","stateId":1635,"stateCode":"MA","stateName":"Lesser Poland Voivodeship","countryId":176,"countryCode":"PL","countryName":"Poland","latitude":"50.15898000","longitude":"19.98044000","wikiDataId":"Q6836102"},{"id":87026,"name":"Miechów","stateId":1635,"stateCode":"MA","stateName":"Lesser Poland Voivodeship","countryId":176,"countryCode":"PL","countryName":"Poland","latitude":"50.35648000","longitude":"20.02788000","wikiDataId":"Q324927"},{"id":87027,"name":"Miechów Charsznica","stateId":1635,"stateCode":"MA","stateName":"Lesser Poland Voivodeship","countryId":176,"countryCode":"PL","countryName":"Poland","latitude":"50.39599000","longitude":"19.95031000","wikiDataId":"Q324927"},{"id":87067,"name":"Miękinia","stateId":1635,"stateCode":"MA","stateName":"Lesser Poland Voivodeship","countryId":176,"countryCode":"PL","countryName":"Poland","latitude":"50.15557000","longitude":"19.60871000","wikiDataId":"Q6885084"},{"id":87077,"name":"Mników","stateId":1635,"stateCode":"MA","stateName":"Lesser Poland Voivodeship","countryId":176,"countryCode":"PL","countryName":"Poland","latitude":"50.06044000","longitude":"19.72595000","wikiDataId":"Q6886000"},{"id":87082,"name":"Modlnica","stateId":1635,"stateCode":"MA","stateName":"Lesser Poland Voivodeship","countryId":176,"countryCode":"PL","countryName":"Poland","latitude":"50.12958000","longitude":"19.86461000","wikiDataId":"Q2949921"},{"id":87083,"name":"Modlniczka","stateId":1635,"stateCode":"MA","stateName":"Lesser Poland Voivodeship","countryId":176,"countryCode":"PL","countryName":"Poland","latitude":"50.11739000","longitude":"19.85530000","wikiDataId":"Q368919"},{"id":87085,"name":"Mogilany","stateId":1635,"stateCode":"MA","stateName":"Lesser Poland Voivodeship","countryId":176,"countryCode":"PL","countryName":"Poland","latitude":"49.93890000","longitude":"19.88972000","wikiDataId":"Q281508"},{"id":87098,"name":"Moszczenica","stateId":1635,"stateCode":"MA","stateName":"Lesser Poland Voivodeship","countryId":176,"countryCode":"PL","countryName":"Poland","latitude":"49.73668000","longitude":"21.09238000","wikiDataId":"Q6917056"},{"id":87109,"name":"Mszana Dolna","stateId":1635,"stateCode":"MA","stateName":"Lesser Poland Voivodeship","countryId":176,"countryCode":"PL","countryName":"Poland","latitude":"49.67432000","longitude":"20.07992000","wikiDataId":"Q731325"},{"id":87110,"name":"Mszana Górna","stateId":1635,"stateCode":"MA","stateName":"Lesser Poland Voivodeship","countryId":176,"countryCode":"PL","countryName":"Poland","latitude":"49.66202000","longitude":"20.09734000","wikiDataId":"Q3373062"},{"id":87115,"name":"Muszyna","stateId":1635,"stateCode":"MA","stateName":"Lesser Poland Voivodeship","countryId":176,"countryCode":"PL","countryName":"Poland","latitude":"49.35661000","longitude":"20.89718000","wikiDataId":"Q1642884"},{"id":87122,"name":"Myślachowice","stateId":1635,"stateCode":"MA","stateName":"Lesser Poland Voivodeship","countryId":176,"countryCode":"PL","countryName":"Poland","latitude":"50.18514000","longitude":"19.48116000","wikiDataId":"Q2020135"},{"id":87123,"name":"Myślenice","stateId":1635,"stateCode":"MA","stateName":"Lesser Poland Voivodeship","countryId":176,"countryCode":"PL","countryName":"Poland","latitude":"49.83383000","longitude":"19.93830000","wikiDataId":"Q325550"},{"id":87137,"name":"Naprawa","stateId":1635,"stateCode":"MA","stateName":"Lesser Poland Voivodeship","countryId":176,"countryCode":"PL","countryName":"Poland","latitude":"49.64657000","longitude":"19.87916000","wikiDataId":"Q6965126"},{"id":87142,"name":"Nawojowa","stateId":1635,"stateCode":"MA","stateName":"Lesser Poland Voivodeship","countryId":176,"countryCode":"PL","countryName":"Poland","latitude":"49.56686000","longitude":"20.73927000","wikiDataId":"Q1579038"},{"id":87145,"name":"Nidek","stateId":1635,"stateCode":"MA","stateName":"Lesser Poland Voivodeship","countryId":176,"countryCode":"PL","countryName":"Poland","latitude":"49.90492000","longitude":"19.32461000","wikiDataId":"Q2325130"},{"id":87154,"name":"Niedomice","stateId":1635,"stateCode":"MA","stateName":"Lesser Poland Voivodeship","countryId":176,"countryCode":"PL","countryName":"Poland","latitude":"50.10737000","longitude":"20.89548000","wikiDataId":"Q7031204"},{"id":87156,"name":"Niedzica","stateId":1635,"stateCode":"MA","stateName":"Lesser Poland Voivodeship","countryId":176,"countryCode":"PL","countryName":"Poland","latitude":"49.41008000","longitude":"20.30273000","wikiDataId":"Q303214"},{"id":87159,"name":"Niedźwiedź","stateId":1635,"stateCode":"MA","stateName":"Lesser Poland Voivodeship","countryId":176,"countryCode":"PL","countryName":"Poland","latitude":"49.62100000","longitude":"20.07794000","wikiDataId":"Q11791424"},{"id":87167,"name":"Niepołomice","stateId":1635,"stateCode":"MA","stateName":"Lesser Poland Voivodeship","countryId":176,"countryCode":"PL","countryName":"Poland","latitude":"50.04066000","longitude":"20.22257000","wikiDataId":"Q989498"},{"id":87172,"name":"Nowa Góra","stateId":1635,"stateCode":"MA","stateName":"Lesser Poland Voivodeship","countryId":176,"countryCode":"PL","countryName":"Poland","latitude":"50.17305000","longitude":"19.59120000","wikiDataId":"Q610917"},{"id":87177,"name":"Nowa Wieś","stateId":1635,"stateCode":"MA","stateName":"Lesser Poland Voivodeship","countryId":176,"countryCode":"PL","countryName":"Poland","latitude":"49.90746000","longitude":"19.21646000","wikiDataId":"Q1662930"},{"id":87181,"name":"Nowe Brzesko","stateId":1635,"stateCode":"MA","stateName":"Lesser Poland Voivodeship","countryId":176,"countryCode":"PL","countryName":"Poland","latitude":"50.13222000","longitude":"20.37663000","wikiDataId":"Q2341047"},{"id":87206,"name":"Nowy Sącz","stateId":1635,"stateCode":"MA","stateName":"Lesser Poland Voivodeship","countryId":176,"countryCode":"PL","countryName":"Poland","latitude":"49.62177000","longitude":"20.69705000","wikiDataId":"Q802"},{"id":87207,"name":"Nowy Targ","stateId":1635,"stateCode":"MA","stateName":"Lesser Poland Voivodeship","countryId":176,"countryCode":"PL","countryName":"Poland","latitude":"49.47783000","longitude":"20.03228000","wikiDataId":"Q231593"},{"id":87209,"name":"Nowy Wiśnicz","stateId":1635,"stateCode":"MA","stateName":"Lesser Poland Voivodeship","countryId":176,"countryCode":"PL","countryName":"Poland","latitude":"49.91465000","longitude":"20.46109000","wikiDataId":"Q2200093"},{"id":87225,"name":"Ochojno","stateId":1635,"stateCode":"MA","stateName":"Lesser Poland Voivodeship","countryId":176,"countryCode":"PL","countryName":"Poland","latitude":"49.95255000","longitude":"19.97452000","wikiDataId":"Q7076365"},{"id":87227,"name":"Ochotnica Dolna","stateId":1635,"stateCode":"MA","stateName":"Lesser Poland Voivodeship","countryId":176,"countryCode":"PL","countryName":"Poland","latitude":"49.52682000","longitude":"20.34265000","wikiDataId":"Q2932905"},{"id":87233,"name":"Okocim","stateId":1635,"stateCode":"MA","stateName":"Lesser Poland Voivodeship","countryId":176,"countryCode":"PL","countryName":"Poland","latitude":"49.94890000","longitude":"20.60160000","wikiDataId":"Q2017377"},{"id":87237,"name":"Olesno","stateId":1635,"stateCode":"MA","stateName":"Lesser Poland Voivodeship","countryId":176,"countryCode":"PL","countryName":"Poland","latitude":"50.20152000","longitude":"20.92578000","wikiDataId":"Q2460226"},{"id":87242,"name":"Olkusz","stateId":1635,"stateCode":"MA","stateName":"Lesser Poland Voivodeship","countryId":176,"countryCode":"PL","countryName":"Poland","latitude":"50.28130000","longitude":"19.56503000","wikiDataId":"Q764943"},{"id":87243,"name":"Olszana","stateId":1635,"stateCode":"MA","stateName":"Lesser Poland Voivodeship","countryId":176,"countryCode":"PL","countryName":"Poland","latitude":"49.56748000","longitude":"20.52126000","wikiDataId":"Q11798098"},{"id":87251,"name":"Olszówka","stateId":1635,"stateCode":"MA","stateName":"Lesser Poland Voivodeship","countryId":176,"countryCode":"PL","countryName":"Poland","latitude":"49.61455000","longitude":"20.02885000","wikiDataId":"Q616551"},{"id":87323,"name":"Ołpiny","stateId":1635,"stateCode":"MA","stateName":"Lesser Poland Voivodeship","countryId":176,"countryCode":"PL","countryName":"Poland","latitude":"49.80686000","longitude":"21.20464000","wikiDataId":"Q2056440"},{"id":87278,"name":"Osieczany","stateId":1635,"stateCode":"MA","stateName":"Lesser Poland Voivodeship","countryId":176,"countryCode":"PL","countryName":"Poland","latitude":"49.84252000","longitude":"19.98207000","wikiDataId":"Q4557031"},{"id":87284,"name":"Osiek","stateId":1635,"stateCode":"MA","stateName":"Lesser Poland Voivodeship","countryId":176,"countryCode":"PL","countryName":"Poland","latitude":"50.24353000","longitude":"19.60047000","wikiDataId":"Q7106763"},{"id":87291,"name":"Osielec","stateId":1635,"stateCode":"MA","stateName":"Lesser Poland Voivodeship","countryId":176,"countryCode":"PL","countryName":"Poland","latitude":"49.68079000","longitude":"19.78243000","wikiDataId":"Q2690943"},{"id":87314,"name":"Ostrężnica","stateId":1635,"stateCode":"MA","stateName":"Lesser Poland Voivodeship","countryId":176,"countryCode":"PL","countryName":"Poland","latitude":"50.19262000","longitude":"19.57077000","wikiDataId":"Q3486666"},{"id":87302,"name":"Ostrowsko","stateId":1635,"stateCode":"MA","stateName":"Lesser Poland Voivodeship","countryId":176,"countryCode":"PL","countryName":"Poland","latitude":"49.47616000","longitude":"20.10052000","wikiDataId":"Q7107848"},{"id":87325,"name":"Oświęcim","stateId":1635,"stateCode":"MA","stateName":"Lesser Poland Voivodeship","countryId":176,"countryCode":"PL","countryName":"Poland","latitude":"50.03437000","longitude":"19.21037000","wikiDataId":"Q7342"},{"id":87339,"name":"Palcza","stateId":1635,"stateCode":"MA","stateName":"Lesser Poland Voivodeship","countryId":176,"countryCode":"PL","countryName":"Poland","latitude":"49.80454000","longitude":"19.74389000","wikiDataId":"Q7127039"},{"id":87354,"name":"Pawlikowice","stateId":1635,"stateCode":"MA","stateName":"Lesser Poland Voivodeship","countryId":176,"countryCode":"PL","countryName":"Poland","latitude":"49.95310000","longitude":"20.05486000","wikiDataId":"Q7156261"},{"id":87361,"name":"Pcim","stateId":1635,"stateCode":"MA","stateName":"Lesser Poland Voivodeship","countryId":176,"countryCode":"PL","countryName":"Poland","latitude":"49.75166000","longitude":"19.97108000","wikiDataId":"Q429"},{"id":87375,"name":"Piekary","stateId":1635,"stateCode":"MA","stateName":"Lesser Poland Voivodeship","countryId":176,"countryCode":"PL","countryName":"Poland","latitude":"50.02495000","longitude":"19.79616000","wikiDataId":"Q733810"},{"id":87377,"name":"Piekielnik","stateId":1635,"stateCode":"MA","stateName":"Lesser Poland Voivodeship","countryId":176,"countryCode":"PL","countryName":"Poland","latitude":"49.47688000","longitude":"19.76810000","wikiDataId":"Q831183"},{"id":87400,"name":"Piwniczna-Zdrój","stateId":1635,"stateCode":"MA","stateName":"Lesser Poland Voivodeship","countryId":176,"countryCode":"PL","countryName":"Poland","latitude":"49.44056000","longitude":"20.71423000","wikiDataId":"Q1280603"},{"id":87408,"name":"Pleśna","stateId":1635,"stateCode":"MA","stateName":"Lesser Poland Voivodeship","countryId":176,"countryCode":"PL","countryName":"Poland","latitude":"49.92642000","longitude":"20.94526000","wikiDataId":"Q2017869"},{"id":87863,"name":"Płaza","stateId":1635,"stateCode":"MA","stateName":"Lesser Poland Voivodeship","countryId":176,"countryCode":"PL","countryName":"Poland","latitude":"50.09988000","longitude":"19.46451000","wikiDataId":"Q3392149"},{"id":87415,"name":"Podegrodzie","stateId":1635,"stateCode":"MA","stateName":"Lesser Poland Voivodeship","countryId":176,"countryCode":"PL","countryName":"Poland","latitude":"49.57688000","longitude":"20.58855000","wikiDataId":"Q2460121"},{"id":87419,"name":"Podłęże","stateId":1635,"stateCode":"MA","stateName":"Lesser Poland Voivodeship","countryId":176,"countryCode":"PL","countryName":"Poland","latitude":"50.01458000","longitude":"20.16781000","wikiDataId":"Q7207251"},{"id":87418,"name":"Podwilk","stateId":1635,"stateCode":"MA","stateName":"Lesser Poland Voivodeship","countryId":176,"countryCode":"PL","countryName":"Poland","latitude":"49.54760000","longitude":"19.73874000","wikiDataId":"Q831065"},{"id":87424,"name":"Pogórska Wola","stateId":1635,"stateCode":"MA","stateName":"Lesser Poland Voivodeship","countryId":176,"countryCode":"PL","countryName":"Poland","latitude":"50.01855000","longitude":"21.15795000","wikiDataId":"Q7207737"},{"id":87421,"name":"Pogorzyce","stateId":1635,"stateCode":"MA","stateName":"Lesser Poland Voivodeship","countryId":176,"countryCode":"PL","countryName":"Poland","latitude":"50.10186000","longitude":"19.42228000","wikiDataId":"Q3393223"},{"id":87431,"name":"Polanka Wielka","stateId":1635,"stateCode":"MA","stateName":"Lesser Poland Voivodeship","countryId":176,"countryCode":"PL","countryName":"Poland","latitude":"49.98501000","longitude":"19.32615000","wikiDataId":"Q7208969"},{"id":87441,"name":"Ponikiew","stateId":1635,"stateCode":"MA","stateName":"Lesser Poland Voivodeship","countryId":176,"countryCode":"PL","countryName":"Poland","latitude":"49.83311000","longitude":"19.46571000","wikiDataId":"Q1974096"},{"id":87447,"name":"Porąbka Uszewska","stateId":1635,"stateCode":"MA","stateName":"Lesser Poland Voivodeship","countryId":176,"countryCode":"PL","countryName":"Poland","latitude":"49.94260000","longitude":"20.69052000","wikiDataId":"Q2410267"},{"id":87448,"name":"Poręba","stateId":1635,"stateCode":"MA","stateName":"Lesser Poland Voivodeship","countryId":176,"countryCode":"PL","countryName":"Poland","latitude":"49.79645000","longitude":"20.01718000","wikiDataId":"Q4557208"},{"id":87450,"name":"Poręba Spytkowska","stateId":1635,"stateCode":"MA","stateName":"Lesser Poland Voivodeship","countryId":176,"countryCode":"PL","countryName":"Poland","latitude":"49.93995000","longitude":"20.55405000","wikiDataId":"Q664970"},{"id":87451,"name":"Poręba Wielka","stateId":1635,"stateCode":"MA","stateName":"Lesser Poland Voivodeship","countryId":176,"countryCode":"PL","countryName":"Poland","latitude":"50.01116000","longitude":"19.28375000","wikiDataId":"Q7232910"},{"id":87445,"name":"Poronin","stateId":1635,"stateCode":"MA","stateName":"Lesser Poland Voivodeship","countryId":176,"countryCode":"PL","countryName":"Poland","latitude":"49.33781000","longitude":"20.00291000","wikiDataId":"Q763079"},{"id":87470,"name":"Powiat bocheński","stateId":1635,"stateCode":"MA","stateName":"Lesser Poland Voivodeship","countryId":176,"countryCode":"PL","countryName":"Poland","latitude":"49.96911000","longitude":"20.43078000","wikiDataId":"Q1147589"},{"id":87474,"name":"Powiat brzeski","stateId":1635,"stateCode":"MA","stateName":"Lesser Poland Voivodeship","countryId":176,"countryCode":"PL","countryName":"Poland","latitude":"49.97170000","longitude":"20.60572000","wikiDataId":"Q975454"},{"id":87487,"name":"Powiat chrzanowski","stateId":1635,"stateCode":"MA","stateName":"Lesser Poland Voivodeship","countryId":176,"countryCode":"PL","countryName":"Poland","latitude":"50.13565000","longitude":"19.40434000","wikiDataId":"Q1140756"},{"id":87496,"name":"Powiat dąbrowski","stateId":1635,"stateCode":"MA","stateName":"Lesser Poland Voivodeship","countryId":176,"countryCode":"PL","countryName":"Poland","latitude":"50.17572000","longitude":"20.97895000","wikiDataId":"Q1135380"},{"id":87507,"name":"Powiat gorlicki","stateId":1635,"stateCode":"MA","stateName":"Lesser Poland Voivodeship","countryId":176,"countryCode":"PL","countryName":"Poland","latitude":"49.66452000","longitude":"21.16842000","wikiDataId":"Q970547"},{"id":87550,"name":"Powiat krakowski","stateId":1635,"stateCode":"MA","stateName":"Lesser Poland Voivodeship","countryId":176,"countryCode":"PL","countryName":"Poland","latitude":"50.14347000","longitude":"19.91409000","wikiDataId":"Q1164890"},{"id":87570,"name":"Powiat limanowski","stateId":1635,"stateCode":"MA","stateName":"Lesser Poland Voivodeship","countryId":176,"countryCode":"PL","countryName":"Poland","latitude":"49.70761000","longitude":"20.42444000","wikiDataId":"Q1340585"},{"id":87583,"name":"Powiat miechowski","stateId":1635,"stateCode":"MA","stateName":"Lesser Poland Voivodeship","countryId":176,"countryCode":"PL","countryName":"Poland","latitude":"50.35715000","longitude":"20.03290000","wikiDataId":"Q1147610"},{"id":87594,"name":"Powiat myślenicki","stateId":1635,"stateCode":"MA","stateName":"Lesser Poland Voivodeship","countryId":176,"countryCode":"PL","countryName":"Poland","latitude":"49.83394000","longitude":"19.94482000","wikiDataId":"Q959228"},{"id":87605,"name":"Powiat nowosądecki","stateId":1635,"stateCode":"MA","stateName":"Lesser Poland Voivodeship","countryId":176,"countryCode":"PL","countryName":"Poland","latitude":"49.63467000","longitude":"20.69824000","wikiDataId":"Q1147602"},{"id":87606,"name":"Powiat nowotarski","stateId":1635,"stateCode":"MA","stateName":"Lesser Poland Voivodeship","countryId":176,"countryCode":"PL","countryName":"Poland","latitude":"49.47663000","longitude":"20.04305000","wikiDataId":"Q770911"},{"id":87613,"name":"Powiat olkuski","stateId":1635,"stateCode":"MA","stateName":"Lesser Poland Voivodeship","countryId":176,"countryCode":"PL","countryName":"Poland","latitude":"50.27932000","longitude":"19.55772000","wikiDataId":"Q1340613"},{"id":87627,"name":"Powiat oświęcimski","stateId":1635,"stateCode":"MA","stateName":"Lesser Poland Voivodeship","countryId":176,"countryCode":"PL","countryName":"Poland","latitude":"50.03796000","longitude":"19.22771000","wikiDataId":"Q1147618"},{"id":87641,"name":"Powiat proszowicki","stateId":1635,"stateCode":"MA","stateName":"Lesser Poland Voivodeship","countryId":176,"countryCode":"PL","countryName":"Poland","latitude":"50.19241000","longitude":"20.28413000","wikiDataId":"Q1147561"},{"id":87689,"name":"Powiat suski","stateId":1635,"stateCode":"MA","stateName":"Lesser Poland Voivodeship","countryId":176,"countryCode":"PL","countryName":"Poland","latitude":"49.74462000","longitude":"19.59103000","wikiDataId":"Q1280815"},{"id":87703,"name":"Powiat tarnowski","stateId":1635,"stateCode":"MA","stateName":"Lesser Poland Voivodeship","countryId":176,"countryCode":"PL","countryName":"Poland","latitude":"50.05449000","longitude":"20.90527000","wikiDataId":"Q1340642"},{"id":87704,"name":"Powiat tatrzański","stateId":1635,"stateCode":"MA","stateName":"Lesser Poland Voivodeship","countryId":176,"countryCode":"PL","countryName":"Poland","latitude":"49.30420000","longitude":"19.94800000","wikiDataId":"Q1147584"},{"id":87712,"name":"Powiat wadowicki","stateId":1635,"stateCode":"MA","stateName":"Lesser Poland Voivodeship","countryId":176,"countryCode":"PL","countryName":"Poland","latitude":"49.89032000","longitude":"19.48374000","wikiDataId":"Q1340573"},{"id":87717,"name":"Powiat wielicki","stateId":1635,"stateCode":"MA","stateName":"Lesser Poland Voivodeship","countryId":176,"countryCode":"PL","countryName":"Poland","latitude":"49.98570000","longitude":"20.05494000","wikiDataId":"Q609424"},{"id":87792,"name":"Proszowice","stateId":1635,"stateCode":"MA","stateName":"Lesser Poland Voivodeship","countryId":176,"countryCode":"PL","countryName":"Poland","latitude":"50.19275000","longitude":"20.28909000","wikiDataId":"Q324880"},{"id":87802,"name":"Przecieszyn","stateId":1635,"stateCode":"MA","stateName":"Lesser Poland Voivodeship","countryId":176,"countryCode":"PL","countryName":"Poland","latitude":"49.97838000","longitude":"19.17046000","wikiDataId":"Q7253310"},{"id":87803,"name":"Przeciszów","stateId":1635,"stateCode":"MA","stateName":"Lesser Poland Voivodeship","countryId":176,"countryCode":"PL","countryName":"Poland","latitude":"50.00647000","longitude":"19.37576000","wikiDataId":"Q2162627"},{"id":87809,"name":"Przeginia","stateId":1635,"stateCode":"MA","stateName":"Lesser Poland Voivodeship","countryId":176,"countryCode":"PL","countryName":"Poland","latitude":"50.23831000","longitude":"19.68853000","wikiDataId":"Q7253364"},{"id":87820,"name":"Przyborów","stateId":1635,"stateCode":"MA","stateName":"Lesser Poland Voivodeship","countryId":176,"countryCode":"PL","countryName":"Poland","latitude":"50.03035000","longitude":"20.66279000","wikiDataId":"Q7253533"},{"id":87830,"name":"Przytkowice","stateId":1635,"stateCode":"MA","stateName":"Lesser Poland Voivodeship","countryId":176,"countryCode":"PL","countryName":"Poland","latitude":"49.91785000","longitude":"19.68570000","wikiDataId":"Q7253731"},{"id":87840,"name":"Psary","stateId":1635,"stateCode":"MA","stateName":"Lesser Poland Voivodeship","countryId":176,"countryCode":"PL","countryName":"Poland","latitude":"50.17242000","longitude":"19.52953000","wikiDataId":"Q2061609"},{"id":87869,"name":"Raba Wyżna","stateId":1635,"stateCode":"MA","stateName":"Lesser Poland Voivodeship","countryId":176,"countryCode":"PL","countryName":"Poland","latitude":"49.56681000","longitude":"19.87967000","wikiDataId":"Q2701295"},{"id":87870,"name":"Rabka-Zdrój","stateId":1635,"stateCode":"MA","stateName":"Lesser Poland Voivodeship","countryId":176,"countryCode":"PL","countryName":"Poland","latitude":"49.60889000","longitude":"19.96654000","wikiDataId":"Q1005356"},{"id":87877,"name":"Racławice","stateId":1635,"stateCode":"MA","stateName":"Lesser Poland Voivodeship","countryId":176,"countryCode":"PL","countryName":"Poland","latitude":"50.19344000","longitude":"19.67686000","wikiDataId":"Q7279891"},{"id":88036,"name":"Rączna","stateId":1635,"stateCode":"MA","stateName":"Lesser Poland Voivodeship","countryId":176,"countryCode":"PL","countryName":"Poland","latitude":"50.00984000","longitude":"19.76784000","wikiDataId":"Q7386884"},{"id":87880,"name":"Radgoszcz","stateId":1635,"stateCode":"MA","stateName":"Lesser Poland Voivodeship","countryId":176,"countryCode":"PL","countryName":"Poland","latitude":"50.20580000","longitude":"21.11315000","wikiDataId":"Q1814199"},{"id":87905,"name":"Radłów","stateId":1635,"stateCode":"MA","stateName":"Lesser Poland Voivodeship","countryId":176,"countryCode":"PL","countryName":"Poland","latitude":"50.08419000","longitude":"20.84967000","wikiDataId":"Q1280983"},{"id":87883,"name":"Radocza","stateId":1635,"stateCode":"MA","stateName":"Lesser Poland Voivodeship","countryId":176,"countryCode":"PL","countryName":"Poland","latitude":"49.91774000","longitude":"19.47498000","wikiDataId":"Q668774"},{"id":87900,"name":"Radziszów","stateId":1635,"stateCode":"MA","stateName":"Lesser Poland Voivodeship","countryId":176,"countryCode":"PL","countryName":"Poland","latitude":"49.93531000","longitude":"19.81522000","wikiDataId":"Q2507235"},{"id":87908,"name":"Rajsko","stateId":1635,"stateCode":"MA","stateName":"Lesser Poland Voivodeship","countryId":176,"countryCode":"PL","countryName":"Poland","latitude":"50.01193000","longitude":"19.19294000","wikiDataId":"Q7286447"},{"id":87924,"name":"Regulice","stateId":1635,"stateCode":"MA","stateName":"Lesser Poland Voivodeship","countryId":176,"countryCode":"PL","countryName":"Poland","latitude":"50.08314000","longitude":"19.52785000","wikiDataId":"Q7309712"},{"id":87942,"name":"Roczyny","stateId":1635,"stateCode":"MA","stateName":"Lesser Poland Voivodeship","countryId":176,"countryCode":"PL","countryName":"Poland","latitude":"49.85370000","longitude":"19.31568000","wikiDataId":"Q2181013"},{"id":87953,"name":"Rokiciny","stateId":1635,"stateCode":"MA","stateName":"Lesser Poland Voivodeship","countryId":176,"countryCode":"PL","countryName":"Poland","latitude":"49.57243000","longitude":"19.92302000","wikiDataId":"Q617840"},{"id":87960,"name":"Ropa","stateId":1635,"stateCode":"MA","stateName":"Lesser Poland Voivodeship","countryId":176,"countryCode":"PL","countryName":"Poland","latitude":"49.59146000","longitude":"21.04431000","wikiDataId":"Q9311984"},{"id":87973,"name":"Rudawa","stateId":1635,"stateCode":"MA","stateName":"Lesser Poland Voivodeship","countryId":176,"countryCode":"PL","countryName":"Poland","latitude":"50.12151000","longitude":"19.71239000","wikiDataId":"Q147874"},{"id":87980,"name":"Rudnik","stateId":1635,"stateCode":"MA","stateName":"Lesser Poland Voivodeship","countryId":176,"countryCode":"PL","countryName":"Poland","latitude":"49.85243000","longitude":"19.84740000","wikiDataId":"Q606218"},{"id":87989,"name":"Rusocice","stateId":1635,"stateCode":"MA","stateName":"Lesser Poland Voivodeship","countryId":176,"countryCode":"PL","countryName":"Poland","latitude":"49.99604000","longitude":"19.60648000","wikiDataId":"Q7381073"},{"id":88003,"name":"Ryczów","stateId":1635,"stateCode":"MA","stateName":"Lesser Poland Voivodeship","countryId":176,"countryCode":"PL","countryName":"Poland","latitude":"49.98103000","longitude":"19.55017000","wikiDataId":"Q555297"},{"id":88006,"name":"Ryglice","stateId":1635,"stateCode":"MA","stateName":"Lesser Poland Voivodeship","countryId":176,"countryCode":"PL","countryName":"Poland","latitude":"49.87887000","longitude":"21.13748000","wikiDataId":"Q535163"},{"id":88013,"name":"Rytro","stateId":1635,"stateCode":"MA","stateName":"Lesser Poland Voivodeship","countryId":176,"countryCode":"PL","countryName":"Poland","latitude":"49.48904000","longitude":"20.66631000","wikiDataId":"Q936097"},{"id":88031,"name":"Rząska","stateId":1635,"stateCode":"MA","stateName":"Lesser Poland Voivodeship","countryId":176,"countryCode":"PL","countryName":"Poland","latitude":"50.09713000","longitude":"19.84509000","wikiDataId":"Q2697149"},{"id":88021,"name":"Rzepiennik Strzyżewski","stateId":1635,"stateCode":"MA","stateName":"Lesser Poland Voivodeship","countryId":176,"countryCode":"PL","countryName":"Poland","latitude":"49.80542000","longitude":"21.03599000","wikiDataId":"Q2038797"},{"id":88023,"name":"Rzeszotary","stateId":1635,"stateCode":"MA","stateName":"Lesser Poland Voivodeship","countryId":176,"countryCode":"PL","countryName":"Poland","latitude":"49.94625000","longitude":"19.97280000","wikiDataId":"Q7385761"},{"id":88026,"name":"Rzezawa","stateId":1635,"stateCode":"MA","stateName":"Lesser Poland Voivodeship","countryId":176,"countryCode":"PL","countryName":"Poland","latitude":"49.98997000","longitude":"20.51508000","wikiDataId":"Q985703"},{"id":88029,"name":"Rzozów","stateId":1635,"stateCode":"MA","stateName":"Lesser Poland Voivodeship","countryId":176,"countryCode":"PL","countryName":"Poland","latitude":"49.95398000","longitude":"19.79668000","wikiDataId":"Q7385788"},{"id":88030,"name":"Rzyki","stateId":1635,"stateCode":"MA","stateName":"Lesser Poland Voivodeship","countryId":176,"countryCode":"PL","countryName":"Poland","latitude":"49.81129000","longitude":"19.39619000","wikiDataId":"Q925480"},{"id":88047,"name":"Sanka","stateId":1635,"stateCode":"MA","stateName":"Lesser Poland Voivodeship","countryId":176,"countryCode":"PL","countryName":"Poland","latitude":"50.06871000","longitude":"19.64596000","wikiDataId":"Q7418610"},{"id":88326,"name":"Sąspów","stateId":1635,"stateCode":"MA","stateName":"Lesser Poland Voivodeship","countryId":176,"countryCode":"PL","countryName":"Poland","latitude":"50.22887000","longitude":"19.77007000","wikiDataId":"Q1026856"},{"id":88330,"name":"Sękowa","stateId":1635,"stateCode":"MA","stateName":"Lesser Poland Voivodeship","countryId":176,"countryCode":"PL","countryName":"Poland","latitude":"49.62217000","longitude":"21.19769000","wikiDataId":"Q609329"},{"id":88061,"name":"Sidzina","stateId":1635,"stateCode":"MA","stateName":"Lesser Poland Voivodeship","countryId":176,"countryCode":"PL","countryName":"Poland","latitude":"49.59146000","longitude":"19.71119000","wikiDataId":"Q7509516"},{"id":88067,"name":"Siedliska","stateId":1635,"stateCode":"MA","stateName":"Lesser Poland Voivodeship","countryId":176,"countryCode":"PL","countryName":"Poland","latitude":"49.87163000","longitude":"20.99625000","wikiDataId":"Q7509699"},{"id":88073,"name":"Siemiechów","stateId":1635,"stateCode":"MA","stateName":"Lesser Poland Voivodeship","countryId":176,"countryCode":"PL","countryName":"Poland","latitude":"49.85359000","longitude":"20.90595000","wikiDataId":"Q7510976"},{"id":88078,"name":"Sieniawa","stateId":1635,"stateCode":"MA","stateName":"Lesser Poland Voivodeship","countryId":176,"countryCode":"PL","countryName":"Poland","latitude":"49.53947000","longitude":"19.93014000","wikiDataId":"Q7511078"},{"id":88084,"name":"Siepraw","stateId":1635,"stateCode":"MA","stateName":"Lesser Poland Voivodeship","countryId":176,"countryCode":"PL","countryName":"Poland","latitude":"49.91437000","longitude":"19.95864000","wikiDataId":"Q783679"},{"id":88086,"name":"Sieradza","stateId":1635,"stateCode":"MA","stateName":"Lesser Poland Voivodeship","countryId":176,"countryCode":"PL","countryName":"Poland","latitude":"50.13499000","longitude":"20.92947000","wikiDataId":"Q7511175"},{"id":88105,"name":"Skała","stateId":1635,"stateCode":"MA","stateName":"Lesser Poland Voivodeship","countryId":176,"countryCode":"PL","countryName":"Poland","latitude":"50.23052000","longitude":"19.85363000","wikiDataId":"Q1280559"},{"id":88102,"name":"Skawica","stateId":1635,"stateCode":"MA","stateName":"Lesser Poland Voivodeship","countryId":176,"countryCode":"PL","countryName":"Poland","latitude":"49.67718000","longitude":"19.62321000","wikiDataId":"Q7534211"},{"id":88103,"name":"Skawina","stateId":1635,"stateCode":"MA","stateName":"Lesser Poland Voivodeship","countryId":176,"countryCode":"PL","countryName":"Poland","latitude":"49.97524000","longitude":"19.82869000","wikiDataId":"Q301924"},{"id":88104,"name":"Skawinki","stateId":1635,"stateCode":"MA","stateName":"Lesser Poland Voivodeship","countryId":176,"countryCode":"PL","countryName":"Poland","latitude":"49.82281000","longitude":"19.71256000","wikiDataId":"Q2493957"},{"id":88110,"name":"Skomielna Czarna","stateId":1635,"stateCode":"MA","stateName":"Lesser Poland Voivodeship","countryId":176,"countryCode":"PL","countryName":"Poland","latitude":"49.72709000","longitude":"19.83633000","wikiDataId":"Q7536231"},{"id":88116,"name":"Skrzydlna","stateId":1635,"stateCode":"MA","stateName":"Lesser Poland Voivodeship","countryId":176,"countryCode":"PL","countryName":"Poland","latitude":"49.75343000","longitude":"20.18618000","wikiDataId":"Q7536728"},{"id":88117,"name":"Skrzyszów","stateId":1635,"stateCode":"MA","stateName":"Lesser Poland Voivodeship","countryId":176,"countryCode":"PL","countryName":"Poland","latitude":"49.99373000","longitude":"21.06139000","wikiDataId":"Q7536728"},{"id":88341,"name":"Słomniki","stateId":1635,"stateCode":"MA","stateName":"Lesser Poland Voivodeship","countryId":176,"countryCode":"PL","countryName":"Poland","latitude":"50.24012000","longitude":"20.08224000","wikiDataId":"Q1281172"},{"id":88342,"name":"Słopnice","stateId":1635,"stateCode":"MA","stateName":"Lesser Poland Voivodeship","countryId":176,"countryCode":"PL","countryName":"Poland","latitude":"49.68496000","longitude":"20.34325000","wikiDataId":"Q580622"},{"id":88351,"name":"Słupiec","stateId":1635,"stateCode":"MA","stateName":"Lesser Poland Voivodeship","countryId":176,"countryCode":"PL","countryName":"Poland","latitude":"50.32787000","longitude":"21.19374000","wikiDataId":"Q7667502"},{"id":88128,"name":"Smęgorzów","stateId":1635,"stateCode":"MA","stateName":"Lesser Poland Voivodeship","countryId":176,"countryCode":"PL","countryName":"Poland","latitude":"50.22843000","longitude":"21.00414000","wikiDataId":"Q7546851"},{"id":88151,"name":"Sosnowice","stateId":1635,"stateCode":"MA","stateName":"Lesser Poland Voivodeship","countryId":176,"countryCode":"PL","countryName":"Poland","latitude":"49.93995000","longitude":"19.71514000","wikiDataId":"Q302424"},{"id":88162,"name":"Spytkowice","stateId":1635,"stateCode":"MA","stateName":"Lesser Poland Voivodeship","countryId":176,"countryCode":"PL","countryName":"Poland","latitude":"49.99671000","longitude":"19.51103000","wikiDataId":"Q597884"},{"id":88166,"name":"Stanisław Dolny","stateId":1635,"stateCode":"MA","stateName":"Lesser Poland Voivodeship","countryId":176,"countryCode":"PL","countryName":"Poland","latitude":"49.90470000","longitude":"19.65334000","wikiDataId":"Q2116061"},{"id":88167,"name":"Stanisław Górny","stateId":1635,"stateCode":"MA","stateName":"Lesser Poland Voivodeship","countryId":176,"countryCode":"PL","countryName":"Poland","latitude":"49.91155000","longitude":"19.62931000","wikiDataId":"Q2585980"},{"id":88168,"name":"Stanisławice","stateId":1635,"stateCode":"MA","stateName":"Lesser Poland Voivodeship","countryId":176,"countryCode":"PL","countryName":"Poland","latitude":"49.98550000","longitude":"20.35123000","wikiDataId":"Q7599282"},{"id":88194,"name":"Stary Sącz","stateId":1635,"stateCode":"MA","stateName":"Lesser Poland Voivodeship","countryId":176,"countryCode":"PL","countryName":"Poland","latitude":"49.56364000","longitude":"20.63496000","wikiDataId":"Q1280257"},{"id":88196,"name":"Stary Wiśnicz","stateId":1635,"stateCode":"MA","stateName":"Lesser Poland Voivodeship","countryId":176,"countryCode":"PL","countryName":"Poland","latitude":"49.92548000","longitude":"20.48641000","wikiDataId":"Q7602848"},{"id":88216,"name":"Stronie","stateId":1635,"stateCode":"MA","stateName":"Lesser Poland Voivodeship","countryId":176,"countryCode":"PL","countryName":"Poland","latitude":"49.83056000","longitude":"19.67497000","wikiDataId":"Q2690015"},{"id":88237,"name":"Stróża","stateId":1635,"stateCode":"MA","stateName":"Lesser Poland Voivodeship","countryId":176,"countryCode":"PL","countryName":"Poland","latitude":"49.79628000","longitude":"19.92379000","wikiDataId":"Q597574"},{"id":88220,"name":"Stryszawa","stateId":1635,"stateCode":"MA","stateName":"Lesser Poland Voivodeship","countryId":176,"countryCode":"PL","countryName":"Poland","latitude":"49.71327000","longitude":"19.52185000","wikiDataId":"Q2677272"},{"id":88221,"name":"Stryszów","stateId":1635,"stateCode":"MA","stateName":"Lesser Poland Voivodeship","countryId":176,"countryCode":"PL","countryName":"Poland","latitude":"49.82569000","longitude":"19.61763000","wikiDataId":"Q3936086"},{"id":88248,"name":"Sucha Beskidzka","stateId":1635,"stateCode":"MA","stateName":"Lesser Poland Voivodeship","countryId":176,"countryCode":"PL","countryName":"Poland","latitude":"49.74188000","longitude":"19.59429000","wikiDataId":"Q745005"},{"id":88262,"name":"Sulęcin","stateId":1635,"stateCode":"MA","stateName":"Lesser Poland Voivodeship","countryId":176,"countryCode":"PL","countryName":"Poland","latitude":"52.44429000","longitude":"15.11676000","wikiDataId":"Q1113241"},{"id":88271,"name":"Sułkowice","stateId":1635,"stateCode":"MA","stateName":"Lesser Poland Voivodeship","countryId":176,"countryCode":"PL","countryName":"Poland","latitude":"49.84053000","longitude":"19.80097000","wikiDataId":"Q1003272"},{"id":88272,"name":"Sułoszowa","stateId":1635,"stateCode":"MA","stateName":"Lesser Poland Voivodeship","countryId":176,"countryCode":"PL","countryName":"Poland","latitude":"50.26789000","longitude":"19.73282000","wikiDataId":"Q5335679"},{"id":88863,"name":"Świątniki Górne","stateId":1635,"stateCode":"MA","stateName":"Lesser Poland Voivodeship","countryId":176,"countryCode":"PL","countryName":"Poland","latitude":"49.93429000","longitude":"19.95364000","wikiDataId":"Q1280261"},{"id":88284,"name":"Szaflary","stateId":1635,"stateCode":"MA","stateName":"Lesser Poland Voivodeship","countryId":176,"countryCode":"PL","countryName":"Poland","latitude":"49.42655000","longitude":"20.02713000","wikiDataId":"Q2381906"},{"id":88287,"name":"Szarów","stateId":1635,"stateCode":"MA","stateName":"Lesser Poland Voivodeship","countryId":176,"countryCode":"PL","countryName":"Poland","latitude":"49.99505000","longitude":"20.26960000","wikiDataId":"Q7664161"},{"id":88290,"name":"Szczawnica","stateId":1635,"stateCode":"MA","stateName":"Lesser Poland Voivodeship","countryId":176,"countryCode":"PL","countryName":"Poland","latitude":"49.42437000","longitude":"20.48487000","wikiDataId":"Q1000438"},{"id":88299,"name":"Szczucin","stateId":1635,"stateCode":"MA","stateName":"Lesser Poland Voivodeship","countryId":176,"countryCode":"PL","countryName":"Poland","latitude":"50.30957000","longitude":"21.07444000","wikiDataId":"Q1280869"},{"id":88301,"name":"Szczurowa","stateId":1635,"stateCode":"MA","stateName":"Lesser Poland Voivodeship","countryId":176,"countryCode":"PL","countryName":"Poland","latitude":"50.11915000","longitude":"20.63610000","wikiDataId":"Q1905890"},{"id":88309,"name":"Szerzyny","stateId":1635,"stateCode":"MA","stateName":"Lesser Poland Voivodeship","countryId":176,"countryCode":"PL","countryName":"Poland","latitude":"49.80919000","longitude":"21.24670000","wikiDataId":"Q2419941"},{"id":88323,"name":"Szynwałd","stateId":1635,"stateCode":"MA","stateName":"Lesser Poland Voivodeship","countryId":176,"countryCode":"PL","countryName":"Poland","latitude":"49.96767000","longitude":"21.12293000","wikiDataId":"Q9352757"},{"id":88355,"name":"Targanice","stateId":1635,"stateCode":"MA","stateName":"Lesser Poland Voivodeship","countryId":176,"countryCode":"PL","countryName":"Poland","latitude":"49.80575000","longitude":"19.32444000","wikiDataId":"Q2627736"},{"id":88356,"name":"Targowisko","stateId":1635,"stateCode":"MA","stateName":"Lesser Poland Voivodeship","countryId":176,"countryCode":"PL","countryName":"Poland","latitude":"49.98473000","longitude":"20.29346000","wikiDataId":"Q7685957"},{"id":88365,"name":"Tarnów","stateId":1635,"stateCode":"MA","stateName":"Lesser Poland Voivodeship","countryId":176,"countryCode":"PL","countryName":"Poland","latitude":"50.01381000","longitude":"20.98698000","wikiDataId":"Q106281"},{"id":88361,"name":"Tarnowiec","stateId":1635,"stateCode":"MA","stateName":"Lesser Poland Voivodeship","countryId":176,"countryCode":"PL","countryName":"Poland","latitude":"49.98164000","longitude":"20.98655000","wikiDataId":"Q7686444"},{"id":88372,"name":"Tenczynek","stateId":1635,"stateCode":"MA","stateName":"Lesser Poland Voivodeship","countryId":176,"countryCode":"PL","countryName":"Poland","latitude":"50.11986000","longitude":"19.61308000","wikiDataId":"Q147380"},{"id":88376,"name":"Tokarnia","stateId":1635,"stateCode":"MA","stateName":"Lesser Poland Voivodeship","countryId":176,"countryCode":"PL","countryName":"Poland","latitude":"49.72720000","longitude":"19.87161000","wikiDataId":"Q2013462"},{"id":88378,"name":"Tomaszkowice","stateId":1635,"stateCode":"MA","stateName":"Lesser Poland Voivodeship","countryId":176,"countryCode":"PL","countryName":"Poland","latitude":"49.97918000","longitude":"20.09966000","wikiDataId":"Q7818513"},{"id":88381,"name":"Tomice","stateId":1635,"stateCode":"MA","stateName":"Lesser Poland Voivodeship","countryId":176,"countryCode":"PL","countryName":"Poland","latitude":"49.89773000","longitude":"19.48357000","wikiDataId":"Q2869561"},{"id":88382,"name":"Toporzysko","stateId":1635,"stateCode":"MA","stateName":"Lesser Poland Voivodeship","countryId":176,"countryCode":"PL","countryName":"Poland","latitude":"49.62495000","longitude":"19.80226000","wikiDataId":"Q7825081"},{"id":88414,"name":"Trąbki","stateId":1635,"stateCode":"MA","stateName":"Lesser Poland Voivodeship","countryId":176,"countryCode":"PL","countryName":"Poland","latitude":"49.96226000","longitude":"20.14240000","wikiDataId":"Q7849201"},{"id":88395,"name":"Trzciana","stateId":1635,"stateCode":"MA","stateName":"Lesser Poland Voivodeship","countryId":176,"countryCode":"PL","countryName":"Poland","latitude":"49.84485000","longitude":"20.37415000","wikiDataId":"Q7848851"},{"id":88407,"name":"Trzebinia","stateId":1635,"stateCode":"MA","stateName":"Lesser Poland Voivodeship","countryId":176,"countryCode":"PL","countryName":"Poland","latitude":"50.15931000","longitude":"19.46966000","wikiDataId":"Q686167"},{"id":88410,"name":"Trzebunia","stateId":1635,"stateCode":"MA","stateName":"Lesser Poland Voivodeship","countryId":176,"countryCode":"PL","countryName":"Poland","latitude":"49.79146000","longitude":"19.84715000","wikiDataId":"Q7849001"},{"id":88412,"name":"Trzemeśnia","stateId":1635,"stateCode":"MA","stateName":"Lesser Poland Voivodeship","countryId":176,"countryCode":"PL","countryName":"Poland","latitude":"49.82752000","longitude":"20.02207000","wikiDataId":"Q2210816"},{"id":88419,"name":"Tuchów","stateId":1635,"stateCode":"MA","stateName":"Lesser Poland Voivodeship","countryId":176,"countryCode":"PL","countryName":"Poland","latitude":"49.89485000","longitude":"21.05407000","wikiDataId":"Q1922294"},{"id":88439,"name":"Tylicz","stateId":1635,"stateCode":"MA","stateName":"Lesser Poland Voivodeship","countryId":176,"countryCode":"PL","countryName":"Poland","latitude":"49.39598000","longitude":"21.02368000","wikiDataId":"Q2444697"},{"id":88440,"name":"Tymbark","stateId":1635,"stateCode":"MA","stateName":"Lesser Poland Voivodeship","countryId":176,"countryCode":"PL","countryName":"Poland","latitude":"49.72859000","longitude":"20.32539000","wikiDataId":"Q1014982"},{"id":88467,"name":"Uście Gorlickie","stateId":1635,"stateCode":"MA","stateName":"Lesser Poland Voivodeship","countryId":176,"countryCode":"PL","countryName":"Poland","latitude":"49.52192000","longitude":"21.13821000","wikiDataId":"Q1940909"},{"id":88469,"name":"Wadowice","stateId":1635,"stateCode":"MA","stateName":"Lesser Poland Voivodeship","countryId":176,"countryCode":"PL","countryName":"Poland","latitude":"49.88335000","longitude":"19.49292000","wikiDataId":"Q212856"},{"id":88472,"name":"Waksmund","stateId":1635,"stateCode":"MA","stateName":"Lesser Poland Voivodeship","countryId":176,"countryCode":"PL","countryName":"Poland","latitude":"49.48207000","longitude":"20.07563000","wikiDataId":"Q7961214"},{"id":88486,"name":"Wawrzeńczyce","stateId":1635,"stateCode":"MA","stateName":"Lesser Poland Voivodeship","countryId":176,"countryCode":"PL","countryName":"Poland","latitude":"50.11012000","longitude":"20.31612000","wikiDataId":"Q1899877"},{"id":88640,"name":"Węglówka","stateId":1635,"stateCode":"MA","stateName":"Lesser Poland Voivodeship","countryId":176,"countryCode":"PL","countryName":"Poland","latitude":"49.73424000","longitude":"20.08575000","wikiDataId":"Q2589007"},{"id":88644,"name":"Węgrzce Wielkie","stateId":1635,"stateCode":"MA","stateName":"Lesser Poland Voivodeship","countryId":176,"countryCode":"PL","countryName":"Poland","latitude":"50.01491000","longitude":"20.11082000","wikiDataId":"Q8041163"},{"id":88502,"name":"Wieliczka","stateId":1635,"stateCode":"MA","stateName":"Lesser Poland Voivodeship","countryId":176,"countryCode":"PL","countryName":"Poland","latitude":"49.98738000","longitude":"20.06473000","wikiDataId":"Q472621"},{"id":88505,"name":"Wielka Wieś","stateId":1635,"stateCode":"MA","stateName":"Lesser Poland Voivodeship","countryId":176,"countryCode":"PL","countryName":"Poland","latitude":"49.93631000","longitude":"20.82304000","wikiDataId":"Q7999001"},{"id":88514,"name":"Wieprz","stateId":1635,"stateCode":"MA","stateName":"Lesser Poland Voivodeship","countryId":176,"countryCode":"PL","countryName":"Poland","latitude":"49.89093000","longitude":"19.35688000","wikiDataId":"Q2633393"},{"id":88523,"name":"Wierzchosławice","stateId":1635,"stateCode":"MA","stateName":"Lesser Poland Voivodeship","countryId":176,"countryCode":"PL","countryName":"Poland","latitude":"50.02478000","longitude":"20.85677000","wikiDataId":"Q1877335"},{"id":88528,"name":"Wietrzychowice","stateId":1635,"stateCode":"MA","stateName":"Lesser Poland Voivodeship","countryId":176,"countryCode":"PL","countryName":"Poland","latitude":"50.19097000","longitude":"20.76502000","wikiDataId":"Q2150881"},{"id":88563,"name":"Wiśniowa","stateId":1635,"stateCode":"MA","stateName":"Lesser Poland Voivodeship","countryId":176,"countryCode":"PL","countryName":"Poland","latitude":"49.78780000","longitude":"20.11502000","wikiDataId":"Q2706617"},{"id":88548,"name":"Witanowice","stateId":1635,"stateCode":"MA","stateName":"Lesser Poland Voivodeship","countryId":176,"countryCode":"PL","countryName":"Poland","latitude":"49.91796000","longitude":"19.52579000","wikiDataId":"Q2145459"},{"id":88550,"name":"Witkowice","stateId":1635,"stateCode":"MA","stateName":"Lesser Poland Voivodeship","countryId":176,"countryCode":"PL","countryName":"Poland","latitude":"49.90746000","longitude":"19.27963000","wikiDataId":"Q8028329"},{"id":88652,"name":"Włosienica","stateId":1635,"stateCode":"MA","stateName":"Lesser Poland Voivodeship","countryId":176,"countryCode":"PL","countryName":"Poland","latitude":"50.01822000","longitude":"19.31671000","wikiDataId":"Q8041361"},{"id":88577,"name":"Wojnicz","stateId":1635,"stateCode":"MA","stateName":"Lesser Poland Voivodeship","countryId":176,"countryCode":"PL","countryName":"Poland","latitude":"49.95800000","longitude":"20.83785000","wikiDataId":"Q1089052"},{"id":88582,"name":"Wola Batorska","stateId":1635,"stateCode":"MA","stateName":"Lesser Poland Voivodeship","countryId":176,"countryCode":"PL","countryName":"Poland","latitude":"50.05262000","longitude":"20.26617000","wikiDataId":"Q8029380"},{"id":88583,"name":"Wola Dębińska","stateId":1635,"stateCode":"MA","stateName":"Lesser Poland Voivodeship","countryId":176,"countryCode":"PL","countryName":"Poland","latitude":"49.98214000","longitude":"20.68777000","wikiDataId":"Q8029426"},{"id":88584,"name":"Wola Filipowska","stateId":1635,"stateCode":"MA","stateName":"Lesser Poland Voivodeship","countryId":176,"countryCode":"PL","countryName":"Poland","latitude":"50.13433000","longitude":"19.58013000","wikiDataId":"Q3495136"},{"id":88587,"name":"Wola Radziszowska","stateId":1635,"stateCode":"MA","stateName":"Lesser Poland Voivodeship","countryId":176,"countryCode":"PL","countryName":"Poland","latitude":"49.90558000","longitude":"19.78827000","wikiDataId":"Q8029585"},{"id":88591,"name":"Wola Zabierzowska","stateId":1635,"stateCode":"MA","stateName":"Lesser Poland Voivodeship","countryId":176,"countryCode":"PL","countryName":"Poland","latitude":"50.07257000","longitude":"20.33217000","wikiDataId":"Q8029665"},{"id":88594,"name":"Wolbrom","stateId":1635,"stateCode":"MA","stateName":"Lesser Poland Voivodeship","countryId":176,"countryCode":"PL","countryName":"Poland","latitude":"50.37957000","longitude":"19.75831000","wikiDataId":"Q1906323"},{"id":88600,"name":"Wołowice","stateId":1635,"stateCode":"MA","stateName":"Lesser Poland Voivodeship","countryId":176,"countryCode":"PL","countryName":"Poland","latitude":"49.98876000","longitude":"19.72630000","wikiDataId":"Q8037508"},{"id":88602,"name":"Woźniki","stateId":1635,"stateCode":"MA","stateName":"Lesser Poland Voivodeship","countryId":176,"countryCode":"PL","countryName":"Poland","latitude":"49.93774000","longitude":"19.49078000","wikiDataId":"Q8037524"},{"id":88607,"name":"Wrząsowice","stateId":1635,"stateCode":"MA","stateName":"Lesser Poland Voivodeship","countryId":176,"countryCode":"PL","countryName":"Poland","latitude":"49.95862000","longitude":"19.94654000","wikiDataId":"Q692491"},{"id":88616,"name":"Wysoka","stateId":1635,"stateCode":"MA","stateName":"Lesser Poland Voivodeship","countryId":176,"countryCode":"PL","countryName":"Poland","latitude":"49.90713000","longitude":"19.60356000","wikiDataId":"Q1974857"},{"id":88655,"name":"Zabierzów","stateId":1635,"stateCode":"MA","stateName":"Lesser Poland Voivodeship","countryId":176,"countryCode":"PL","countryName":"Poland","latitude":"50.11425000","longitude":"19.79788000","wikiDataId":"Q2230168"},{"id":88656,"name":"Zabierzów Bocheński","stateId":1635,"stateCode":"MA","stateName":"Lesser Poland Voivodeship","countryId":176,"countryCode":"PL","countryName":"Poland","latitude":"50.06821000","longitude":"20.31896000","wikiDataId":"Q2230168"},{"id":88871,"name":"Żabno","stateId":1635,"stateCode":"MA","stateName":"Lesser Poland Voivodeship","countryId":176,"countryCode":"PL","countryName":"Poland","latitude":"50.13334000","longitude":"20.88615000","wikiDataId":"Q392988"},{"id":88657,"name":"Zaborze","stateId":1635,"stateCode":"MA","stateName":"Lesser Poland Voivodeship","countryId":176,"countryCode":"PL","countryName":"Poland","latitude":"50.02175000","longitude":"19.24067000","wikiDataId":"Q8063569"},{"id":88668,"name":"Zagórnik","stateId":1635,"stateCode":"MA","stateName":"Lesser Poland Voivodeship","countryId":176,"countryCode":"PL","countryName":"Poland","latitude":"49.83710000","longitude":"19.37868000","wikiDataId":"Q2317828"},{"id":88670,"name":"Zagórze","stateId":1635,"stateCode":"MA","stateName":"Lesser Poland Voivodeship","countryId":176,"countryCode":"PL","countryName":"Poland","latitude":"50.09449000","longitude":"19.40357000","wikiDataId":"Q8064556"},{"id":88673,"name":"Zakliczyn","stateId":1635,"stateCode":"MA","stateName":"Lesser Poland Voivodeship","countryId":176,"countryCode":"PL","countryName":"Poland","latitude":"49.85589000","longitude":"20.80935000","wikiDataId":"Q2458136"},{"id":88675,"name":"Zakopane","stateId":1635,"stateCode":"MA","stateName":"Lesser Poland Voivodeship","countryId":176,"countryCode":"PL","countryName":"Poland","latitude":"49.29899000","longitude":"19.94885000","wikiDataId":"Q144786"},{"id":88680,"name":"Zakrzów","stateId":1635,"stateCode":"MA","stateName":"Lesser Poland Voivodeship","countryId":176,"countryCode":"PL","countryName":"Poland","latitude":"49.82558000","longitude":"19.64973000","wikiDataId":"Q2897131"},{"id":88683,"name":"Zalas","stateId":1635,"stateCode":"MA","stateName":"Lesser Poland Voivodeship","countryId":176,"countryCode":"PL","countryName":"Poland","latitude":"50.08033000","longitude":"19.62132000","wikiDataId":"Q8065289"},{"id":88874,"name":"Żarki","stateId":1635,"stateCode":"MA","stateName":"Lesser Poland Voivodeship","countryId":176,"countryCode":"PL","countryName":"Poland","latitude":"50.08259000","longitude":"19.35199000","wikiDataId":"Q8083086"},{"id":88698,"name":"Zarzecze","stateId":1635,"stateCode":"MA","stateName":"Lesser Poland Voivodeship","countryId":176,"countryCode":"PL","countryName":"Poland","latitude":"50.36715000","longitude":"19.69591000","wikiDataId":"Q8066972"},{"id":88699,"name":"Zator","stateId":1635,"stateCode":"MA","stateName":"Lesser Poland Voivodeship","countryId":176,"countryCode":"PL","countryName":"Poland","latitude":"49.99604000","longitude":"19.43799000","wikiDataId":"Q8066972"},{"id":88706,"name":"Zawoja","stateId":1635,"stateCode":"MA","stateName":"Lesser Poland Voivodeship","countryId":176,"countryCode":"PL","countryName":"Poland","latitude":"49.64396000","longitude":"19.54227000","wikiDataId":"Q167783"},{"id":88720,"name":"Zebrzydowice","stateId":1635,"stateCode":"MA","stateName":"Lesser Poland Voivodeship","countryId":176,"countryCode":"PL","countryName":"Poland","latitude":"49.89032000","longitude":"19.67291000","wikiDataId":"Q4305418"},{"id":88879,"name":"Żegocina","stateId":1635,"stateCode":"MA","stateName":"Lesser Poland Voivodeship","countryId":176,"countryCode":"PL","countryName":"Poland","latitude":"49.81395000","longitude":"20.41964000","wikiDataId":"Q2096731"},{"id":88723,"name":"Zembrzyce","stateId":1635,"stateCode":"MA","stateName":"Lesser Poland Voivodeship","countryId":176,"countryCode":"PL","countryName":"Poland","latitude":"49.77517000","longitude":"19.60120000","wikiDataId":"Q2565965"},{"id":88730,"name":"Zielonki","stateId":1635,"stateCode":"MA","stateName":"Lesser Poland Voivodeship","countryId":176,"countryCode":"PL","countryName":"Poland","latitude":"50.12091000","longitude":"19.92156000","wikiDataId":"Q2273055"},{"id":88745,"name":"Złota","stateId":1635,"stateCode":"MA","stateName":"Lesser Poland Voivodeship","countryId":176,"countryCode":"PL","countryName":"Poland","latitude":"49.88059000","longitude":"20.69326000","wikiDataId":"Q8076167"},{"id":88733,"name":"Zubrzyca Dolna","stateId":1635,"stateCode":"MA","stateName":"Lesser Poland Voivodeship","countryId":176,"countryCode":"PL","countryName":"Poland","latitude":"49.52688000","longitude":"19.67342000","wikiDataId":"Q4177830"},{"id":88734,"name":"Zubrzyca Górna","stateId":1635,"stateCode":"MA","stateName":"Lesser Poland Voivodeship","countryId":176,"countryCode":"PL","countryName":"Poland","latitude":"49.56174000","longitude":"19.64973000","wikiDataId":"Q223265"},{"id":88896,"name":"Żurowa","stateId":1635,"stateCode":"MA","stateName":"Lesser Poland Voivodeship","countryId":176,"countryCode":"PL","countryName":"Poland","latitude":"49.82636000","longitude":"21.16894000","wikiDataId":"Q8083453"}]