[{"id":98530,"name":"Gornomariyskiy Rayon","stateId":1870,"stateCode":"ME","stateName":"Mari El Republic","countryId":182,"countryCode":"RU","countryName":"Russia","latitude":"56.41667000","longitude":"46.75000000","wikiDataId":"Q312438"},{"id":99039,"name":"Kilemarskiy Rayon","stateId":1870,"stateCode":"ME","stateName":"Mari El Republic","countryId":182,"countryCode":"RU","countryName":"Russia","latitude":"56.75000000","longitude":"46.91667000","wikiDataId":"Q394362"},{"id":99040,"name":"Kilemary","stateId":1870,"stateCode":"ME","stateName":"Mari El Republic","countryId":182,"countryCode":"RU","countryName":"Russia","latitude":"56.77825000","longitude":"46.86594000","wikiDataId":"Q2029192"},{"id":99271,"name":"Koz’modem’yansk","stateId":1870,"stateCode":"ME","stateName":"Mari El Republic","countryId":182,"countryCode":"RU","countryName":"Russia","latitude":"56.34190000","longitude":"46.56353000","wikiDataId":"Q35701175"},{"id":99305,"name":"Krasnogorskiy","stateId":1870,"stateCode":"ME","stateName":"Mari El Republic","countryId":182,"countryCode":"RU","countryName":"Russia","latitude":"56.15250000","longitude":"48.32583000","wikiDataId":"Q35702366"},{"id":99500,"name":"Kuzhener","stateId":1870,"stateCode":"ME","stateName":"Mari El Republic","countryId":182,"countryCode":"RU","countryName":"Russia","latitude":"56.81111000","longitude":"48.91278000","wikiDataId":"Q2511335"},{"id":99501,"name":"Kuzhenerskiy Rayon","stateId":1870,"stateCode":"ME","stateName":"Mari El Republic","countryId":182,"countryCode":"RU","countryName":"Russia","latitude":"56.75000000","longitude":"49.00000000","wikiDataId":"Q2626798"},{"id":99793,"name":"Mari-Turek","stateId":1870,"stateCode":"ME","stateName":"Mari El Republic","countryId":182,"countryCode":"RU","countryName":"Russia","latitude":"56.78946000","longitude":"49.62349000","wikiDataId":"Q1027060"},{"id":99794,"name":"Mari-Turekskiy Rayon","stateId":1870,"stateCode":"ME","stateName":"Mari El Republic","countryId":182,"countryCode":"RU","countryName":"Russia","latitude":"56.75000000","longitude":"49.83333000","wikiDataId":"Q1094946"},{"id":99842,"name":"Medvedevo","stateId":1870,"stateCode":"ME","stateName":"Mari El Republic","countryId":182,"countryCode":"RU","countryName":"Russia","latitude":"56.63388000","longitude":"47.80405000","wikiDataId":"Q1024687"},{"id":99843,"name":"Medvedevskiy Rayon","stateId":1870,"stateCode":"ME","stateName":"Mari El Republic","countryId":182,"countryCode":"RU","countryName":"Russia","latitude":"56.66667000","longitude":"47.75000000","wikiDataId":"Q138954"},{"id":99937,"name":"Mochalishche","stateId":1870,"stateCode":"ME","stateName":"Mari El Republic","countryId":182,"countryCode":"RU","countryName":"Russia","latitude":"56.33060000","longitude":"48.35470000","wikiDataId":"Q4305176"},{"id":99964,"name":"Morki","stateId":1870,"stateCode":"ME","stateName":"Mari El Republic","countryId":182,"countryCode":"RU","countryName":"Russia","latitude":"56.43028000","longitude":"48.99472000","wikiDataId":"Q975788"},{"id":99965,"name":"Morkinskiy Rayon","stateId":1870,"stateCode":"ME","stateName":"Mari El Republic","countryId":182,"countryCode":"RU","countryName":"Russia","latitude":"56.50000000","longitude":"49.00000000","wikiDataId":"Q2626792"},{"id":100315,"name":"Novotor”yal’skiy Rayon","stateId":1870,"stateCode":"ME","stateName":"Mari El Republic","countryId":182,"countryCode":"RU","countryName":"Russia","latitude":"57.08333000","longitude":"48.66667000","wikiDataId":"Q2626817"},{"id":100478,"name":"Orshanka","stateId":1870,"stateCode":"ME","stateName":"Mari El Republic","countryId":182,"countryCode":"RU","countryName":"Russia","latitude":"56.91607000","longitude":"47.89335000","wikiDataId":"Q37903741"},{"id":100479,"name":"Orshanskiy Rayon","stateId":1870,"stateCode":"ME","stateName":"Mari El Republic","countryId":182,"countryCode":"RU","countryName":"Russia","latitude":"56.91667000","longitude":"47.91667000","wikiDataId":"Q2626782"},{"id":100541,"name":"Paran’ga","stateId":1870,"stateCode":"ME","stateName":"Mari El Republic","countryId":182,"countryCode":"RU","countryName":"Russia","latitude":"56.70389000","longitude":"49.40472000","wikiDataId":"Q37959326"},{"id":100542,"name":"Paran’ginskiy Rayon","stateId":1870,"stateCode":"ME","stateName":"Mari El Republic","countryId":182,"countryCode":"RU","countryName":"Russia","latitude":"56.66667000","longitude":"49.41667000","wikiDataId":"Q40253"},{"id":100765,"name":"Pomary","stateId":1870,"stateCode":"ME","stateName":"Mari El Republic","countryId":182,"countryCode":"RU","countryName":"Russia","latitude":"55.96815000","longitude":"48.35072000","wikiDataId":"Q37958933"},{"id":100848,"name":"Privolzhskiy","stateId":1870,"stateCode":"ME","stateName":"Mari El Republic","countryId":182,"countryCode":"RU","countryName":"Russia","latitude":"55.96135000","longitude":"48.41512000","wikiDataId":"Q37959727"},{"id":101188,"name":"Sernur","stateId":1870,"stateCode":"ME","stateName":"Mari El Republic","countryId":182,"countryCode":"RU","countryName":"Russia","latitude":"56.93333000","longitude":"49.15361000","wikiDataId":"Q1027650"},{"id":101189,"name":"Sernurskiy Rayon","stateId":1870,"stateCode":"ME","stateName":"Mari El Republic","countryId":182,"countryCode":"RU","countryName":"Russia","latitude":"57.00000000","longitude":"49.25000000","wikiDataId":"Q40255"},{"id":101510,"name":"Sovetskiy","stateId":1870,"stateCode":"ME","stateName":"Mari El Republic","countryId":182,"countryCode":"RU","countryName":"Russia","latitude":"56.75833000","longitude":"48.47611000","wikiDataId":"Q2097829"},{"id":101514,"name":"Sovetskiy Rayon","stateId":1870,"stateCode":"ME","stateName":"Mari El Republic","countryId":182,"countryCode":"RU","countryName":"Russia","latitude":"56.66667000","longitude":"48.50000000","wikiDataId":"Q138530"},{"id":101678,"name":"Surok","stateId":1870,"stateCode":"ME","stateName":"Mari El Republic","countryId":182,"countryCode":"RU","countryName":"Russia","latitude":"56.44694000","longitude":"48.12139000","wikiDataId":"Q37959699"},{"id":101683,"name":"Suslonger","stateId":1870,"stateCode":"ME","stateName":"Mari El Republic","countryId":182,"countryCode":"RU","countryName":"Russia","latitude":"56.31556000","longitude":"48.25306000","wikiDataId":"Q37956841"},{"id":102306,"name":"Vilovatovo","stateId":1870,"stateCode":"ME","stateName":"Mari El Republic","countryId":182,"countryCode":"RU","countryName":"Russia","latitude":"56.17240000","longitude":"46.60134000","wikiDataId":"Q37955319"},{"id":102369,"name":"Volzhsk","stateId":1870,"stateCode":"ME","stateName":"Mari El Republic","countryId":182,"countryCode":"RU","countryName":"Russia","latitude":"55.86638000","longitude":"48.35940000","wikiDataId":"Q133293"},{"id":102371,"name":"Volzhskiy Rayon","stateId":1870,"stateCode":"ME","stateName":"Mari El Republic","countryId":182,"countryCode":"RU","countryName":"Russia","latitude":"56.08333000","longitude":"48.58333000","wikiDataId":"Q138963"},{"id":102581,"name":"Yoshkar-Ola","stateId":1870,"stateCode":"ME","stateName":"Mari El Republic","countryId":182,"countryCode":"RU","countryName":"Russia","latitude":"56.63877000","longitude":"47.89078000","wikiDataId":"Q5449"},{"id":102597,"name":"Yurino","stateId":1870,"stateCode":"ME","stateName":"Mari El Republic","countryId":182,"countryCode":"RU","countryName":"Russia","latitude":"56.29417000","longitude":"46.30392000","wikiDataId":"Q630271"},{"id":102598,"name":"Yurinskiy Rayon","stateId":1870,"stateCode":"ME","stateName":"Mari El Republic","countryId":182,"countryCode":"RU","countryName":"Russia","latitude":"56.30000000","longitude":"46.30000000","wikiDataId":"Q171979"},{"id":102779,"name":"Zvenigovo","stateId":1870,"stateCode":"ME","stateName":"Mari El Republic","countryId":182,"countryCode":"RU","countryName":"Russia","latitude":"55.97539000","longitude":"48.01304000","wikiDataId":"Q136813"},{"id":102780,"name":"Zvenigovskiy Rayon","stateId":1870,"stateCode":"ME","stateName":"Mari El Republic","countryId":182,"countryCode":"RU","countryName":"Russia","latitude":"56.25000000","longitude":"47.75000000","wikiDataId":"Q138958"}]