[{"id":63470,"name":"Higashiōmi-shi","stateId":845,"stateCode":"25","stateName":"Shiga Prefecture","countryId":109,"countryCode":"JP","countryName":"Japan","latitude":"35.10890000","longitude":"136.17920000","wikiDataId":"Q240891"},{"id":63476,"name":"Hikone","stateId":845,"stateCode":"25","stateName":"Shiga Prefecture","countryId":109,"countryCode":"JP","countryName":"Japan","latitude":"35.25000000","longitude":"136.25000000","wikiDataId":"Q1075201"},{"id":63477,"name":"Hikone-shi","stateId":845,"stateCode":"25","stateName":"Shiga Prefecture","countryId":109,"countryCode":"JP","countryName":"Japan","latitude":"35.23036000","longitude":"136.20760000","wikiDataId":"Q386635"},{"id":63482,"name":"Hino","stateId":845,"stateCode":"25","stateName":"Shiga Prefecture","countryId":109,"countryCode":"JP","countryName":"Japan","latitude":"35.00000000","longitude":"136.25000000","wikiDataId":"Q1208020"},{"id":63799,"name":"Kitahama","stateId":845,"stateCode":"25","stateName":"Shiga Prefecture","countryId":109,"countryCode":"JP","countryName":"Japan","latitude":"35.16667000","longitude":"135.91667000","wikiDataId":"Q653545"},{"id":63895,"name":"Kōka-shi","stateId":845,"stateCode":"25","stateName":"Shiga Prefecture","countryId":109,"countryCode":"JP","countryName":"Japan","latitude":"34.91667000","longitude":"136.16667000","wikiDataId":"Q847584"},{"id":63843,"name":"Konan-shi","stateId":845,"stateCode":"25","stateName":"Shiga Prefecture","countryId":109,"countryCode":"JP","countryName":"Japan","latitude":"35.01667000","longitude":"136.08333000","wikiDataId":"Q857194"},{"id":63881,"name":"Kusatsu","stateId":845,"stateCode":"25","stateName":"Shiga Prefecture","countryId":109,"countryCode":"JP","countryName":"Japan","latitude":"35.01667000","longitude":"135.96667000","wikiDataId":"Q386677"},{"id":63882,"name":"Kusatsu-shi","stateId":845,"stateCode":"25","stateName":"Shiga Prefecture","countryId":109,"countryCode":"JP","countryName":"Japan","latitude":"35.02758000","longitude":"135.93840000","wikiDataId":"Q386677"},{"id":63910,"name":"Maibara","stateId":845,"stateCode":"25","stateName":"Shiga Prefecture","countryId":109,"countryCode":"JP","countryName":"Japan","latitude":"35.31667000","longitude":"136.28333000","wikiDataId":"Q824020"},{"id":63911,"name":"Maibara-shi","stateId":845,"stateCode":"25","stateName":"Shiga Prefecture","countryId":109,"countryCode":"JP","countryName":"Japan","latitude":"35.38457000","longitude":"136.37741000","wikiDataId":"Q824020"},{"id":63958,"name":"Minakuchichō-matoba","stateId":845,"stateCode":"25","stateName":"Shiga Prefecture","countryId":109,"countryCode":"JP","countryName":"Japan","latitude":"34.96667000","longitude":"136.16667000","wikiDataId":"Q861279"},{"id":64034,"name":"Moriyama","stateId":845,"stateCode":"25","stateName":"Shiga Prefecture","countryId":109,"countryCode":"JP","countryName":"Japan","latitude":"35.06667000","longitude":"135.98333000","wikiDataId":"Q857225"},{"id":64035,"name":"Moriyama-shi","stateId":845,"stateCode":"25","stateName":"Shiga Prefecture","countryId":109,"countryCode":"JP","countryName":"Japan","latitude":"35.08815000","longitude":"135.96869000","wikiDataId":"Q857225"},{"id":64059,"name":"Nagahama","stateId":845,"stateCode":"25","stateName":"Shiga Prefecture","countryId":109,"countryCode":"JP","countryName":"Japan","latitude":"35.38333000","longitude":"136.26667000","wikiDataId":"Q844130"},{"id":64060,"name":"Nagahama-shi","stateId":845,"stateCode":"25","stateName":"Shiga Prefecture","countryId":109,"countryCode":"JP","countryName":"Japan","latitude":"35.42256000","longitude":"136.26272000","wikiDataId":"Q844130"},{"id":64740,"name":"Ōmihachiman","stateId":845,"stateCode":"25","stateName":"Shiga Prefecture","countryId":109,"countryCode":"JP","countryName":"Japan","latitude":"35.12861000","longitude":"136.09760000","wikiDataId":"Q385375"},{"id":64741,"name":"Ōmihachiman-shi","stateId":845,"stateCode":"25","stateName":"Shiga Prefecture","countryId":109,"countryCode":"JP","countryName":"Japan","latitude":"35.15251000","longitude":"136.06964000","wikiDataId":"Q385461"},{"id":64764,"name":"Ōtsu-shi","stateId":845,"stateCode":"25","stateName":"Shiga Prefecture","countryId":109,"countryCode":"JP","countryName":"Japan","latitude":"35.10203000","longitude":"135.92452000","wikiDataId":"Q202907"},{"id":64229,"name":"Rittō-shi","stateId":845,"stateCode":"25","stateName":"Shiga Prefecture","countryId":109,"countryCode":"JP","countryName":"Japan","latitude":"34.99603000","longitude":"136.01412000","wikiDataId":"Q857310"},{"id":64438,"name":"Takashima","stateId":845,"stateCode":"25","stateName":"Shiga Prefecture","countryId":109,"countryCode":"JP","countryName":"Japan","latitude":"35.41347000","longitude":"136.01612000","wikiDataId":"Q845794"},{"id":64439,"name":"Takashima-shi","stateId":845,"stateCode":"25","stateName":"Shiga Prefecture","countryId":109,"countryCode":"JP","countryName":"Japan","latitude":"35.35448000","longitude":"136.02859000","wikiDataId":"Q845794"},{"id":64659,"name":"Yasu-shi","stateId":845,"stateCode":"25","stateName":"Shiga Prefecture","countryId":109,"countryCode":"JP","countryName":"Japan","latitude":"35.06801000","longitude":"136.02327000","wikiDataId":"Q611642"},{"id":64692,"name":"Youkaichi","stateId":845,"stateCode":"25","stateName":"Shiga Prefecture","countryId":109,"countryCode":"JP","countryName":"Japan","latitude":"35.11626000","longitude":"136.19768000","wikiDataId":"Q429373"}]