[{"id":105377,"name":"Amphoe Kapoe","stateId":3479,"stateCode":"85","stateName":"Ranong","countryId":219,"countryCode":"TH","countryName":"Thailand","latitude":"9.53028000","longitude":"98.62369000","wikiDataId":"Q475608"},{"id":105451,"name":"Amphoe Kra Buri","stateId":3479,"stateCode":"85","stateName":"Ranong","countryId":219,"countryCode":"TH","countryName":"Thailand","latitude":"10.45895000","longitude":"98.84373000","wikiDataId":"Q475824"},{"id":105469,"name":"Amphoe La-un","stateId":3479,"stateCode":"85","stateName":"Ranong","countryId":219,"countryCode":"TH","countryName":"Thailand","latitude":"10.09691000","longitude":"98.78498000","wikiDataId":"Q475861"},{"id":105578,"name":"Amphoe Mueang Ranong","stateId":3479,"stateCode":"85","stateName":"Ranong","countryId":219,"countryCode":"TH","countryName":"Thailand","latitude":"9.86238000","longitude":"98.62229000","wikiDataId":"Q1935527"},{"id":106254,"name":"Amphoe Suk Samran","stateId":3479,"stateCode":"85","stateName":"Ranong","countryId":219,"countryCode":"TH","countryName":"Thailand","latitude":"9.41570000","longitude":"98.49117000","wikiDataId":"Q476780"},{"id":106661,"name":"Ranong","stateId":3479,"stateCode":"85","stateName":"Ranong","countryId":219,"countryCode":"TH","countryName":"Thailand","latitude":"9.96583000","longitude":"98.63476000","wikiDataId":"Q1012440"}]