[{"id":130199,"name":"Dương Đông","stateId":3800,"stateCode":"47","stateName":"Kiên Giang","countryId":240,"countryCode":"VN","countryName":"Vietnam","latitude":"10.21716000","longitude":"103.95929000","wikiDataId":"Q3277075"},{"id":130556,"name":"Hà Tiên","stateId":3800,"stateCode":"47","stateName":"Kiên Giang","countryId":240,"countryCode":"VN","countryName":"Vietnam","latitude":"10.38310000","longitude":"104.48753000","wikiDataId":"Q800154"},{"id":130208,"name":"Huyện An Biên","stateId":3800,"stateCode":"47","stateName":"Kiên Giang","countryId":240,"countryCode":"VN","countryName":"Vietnam","latitude":"9.81291000","longitude":"105.05230000","wikiDataId":"Q724711"},{"id":130210,"name":"Huyện An Minh","stateId":3800,"stateCode":"47","stateName":"Kiên Giang","countryId":240,"countryCode":"VN","countryName":"Vietnam","latitude":"9.66704000","longitude":"104.94848000","wikiDataId":"Q724711"},{"id":130249,"name":"Huyện Châu Thành","stateId":3800,"stateCode":"47","stateName":"Kiên Giang","countryId":240,"countryCode":"VN","countryName":"Vietnam","latitude":"9.94372000","longitude":"105.16868000","wikiDataId":"Q2232482"},{"id":130290,"name":"Huyện Giồng Riềng","stateId":3800,"stateCode":"47","stateName":"Kiên Giang","countryId":240,"countryCode":"VN","countryName":"Vietnam","latitude":"9.91224000","longitude":"105.37311000","wikiDataId":"Q3031261"},{"id":130295,"name":"Huyện Gò Quao","stateId":3800,"stateCode":"47","stateName":"Kiên Giang","countryId":240,"countryCode":"VN","countryName":"Vietnam","latitude":"9.74027000","longitude":"105.29766000","wikiDataId":"Q3710927"},{"id":130307,"name":"Huyện Hòn Đất","stateId":3800,"stateCode":"47","stateName":"Kiên Giang","countryId":240,"countryCode":"VN","countryName":"Vietnam","latitude":"10.22908000","longitude":"104.95280000","wikiDataId":"Q5874252"},{"id":130330,"name":"Huyện Kiên Hải","stateId":3800,"stateCode":"47","stateName":"Kiên Giang","countryId":240,"countryCode":"VN","countryName":"Vietnam","latitude":"9.83971000","longitude":"104.61560000","wikiDataId":"Q3031344"},{"id":130400,"name":"Huyện Phú Quốc","stateId":3800,"stateCode":"47","stateName":"Kiên Giang","countryId":240,"countryCode":"VN","countryName":"Vietnam","latitude":"10.25516000","longitude":"104.01455000","wikiDataId":"Q724739"},{"id":130481,"name":"Huyện Tân Hiệp","stateId":3800,"stateCode":"47","stateName":"Kiên Giang","countryId":240,"countryCode":"VN","countryName":"Vietnam","latitude":"10.09540000","longitude":"105.25936000","wikiDataId":"Q3711512"},{"id":130502,"name":"Huyện Vĩnh Thuận","stateId":3800,"stateCode":"47","stateName":"Kiên Giang","countryId":240,"countryCode":"VN","countryName":"Vietnam","latitude":"9.53306000","longitude":"105.24490000","wikiDataId":"Q7932536"},{"id":130564,"name":"Kien Luong Town","stateId":3800,"stateCode":"47","stateName":"Kiên Giang","countryId":240,"countryCode":"VN","countryName":"Vietnam","latitude":"10.24892000","longitude":"104.59000000","wikiDataId":"Q36160"},{"id":130588,"name":"Rạch Giá","stateId":3800,"stateCode":"47","stateName":"Kiên Giang","countryId":240,"countryCode":"VN","countryName":"Vietnam","latitude":"10.01245000","longitude":"105.08091000","wikiDataId":"Q36093"}]