[{"id":89718,"name":"Altos","stateId":2783,"stateCode":"3","stateName":"Cordillera Department","countryId":172,"countryCode":"PY","countryName":"Paraguay","latitude":"-25.26263000","longitude":"-57.25443000","wikiDataId":"Q926511"},{"id":89722,"name":"Arroyos y Esteros","stateId":2783,"stateCode":"3","stateName":"Cordillera Department","countryId":172,"countryCode":"PY","countryName":"Paraguay","latitude":"-25.05478000","longitude":"-57.09873000","wikiDataId":"Q2639218"},{"id":89723,"name":"Atyrá","stateId":2783,"stateCode":"3","stateName":"Cordillera Department","countryId":172,"countryCode":"PY","countryName":"Paraguay","latitude":"-25.27876000","longitude":"-57.17192000","wikiDataId":"Q2639218"},{"id":89729,"name":"Caacupé","stateId":2783,"stateCode":"3","stateName":"Cordillera Department","countryId":172,"countryCode":"PY","countryName":"Paraguay","latitude":"-25.38575000","longitude":"-57.14217000","wikiDataId":"Q34783829"},{"id":89738,"name":"Caraguatay","stateId":2783,"stateCode":"3","stateName":"Cordillera Department","countryId":172,"countryCode":"PY","countryName":"Paraguay","latitude":"-25.23844000","longitude":"-56.82693000","wikiDataId":"Q17564711"},{"id":89762,"name":"Emboscada","stateId":2783,"stateCode":"3","stateName":"Cordillera Department","countryId":172,"countryCode":"PY","countryName":"Paraguay","latitude":"-25.15000000","longitude":"-57.35000000","wikiDataId":"Q935504"},{"id":89764,"name":"Eusebio Ayala","stateId":2783,"stateCode":"3","stateName":"Cordillera Department","countryId":172,"countryCode":"PY","countryName":"Paraguay","latitude":"-25.38276000","longitude":"-56.96088000","wikiDataId":"Q47138"},{"id":89779,"name":"Isla Pucú","stateId":2783,"stateCode":"3","stateName":"Cordillera Department","countryId":172,"countryCode":"PY","countryName":"Paraguay","latitude":"-25.30853000","longitude":"-56.89986000","wikiDataId":"Q47062"},{"id":89780,"name":"Itacurubí de la Cordillera","stateId":2783,"stateCode":"3","stateName":"Cordillera Department","countryId":172,"countryCode":"PY","countryName":"Paraguay","latitude":"-25.46158000","longitude":"-56.85333000","wikiDataId":"Q47062"},{"id":89811,"name":"Piribebuy","stateId":2783,"stateCode":"3","stateName":"Cordillera Department","countryId":172,"countryCode":"PY","countryName":"Paraguay","latitude":"-25.46498000","longitude":"-57.04183000","wikiDataId":"Q135970"},{"id":89820,"name":"San Bernardino","stateId":2783,"stateCode":"3","stateName":"Cordillera Department","countryId":172,"countryCode":"PY","countryName":"Paraguay","latitude":"-25.31067000","longitude":"-57.29628000","wikiDataId":"Q135983"},{"id":89833,"name":"Santa Elena","stateId":2783,"stateCode":"3","stateName":"Cordillera Department","countryId":172,"countryCode":"PY","countryName":"Paraguay","latitude":"-25.41327000","longitude":"-56.79708000","wikiDataId":"Q1751103"},{"id":89840,"name":"Tobatí","stateId":2783,"stateCode":"3","stateName":"Cordillera Department","countryId":172,"countryCode":"PY","countryName":"Paraguay","latitude":"-25.26111000","longitude":"-57.08329000","wikiDataId":"Q1092820"}]