[{"id":146174,"name":"Akurana","stateId":2788,"stateCode":"21","stateName":"Kandy District","countryId":208,"countryCode":"LK","countryName":"Sri Lanka","latitude":"7.36500000","longitude":"80.61722200","wikiDataId":"Q4701966"},{"id":146150,"name":"Alawatugoda","stateId":2788,"stateCode":"21","stateName":"Kandy District","countryId":208,"countryCode":"LK","countryName":"Sri Lanka","latitude":"7.41048962","longitude":"80.60918933","wikiDataId":"Q4708898"},{"id":146149,"name":"Ambatenna","stateId":2788,"stateCode":"21","stateName":"Kandy District","countryId":208,"countryCode":"LK","countryName":"Sri Lanka","latitude":"7.35252855","longitude":"80.61378113","wikiDataId":"Q4741158"},{"id":146148,"name":"Daskara","stateId":2788,"stateCode":"21","stateName":"Kandy District","countryId":208,"countryCode":"LK","countryName":"Sri Lanka","latitude":"7.20902217","longitude":"80.57764643","wikiDataId":"Q16954544"},{"id":146147,"name":"Daulagala","stateId":2788,"stateCode":"21","stateName":"Kandy District","countryId":208,"countryCode":"LK","countryName":"Sri Lanka","latitude":"7.22882494","longitude":"80.57756073","wikiDataId":"Q5227987"},{"id":146173,"name":"Delthota","stateId":2788,"stateCode":"21","stateName":"Kandy District","countryId":208,"countryCode":"LK","countryName":"Sri Lanka","latitude":"7.18491721","longitude":"80.70488697","wikiDataId":"Q5254847"},{"id":146172,"name":"Doluwa","stateId":2788,"stateCode":"21","stateName":"Kandy District","countryId":208,"countryCode":"LK","countryName":"Sri Lanka","latitude":"7.18518536","longitude":"80.60573450","wikiDataId":"Q5289696"},{"id":146146,"name":"Galagedara","stateId":2788,"stateCode":"21","stateName":"Kandy District","countryId":208,"countryCode":"LK","countryName":"Sri Lanka","latitude":"7.36833300","longitude":"80.52750000","wikiDataId":"Q5517872"},{"id":146145,"name":"Galhinna","stateId":2788,"stateCode":"21","stateName":"Kandy District","countryId":208,"countryCode":"LK","countryName":"Sri Lanka","latitude":"7.41614200","longitude":"80.56884200","wikiDataId":"Q5518540"},{"id":66472,"name":"Gampola","stateId":2788,"stateCode":"21","stateName":"Kandy District","countryId":208,"countryCode":"LK","countryName":"Sri Lanka","latitude":"7.16430000","longitude":"80.56960000","wikiDataId":"Q8264065"},{"id":146171,"name":"Ganga Ihala Korale","stateId":2788,"stateCode":"21","stateName":"Kandy District","countryId":208,"countryCode":"LK","countryName":"Sri Lanka","latitude":"7.11455516","longitude":"80.51448810","wikiDataId":"Q5520982"},{"id":146144,"name":"Hanguranketa","stateId":2788,"stateCode":"21","stateName":"Kandy District","countryId":208,"countryCode":"LK","countryName":"Sri Lanka","latitude":"7.16666700","longitude":"80.78333300","wikiDataId":"Q5648094"},{"id":146143,"name":"Hapugastalawa","stateId":2788,"stateCode":"21","stateName":"Kandy District","countryId":208,"countryCode":"LK","countryName":"Sri Lanka","latitude":"7.05872498","longitude":"80.57137014","wikiDataId":"Q16252009"},{"id":146170,"name":"Harispattuwa","stateId":2788,"stateCode":"21","stateName":"Kandy District","countryId":208,"countryCode":"LK","countryName":"Sri Lanka","latitude":"7.33016007","longitude":"80.58765149","wikiDataId":"Q5657965"},{"id":146169,"name":"Hatharaliyadda","stateId":2788,"stateCode":"21","stateName":"Kandy District","countryId":208,"countryCode":"LK","countryName":"Sri Lanka","latitude":"7.33032982","longitude":"80.47875881","wikiDataId":"Q5681437"},{"id":66485,"name":"Kadugannawa","stateId":2788,"stateCode":"21","stateName":"Kandy District","countryId":208,"countryCode":"LK","countryName":"Sri Lanka","latitude":"7.25470000","longitude":"80.52420000","wikiDataId":"Q6345741"},{"id":146168,"name":"Kandy Four Gravets","stateId":2788,"stateCode":"21","stateName":"Kandy District","countryId":208,"countryCode":"LK","countryName":"Sri Lanka","latitude":"7.28318748","longitude":"80.63527585","wikiDataId":"Q723002"},{"id":146153,"name":"Katugastota","stateId":2788,"stateCode":"21","stateName":"Kandy District","countryId":208,"countryCode":"LK","countryName":"Sri Lanka","latitude":"7.33333300","longitude":"80.61666700","wikiDataId":"Q42272"},{"id":146167,"name":"Kundasale","stateId":2788,"stateCode":"21","stateName":"Kandy District","countryId":208,"countryCode":"LK","countryName":"Sri Lanka","latitude":"7.30391594","longitude":"80.71230408","wikiDataId":"Q12980327"},{"id":146142,"name":"Madawala","stateId":2788,"stateCode":"21","stateName":"Kandy District","countryId":208,"countryCode":"LK","countryName":"Sri Lanka","latitude":"7.32833100","longitude":"80.67355200","wikiDataId":"Q6726546"},{"id":146166,"name":"Medadumbara","stateId":2788,"stateCode":"21","stateName":"Kandy District","countryId":208,"countryCode":"LK","countryName":"Sri Lanka","latitude":"7.30425996","longitude":"80.77519844","wikiDataId":"Q6804979"},{"id":146141,"name":"Menikdiwela","stateId":2788,"stateCode":"21","stateName":"Kandy District","countryId":208,"countryCode":"LK","countryName":"Sri Lanka","latitude":"7.08333300","longitude":"80.73333300","wikiDataId":"Q6817056"},{"id":146165,"name":"Minipe","stateId":2788,"stateCode":"21","stateName":"Kandy District","countryId":208,"countryCode":"LK","countryName":"Sri Lanka","latitude":"7.22638754","longitude":"81.00116732","wikiDataId":"Q6865676"},{"id":146151,"name":"Nawalapitiya","stateId":2788,"stateCode":"21","stateName":"Kandy District","countryId":208,"countryCode":"LK","countryName":"Sri Lanka","latitude":"7.03696481","longitude":"80.51626688","wikiDataId":"Q3536138"},{"id":146152,"name":"Pallekele","stateId":2788,"stateCode":"21","stateName":"Kandy District","countryId":208,"countryCode":"LK","countryName":"Sri Lanka","latitude":"7.28333300","longitude":"80.70000000","wikiDataId":"Q7127817"},{"id":146164,"name":"Panvila","stateId":2788,"stateCode":"21","stateName":"Kandy District","countryId":208,"countryCode":"LK","countryName":"Sri Lanka","latitude":"7.40929750","longitude":"80.73966228","wikiDataId":"Q7131982"},{"id":146163,"name":"Pasbage Korale","stateId":2788,"stateCode":"21","stateName":"Kandy District","countryId":208,"countryCode":"LK","countryName":"Sri Lanka","latitude":"7.01510450","longitude":"80.54078073","wikiDataId":"Q7141629"},{"id":146162,"name":"Pathadumbara","stateId":2788,"stateCode":"21","stateName":"Kandy District","countryId":208,"countryCode":"LK","countryName":"Sri Lanka","latitude":"7.34931196","longitude":"80.66303689","wikiDataId":"Q7144675"},{"id":146161,"name":"Pathahewaheta","stateId":2788,"stateCode":"21","stateName":"Kandy District","countryId":208,"countryCode":"LK","countryName":"Sri Lanka","latitude":"7.23139207","longitude":"80.70848937","wikiDataId":"Q7144676"},{"id":146154,"name":"Peradeniya","stateId":2788,"stateCode":"21","stateName":"Kandy District","countryId":208,"countryCode":"LK","countryName":"Sri Lanka","latitude":"7.26666700","longitude":"80.60000000","wikiDataId":"Q489744"},{"id":146140,"name":"Pilimathalawa","stateId":2788,"stateCode":"21","stateName":"Kandy District","countryId":208,"countryCode":"LK","countryName":"Sri Lanka","latitude":"7.27000000","longitude":"80.57000000","wikiDataId":"Q7194023"},{"id":146160,"name":"Poojapitiya","stateId":2788,"stateCode":"21","stateName":"Kandy District","countryId":208,"countryCode":"LK","countryName":"Sri Lanka","latitude":"7.38093796","longitude":"80.58913708","wikiDataId":"Q7228532"},{"id":146139,"name":"Pussellawa","stateId":2788,"stateCode":"21","stateName":"Kandy District","countryId":208,"countryCode":"LK","countryName":"Sri Lanka","latitude":"7.10533300","longitude":"80.63666700","wikiDataId":"Q7261927"},{"id":146138,"name":"Talatuoya","stateId":2788,"stateCode":"21","stateName":"Kandy District","countryId":208,"countryCode":"LK","countryName":"Sri Lanka","latitude":"7.25000000","longitude":"80.68333300","wikiDataId":"Q7678962"},{"id":146137,"name":"Teldeniya","stateId":2788,"stateCode":"21","stateName":"Kandy District","countryId":208,"countryCode":"LK","countryName":"Sri Lanka","latitude":"7.30000000","longitude":"80.76666700","wikiDataId":"Q7695692"},{"id":146159,"name":"Thumpane","stateId":2788,"stateCode":"21","stateName":"Kandy District","countryId":208,"countryCode":"LK","countryName":"Sri Lanka","latitude":"7.36616728","longitude":"80.51587048","wikiDataId":"Q7798858"},{"id":146133,"name":"Udadumbara","stateId":2788,"stateCode":"21","stateName":"Kandy District","countryId":208,"countryCode":"LK","countryName":"Sri Lanka","latitude":"7.35000000","longitude":"80.83333300","wikiDataId":"Q28448705"},{"id":146158,"name":"Udapalatha","stateId":2788,"stateCode":"21","stateName":"Kandy District","countryId":208,"countryCode":"LK","countryName":"Sri Lanka","latitude":"7.11515526","longitude":"80.60248340","wikiDataId":"Q7876920"},{"id":146157,"name":"Ududumbara","stateId":2788,"stateCode":"21","stateName":"Kandy District","countryId":208,"countryCode":"LK","countryName":"Sri Lanka","latitude":"7.31434839","longitude":"80.87707756","wikiDataId":"Q7876855"},{"id":146156,"name":"Udunuwara","stateId":2788,"stateCode":"21","stateName":"Kandy District","countryId":208,"countryCode":"LK","countryName":"Sri Lanka","latitude":"7.22777866","longitude":"80.55894578","wikiDataId":"Q7877347"},{"id":146136,"name":"Ulapane","stateId":2788,"stateCode":"21","stateName":"Kandy District","countryId":208,"countryCode":"LK","countryName":"Sri Lanka","latitude":"7.10277800","longitude":"80.56111100","wikiDataId":"Q16902267"},{"id":146135,"name":"Watadeniya","stateId":2788,"stateCode":"21","stateName":"Kandy District","countryId":208,"countryCode":"LK","countryName":"Sri Lanka","latitude":"7.19501100","longitude":"80.55249400","wikiDataId":"Q7972972"},{"id":66542,"name":"Wattegama","stateId":2788,"stateCode":"21","stateName":"Kandy District","countryId":208,"countryCode":"LK","countryName":"Sri Lanka","latitude":"7.35027800","longitude":"80.68250000","wikiDataId":"Q7974935"},{"id":146134,"name":"Welamboda","stateId":2788,"stateCode":"21","stateName":"Kandy District","countryId":208,"countryCode":"LK","countryName":"Sri Lanka","latitude":"7.20000000","longitude":"80.55000000","wikiDataId":"Q7980493"},{"id":146155,"name":"Yatinuwara","stateId":2788,"stateCode":"21","stateName":"Kandy District","countryId":208,"countryCode":"LK","countryName":"Sri Lanka","latitude":"7.28584509","longitude":"80.53516168","wikiDataId":"Q8050245"}]