[{"id":105294,"name":"Amphoe Chiang Khan","stateId":3509,"stateCode":"42","stateName":"Loei","countryId":219,"countryCode":"TH","countryName":"Thailand","latitude":"17.82441000","longitude":"101.73424000","wikiDataId":"Q475387"},{"id":105320,"name":"Amphoe Dan Sai","stateId":3509,"stateCode":"42","stateName":"Loei","countryId":219,"countryCode":"TH","countryName":"Thailand","latitude":"17.22101000","longitude":"101.22373000","wikiDataId":"Q475447"},{"id":105338,"name":"Amphoe Erawan","stateId":3509,"stateCode":"42","stateName":"Loei","countryId":219,"countryCode":"TH","countryName":"Thailand","latitude":"17.28823000","longitude":"101.97443000","wikiDataId":"Q475493"},{"id":105549,"name":"Amphoe Mueang Loei","stateId":3509,"stateCode":"42","stateName":"Loei","countryId":219,"countryCode":"TH","countryName":"Thailand","latitude":"17.54211000","longitude":"101.71932000","wikiDataId":"Q1935374"},{"id":105611,"name":"Amphoe Na Duang","stateId":3509,"stateCode":"42","stateName":"Loei","countryId":219,"countryCode":"TH","countryName":"Thailand","latitude":"17.53833000","longitude":"101.99639000","wikiDataId":"Q476124"},{"id":105613,"name":"Amphoe Na Haeo","stateId":3509,"stateCode":"42","stateName":"Loei","countryId":219,"countryCode":"TH","countryName":"Thailand","latitude":"17.43942000","longitude":"100.99654000","wikiDataId":"Q476127"},{"id":105665,"name":"Amphoe Nong Hin","stateId":3509,"stateCode":"42","stateName":"Loei","countryId":219,"countryCode":"TH","countryName":"Thailand","latitude":"17.08087000","longitude":"101.82643000","wikiDataId":"Q476258"},{"id":105700,"name":"Amphoe Pak Chom","stateId":3509,"stateCode":"42","stateName":"Loei","countryId":219,"countryCode":"TH","countryName":"Thailand","latitude":"17.91100000","longitude":"101.95777000","wikiDataId":"Q476321"},{"id":105716,"name":"Amphoe Pha Khao","stateId":3509,"stateCode":"42","stateName":"Loei","countryId":219,"countryCode":"TH","countryName":"Thailand","latitude":"17.05638000","longitude":"102.01575000","wikiDataId":"Q476357"},{"id":105775,"name":"Amphoe Phu Kradueng","stateId":3509,"stateCode":"42","stateName":"Loei","countryId":219,"countryCode":"TH","countryName":"Thailand","latitude":"16.90190000","longitude":"101.84562000","wikiDataId":"Q476473"},{"id":105776,"name":"Amphoe Phu Luang","stateId":3509,"stateCode":"42","stateName":"Loei","countryId":219,"countryCode":"TH","countryName":"Thailand","latitude":"17.09782000","longitude":"101.64413000","wikiDataId":"Q476476"},{"id":105780,"name":"Amphoe Phu Ruea","stateId":3509,"stateCode":"42","stateName":"Loei","countryId":219,"countryCode":"TH","countryName":"Thailand","latitude":"17.35076000","longitude":"101.41329000","wikiDataId":"Q476486"},{"id":106275,"name":"Amphoe Tha Li","stateId":3509,"stateCode":"42","stateName":"Loei","countryId":219,"countryCode":"TH","countryName":"Thailand","latitude":"17.61279000","longitude":"101.44141000","wikiDataId":"Q476831"},{"id":106346,"name":"Amphoe Wang Saphung","stateId":3509,"stateCode":"42","stateName":"Loei","countryId":219,"countryCode":"TH","countryName":"Thailand","latitude":"17.28028000","longitude":"101.73342000","wikiDataId":"Q477024"},{"id":106557,"name":"Loei","stateId":3509,"stateCode":"42","stateName":"Loei","countryId":219,"countryCode":"TH","countryName":"Thailand","latitude":"17.49052000","longitude":"101.72749000","wikiDataId":"Q598784"},{"id":106649,"name":"Phu Kradueng","stateId":3509,"stateCode":"42","stateName":"Loei","countryId":219,"countryCode":"TH","countryName":"Thailand","latitude":"16.88425000","longitude":"101.88467000","wikiDataId":"Q28727059"},{"id":106747,"name":"Wang Saphung","stateId":3509,"stateCode":"42","stateName":"Loei","countryId":219,"countryCode":"TH","countryName":"Thailand","latitude":"17.30097000","longitude":"101.76850000","wikiDataId":"Q15265045"}]