[{"id":109081,"name":"Ilula","stateId":1489,"stateCode":"04","stateName":"Iringa","countryId":218,"countryCode":"TZ","countryName":"Tanzania","latitude":"-7.67660000","longitude":"36.03658000","wikiDataId":"Q5997545"},{"id":109083,"name":"Iringa","stateId":1489,"stateCode":"04","stateName":"Iringa","countryId":218,"countryCode":"TZ","countryName":"Tanzania","latitude":"-7.76667000","longitude":"35.70000000","wikiDataId":"Q735609"},{"id":109087,"name":"Izazi","stateId":1489,"stateCode":"04","stateName":"Iringa","countryId":218,"countryCode":"TZ","countryName":"Tanzania","latitude":"-7.20000000","longitude":"35.73333000","wikiDataId":"Q6101781"},{"id":109154,"name":"Mafinga","stateId":1489,"stateCode":"04","stateName":"Iringa","countryId":218,"countryCode":"TZ","countryName":"Tanzania","latitude":"-7.25000000","longitude":"35.06667000","wikiDataId":"Q35722319"},{"id":109166,"name":"Makungu","stateId":1489,"stateCode":"04","stateName":"Iringa","countryId":218,"countryCode":"TZ","countryName":"Tanzania","latitude":"-8.73333000","longitude":"35.28333000","wikiDataId":"Q6272925"},{"id":109169,"name":"Malangali","stateId":1489,"stateCode":"04","stateName":"Iringa","countryId":218,"countryCode":"TZ","countryName":"Tanzania","latitude":"-8.56667000","longitude":"34.85000000","wikiDataId":"Q6272925"}]