[{"id":296,"name":"Akunk’","stateId":2028,"stateCode":"GR","stateName":"Gegharkunik Province","countryId":12,"countryCode":"AM","countryName":"Armenia","latitude":"40.15886000","longitude":"45.72568000","wikiDataId":"Q590913"},{"id":336,"name":"Astghadzor","stateId":2028,"stateCode":"GR","stateName":"Gegharkunik Province","countryId":12,"countryCode":"AM","countryName":"Armenia","latitude":"40.12231000","longitude":"45.35553000","wikiDataId":"Q2636216"},{"id":364,"name":"Chambarak","stateId":2028,"stateCode":"GR","stateName":"Gegharkunik Province","countryId":12,"countryCode":"AM","countryName":"Armenia","latitude":"40.59655000","longitude":"45.35498000","wikiDataId":"Q1024822"},{"id":371,"name":"Ddmashen","stateId":2028,"stateCode":"GR","stateName":"Gegharkunik Province","countryId":12,"countryCode":"AM","countryName":"Armenia","latitude":"40.57028000","longitude":"44.82295000","wikiDataId":"Q1528594"},{"id":375,"name":"Drakhtik","stateId":2028,"stateCode":"GR","stateName":"Gegharkunik Province","countryId":12,"countryCode":"AM","countryName":"Armenia","latitude":"40.56497000","longitude":"45.23670000","wikiDataId":"Q1024548"},{"id":380,"name":"Dzoragyugh","stateId":2028,"stateCode":"GR","stateName":"Gegharkunik Province","countryId":12,"countryCode":"AM","countryName":"Armenia","latitude":"40.16957000","longitude":"45.18337000","wikiDataId":"Q2636104"},{"id":384,"name":"Gagarin","stateId":2028,"stateCode":"GR","stateName":"Gegharkunik Province","countryId":12,"countryCode":"AM","countryName":"Armenia","latitude":"40.54026000","longitude":"44.86962000","wikiDataId":"Q5516814"},{"id":385,"name":"Gandzak","stateId":2028,"stateCode":"GR","stateName":"Gegharkunik Province","countryId":12,"countryCode":"AM","countryName":"Armenia","latitude":"40.31472000","longitude":"45.11139000","wikiDataId":"Q1528536"},{"id":387,"name":"Gavarr","stateId":2028,"stateCode":"GR","stateName":"Gegharkunik Province","countryId":12,"countryCode":"AM","countryName":"Armenia","latitude":"40.35398000","longitude":"45.12386000","wikiDataId":"Q39565"},{"id":390,"name":"Geghamasar","stateId":2028,"stateCode":"GR","stateName":"Gegharkunik Province","countryId":12,"countryCode":"AM","countryName":"Armenia","latitude":"40.31091000","longitude":"45.67924000","wikiDataId":"Q930125"},{"id":391,"name":"Geghamavan","stateId":2028,"stateCode":"GR","stateName":"Gegharkunik Province","countryId":12,"countryCode":"AM","countryName":"Armenia","latitude":"40.56250000","longitude":"44.88892000","wikiDataId":"Q1528439"},{"id":427,"name":"Karanlukh","stateId":2028,"stateCode":"GR","stateName":"Gegharkunik Province","countryId":12,"countryCode":"AM","countryName":"Armenia","latitude":"40.10444000","longitude":"45.28972000","wikiDataId":"Q2636125"},{"id":429,"name":"Karchaghbyur","stateId":2028,"stateCode":"GR","stateName":"Gegharkunik Province","countryId":12,"countryCode":"AM","countryName":"Armenia","latitude":"40.17048000","longitude":"45.57785000","wikiDataId":"Q549736"},{"id":437,"name":"Lanjaghbyur","stateId":2028,"stateCode":"GR","stateName":"Gegharkunik Province","countryId":12,"countryCode":"AM","countryName":"Armenia","latitude":"40.26947000","longitude":"45.14447000","wikiDataId":"Q1528076"},{"id":438,"name":"Lchap’","stateId":2028,"stateCode":"GR","stateName":"Gegharkunik Province","countryId":12,"countryCode":"AM","countryName":"Armenia","latitude":"40.45569000","longitude":"45.07507000","wikiDataId":"Q1529772"},{"id":439,"name":"Lchashen","stateId":2028,"stateCode":"GR","stateName":"Gegharkunik Province","countryId":12,"countryCode":"AM","countryName":"Armenia","latitude":"40.51947000","longitude":"44.93048000","wikiDataId":"Q1528531"},{"id":446,"name":"Lichk’","stateId":2028,"stateCode":"GR","stateName":"Gegharkunik Province","countryId":12,"countryCode":"AM","countryName":"Armenia","latitude":"40.15933000","longitude":"45.23467000","wikiDataId":"Q2636159"},{"id":450,"name":"Madina","stateId":2028,"stateCode":"GR","stateName":"Gegharkunik Province","countryId":12,"countryCode":"AM","countryName":"Armenia","latitude":"40.07637000","longitude":"45.25507000","wikiDataId":"Q2392033"},{"id":457,"name":"Martuni","stateId":2028,"stateCode":"GR","stateName":"Gegharkunik Province","countryId":12,"countryCode":"AM","countryName":"Armenia","latitude":"40.08333000","longitude":"45.25000000","wikiDataId":"Q39603"},{"id":467,"name":"Mets Masrik","stateId":2028,"stateCode":"GR","stateName":"Gegharkunik Province","countryId":12,"countryCode":"AM","countryName":"Armenia","latitude":"40.21948000","longitude":"45.76391000","wikiDataId":"Q2650143"},{"id":481,"name":"Nerk’in Getashen","stateId":2028,"stateCode":"GR","stateName":"Gegharkunik Province","countryId":12,"countryCode":"AM","countryName":"Armenia","latitude":"40.14172000","longitude":"45.27087000","wikiDataId":"Q2670399"},{"id":492,"name":"Noratus","stateId":2028,"stateCode":"GR","stateName":"Gegharkunik Province","countryId":12,"countryCode":"AM","countryName":"Armenia","latitude":"40.37793000","longitude":"45.18048000","wikiDataId":"Q1528182"},{"id":511,"name":"Sarukhan","stateId":2028,"stateCode":"GR","stateName":"Gegharkunik Province","countryId":12,"countryCode":"AM","countryName":"Armenia","latitude":"40.29169000","longitude":"45.13068000","wikiDataId":"Q1528514"},{"id":514,"name":"Sevan","stateId":2028,"stateCode":"GR","stateName":"Gegharkunik Province","countryId":12,"countryCode":"AM","countryName":"Armenia","latitude":"40.54730000","longitude":"44.94171000","wikiDataId":"Q39625"},{"id":541,"name":"Tsovagyugh","stateId":2028,"stateCode":"GR","stateName":"Gegharkunik Province","countryId":12,"countryCode":"AM","countryName":"Armenia","latitude":"40.63348000","longitude":"44.96112000","wikiDataId":"Q1528222"},{"id":542,"name":"Tsovak","stateId":2028,"stateCode":"GR","stateName":"Gegharkunik Province","countryId":12,"countryCode":"AM","countryName":"Armenia","latitude":"40.18254000","longitude":"45.63286000","wikiDataId":"Q2639716"},{"id":543,"name":"Tsovasar","stateId":2028,"stateCode":"GR","stateName":"Gegharkunik Province","countryId":12,"countryCode":"AM","countryName":"Armenia","latitude":"40.13820000","longitude":"45.19096000","wikiDataId":"Q2639716"},{"id":544,"name":"Tsovazard","stateId":2028,"stateCode":"GR","stateName":"Gegharkunik Province","countryId":12,"countryCode":"AM","countryName":"Armenia","latitude":"40.47510000","longitude":"45.05011000","wikiDataId":"Q1528427"},{"id":545,"name":"Tsovinar","stateId":2028,"stateCode":"GR","stateName":"Gegharkunik Province","countryId":12,"countryCode":"AM","countryName":"Armenia","latitude":"40.15959000","longitude":"45.46786000","wikiDataId":"Q2636211"},{"id":550,"name":"Vaghashen","stateId":2028,"stateCode":"GR","stateName":"Gegharkunik Province","countryId":12,"countryCode":"AM","countryName":"Armenia","latitude":"40.13611000","longitude":"45.33069000","wikiDataId":"Q2635853"},{"id":552,"name":"Vahan","stateId":2028,"stateCode":"GR","stateName":"Gegharkunik Province","countryId":12,"countryCode":"AM","countryName":"Armenia","latitude":"40.57549000","longitude":"45.39769000","wikiDataId":"Q1024185"},{"id":556,"name":"Vardenik","stateId":2028,"stateCode":"GR","stateName":"Gegharkunik Province","countryId":12,"countryCode":"AM","countryName":"Armenia","latitude":"40.13348000","longitude":"45.44311000","wikiDataId":"Q2636186"},{"id":557,"name":"Vardenis","stateId":2028,"stateCode":"GR","stateName":"Gegharkunik Province","countryId":12,"countryCode":"AM","countryName":"Armenia","latitude":"40.18329000","longitude":"45.73053000","wikiDataId":"Q39542"},{"id":558,"name":"Varser","stateId":2028,"stateCode":"GR","stateName":"Gegharkunik Province","countryId":12,"countryCode":"AM","countryName":"Armenia","latitude":"40.55548000","longitude":"44.90832000","wikiDataId":"Q1528210"},{"id":563,"name":"Verin Getashen","stateId":2028,"stateCode":"GR","stateName":"Gegharkunik Province","countryId":12,"countryCode":"AM","countryName":"Armenia","latitude":"40.13068000","longitude":"45.25293000","wikiDataId":"Q1121968"},{"id":578,"name":"Yeranos","stateId":2028,"stateCode":"GR","stateName":"Gegharkunik Province","countryId":12,"countryCode":"AM","countryName":"Armenia","latitude":"40.20428000","longitude":"45.19209000","wikiDataId":"Q2636149"}]