[{"id":23978,"name":"Beckingen","stateId":3020,"stateCode":"SL","stateName":"Saarland","countryId":82,"countryCode":"DE","countryName":"Germany","latitude":"49.40000000","longitude":"6.70000000","wikiDataId":"Q559689"},{"id":24094,"name":"Bexbach","stateId":3020,"stateCode":"SL","stateName":"Saarland","countryId":82,"countryCode":"DE","countryName":"Germany","latitude":"49.34615000","longitude":"7.25527000","wikiDataId":"Q504022"},{"id":24182,"name":"Blieskastel","stateId":3020,"stateCode":"SL","stateName":"Saarland","countryId":82,"countryCode":"DE","countryName":"Germany","latitude":"49.23724000","longitude":"7.25617000","wikiDataId":"Q523709"},{"id":24264,"name":"Bous","stateId":3020,"stateCode":"SL","stateName":"Saarland","countryId":82,"countryCode":"DE","countryName":"Germany","latitude":"49.27732000","longitude":"6.80131000","wikiDataId":"Q3069"},{"id":24336,"name":"Britten","stateId":3020,"stateCode":"SL","stateName":"Saarland","countryId":82,"countryCode":"DE","countryName":"Germany","latitude":"49.52061000","longitude":"6.67651000","wikiDataId":"Q31921832"},{"id":24690,"name":"Dillingen","stateId":3020,"stateCode":"SL","stateName":"Saarland","countryId":82,"countryCode":"DE","countryName":"Germany","latitude":"49.35557000","longitude":"6.72781000","wikiDataId":"Q158408"},{"id":25014,"name":"Ensdorf","stateId":3020,"stateCode":"SL","stateName":"Saarland","countryId":82,"countryCode":"DE","countryName":"Germany","latitude":"49.30000000","longitude":"6.78333000","wikiDataId":"Q2760"},{"id":25018,"name":"Eppelborn","stateId":3020,"stateCode":"SL","stateName":"Saarland","countryId":82,"countryCode":"DE","countryName":"Germany","latitude":"49.40000000","longitude":"6.96667000","wikiDataId":"Q570286"},{"id":25250,"name":"Freisen","stateId":3020,"stateCode":"SL","stateName":"Saarland","countryId":82,"countryCode":"DE","countryName":"Germany","latitude":"49.55000000","longitude":"7.25000000","wikiDataId":"Q569850"},{"id":25294,"name":"Friedrichsthal","stateId":3020,"stateCode":"SL","stateName":"Saarland","countryId":82,"countryCode":"DE","countryName":"Germany","latitude":"49.32786000","longitude":"7.09622000","wikiDataId":"Q32018650"},{"id":25332,"name":"Fürstenhausen","stateId":3020,"stateCode":"SL","stateName":"Saarland","countryId":82,"countryCode":"DE","countryName":"Germany","latitude":"49.24075000","longitude":"6.86817000","wikiDataId":"Q505727"},{"id":25460,"name":"Gersheim","stateId":3020,"stateCode":"SL","stateName":"Saarland","countryId":82,"countryCode":"DE","countryName":"Germany","latitude":"49.15000000","longitude":"7.20000000","wikiDataId":"Q627722"},{"id":25701,"name":"Großrosseln","stateId":3020,"stateCode":"SL","stateName":"Saarland","countryId":82,"countryCode":"DE","countryName":"Germany","latitude":"49.20296000","longitude":"6.84148000","wikiDataId":"Q39797"},{"id":25887,"name":"Hangard","stateId":3020,"stateCode":"SL","stateName":"Saarland","countryId":82,"countryCode":"DE","countryName":"Germany","latitude":"49.38260000","longitude":"7.21046000","wikiDataId":"Q631638"},{"id":25990,"name":"Heidstock","stateId":3020,"stateCode":"SL","stateName":"Saarland","countryId":82,"countryCode":"DE","countryName":"Germany","latitude":"49.25571000","longitude":"6.88156000","wikiDataId":"Q524535"},{"id":26125,"name":"Heusweiler","stateId":3020,"stateCode":"SL","stateName":"Saarland","countryId":82,"countryCode":"DE","countryName":"Germany","latitude":"49.33632000","longitude":"6.93036000","wikiDataId":"Q558914"},{"id":26252,"name":"Homburg","stateId":3020,"stateCode":"SL","stateName":"Saarland","countryId":82,"countryCode":"DE","countryName":"Germany","latitude":"49.32637000","longitude":"7.33867000","wikiDataId":"Q624176"},{"id":26369,"name":"Illingen","stateId":3020,"stateCode":"SL","stateName":"Saarland","countryId":82,"countryCode":"DE","countryName":"Germany","latitude":"49.37362000","longitude":"7.04758000","wikiDataId":"Q517653"},{"id":26641,"name":"Kirkel","stateId":3020,"stateCode":"SL","stateName":"Saarland","countryId":82,"countryCode":"DE","countryName":"Germany","latitude":"49.28333000","longitude":"7.23333000","wikiDataId":"Q553589"},{"id":26669,"name":"Kleinblittersdorf","stateId":3020,"stateCode":"SL","stateName":"Saarland","countryId":82,"countryCode":"DE","countryName":"Germany","latitude":"49.15780000","longitude":"7.03734000","wikiDataId":"Q39781"},{"id":26994,"name":"Lebach","stateId":3020,"stateCode":"SL","stateName":"Saarland","countryId":82,"countryCode":"DE","countryName":"Germany","latitude":"49.41122000","longitude":"6.90988000","wikiDataId":"Q558593"},{"id":27151,"name":"Losheim","stateId":3020,"stateCode":"SL","stateName":"Saarland","countryId":82,"countryCode":"DE","countryName":"Germany","latitude":"49.50990000","longitude":"6.74549000","wikiDataId":"Q32110632"},{"id":27162,"name":"Ludweiler-Warndt","stateId":3020,"stateCode":"SL","stateName":"Saarland","countryId":82,"countryCode":"DE","countryName":"Germany","latitude":"49.22074000","longitude":"6.81195000","wikiDataId":"Q574146"},{"id":27173,"name":"Luisenthal","stateId":3020,"stateCode":"SL","stateName":"Saarland","countryId":82,"countryCode":"DE","countryName":"Germany","latitude":"49.24932000","longitude":"6.90057000","wikiDataId":"Q546691"},{"id":27245,"name":"Mainzweiler","stateId":3020,"stateCode":"SL","stateName":"Saarland","countryId":82,"countryCode":"DE","countryName":"Germany","latitude":"49.41714000","longitude":"7.11804000","wikiDataId":"Q32117045"},{"id":27323,"name":"Marpingen","stateId":3020,"stateCode":"SL","stateName":"Saarland","countryId":82,"countryCode":"DE","countryName":"Germany","latitude":"49.45228000","longitude":"7.05820000","wikiDataId":"Q630853"},{"id":27415,"name":"Merchweiler","stateId":3020,"stateCode":"SL","stateName":"Saarland","countryId":82,"countryCode":"DE","countryName":"Germany","latitude":"49.35000000","longitude":"7.05000000","wikiDataId":"Q630725"},{"id":27430,"name":"Merzig","stateId":3020,"stateCode":"SL","stateName":"Saarland","countryId":82,"countryCode":"DE","countryName":"Germany","latitude":"49.44331000","longitude":"6.63874000","wikiDataId":"Q632798"},{"id":27442,"name":"Mettlach","stateId":3020,"stateCode":"SL","stateName":"Saarland","countryId":82,"countryCode":"DE","countryName":"Germany","latitude":"49.49489000","longitude":"6.58562000","wikiDataId":"Q543627"},{"id":27639,"name":"Nalbach","stateId":3020,"stateCode":"SL","stateName":"Saarland","countryId":82,"countryCode":"DE","countryName":"Germany","latitude":"49.38333000","longitude":"6.78333000","wikiDataId":"Q553221"},{"id":27640,"name":"Namborn","stateId":3020,"stateCode":"SL","stateName":"Saarland","countryId":82,"countryCode":"DE","countryName":"Germany","latitude":"49.52166000","longitude":"7.14070000","wikiDataId":"Q555251"},{"id":27780,"name":"Neunkirchen","stateId":3020,"stateCode":"SL","stateName":"Saarland","countryId":82,"countryCode":"DE","countryName":"Germany","latitude":"49.34449000","longitude":"7.18045000","wikiDataId":"Q6880"},{"id":27907,"name":"Nohfelden","stateId":3020,"stateCode":"SL","stateName":"Saarland","countryId":82,"countryCode":"DE","countryName":"Germany","latitude":"49.58693000","longitude":"7.14283000","wikiDataId":"Q570209"},{"id":27910,"name":"Nonnweiler","stateId":3020,"stateCode":"SL","stateName":"Saarland","countryId":82,"countryCode":"DE","countryName":"Germany","latitude":"49.60762000","longitude":"6.96986000","wikiDataId":"Q550261"},{"id":28046,"name":"Oberthal","stateId":3020,"stateCode":"SL","stateName":"Saarland","countryId":82,"countryCode":"DE","countryName":"Germany","latitude":"49.51257000","longitude":"7.08382000","wikiDataId":"Q544761"},{"id":28128,"name":"Orscholz","stateId":3020,"stateCode":"SL","stateName":"Saarland","countryId":82,"countryCode":"DE","countryName":"Germany","latitude":"49.50593000","longitude":"6.52502000","wikiDataId":"Q1656236"},{"id":28197,"name":"Ottweiler","stateId":3020,"stateCode":"SL","stateName":"Saarland","countryId":82,"countryCode":"DE","countryName":"Germany","latitude":"49.40133000","longitude":"7.16424000","wikiDataId":"Q562147"},{"id":28423,"name":"Püttlingen","stateId":3020,"stateCode":"SL","stateName":"Saarland","countryId":82,"countryCode":"DE","countryName":"Germany","latitude":"49.28550000","longitude":"6.88723000","wikiDataId":"Q544908"},{"id":28433,"name":"Quierschied","stateId":3020,"stateCode":"SL","stateName":"Saarland","countryId":82,"countryCode":"DE","countryName":"Germany","latitude":"49.31667000","longitude":"7.05000000","wikiDataId":"Q662580"},{"id":28639,"name":"Riegelsberg","stateId":3020,"stateCode":"SL","stateName":"Saarland","countryId":82,"countryCode":"DE","countryName":"Germany","latitude":"49.30000000","longitude":"6.93333000","wikiDataId":"Q628341"},{"id":28775,"name":"Röchling-Höhe","stateId":3020,"stateCode":"SL","stateName":"Saarland","countryId":82,"countryCode":"DE","countryName":"Germany","latitude":"49.27102000","longitude":"6.83457000","wikiDataId":"Q689577"},{"id":28816,"name":"Saarbrücken","stateId":3020,"stateCode":"SL","stateName":"Saarland","countryId":82,"countryCode":"DE","countryName":"Germany","latitude":"49.23262000","longitude":"7.00982000","wikiDataId":"Q1724"},{"id":28818,"name":"Saarhölzbach","stateId":3020,"stateCode":"SL","stateName":"Saarland","countryId":82,"countryCode":"DE","countryName":"Germany","latitude":"49.51585000","longitude":"6.60742000","wikiDataId":"Q543639"},{"id":28819,"name":"Saarlouis","stateId":3020,"stateCode":"SL","stateName":"Saarland","countryId":82,"countryCode":"DE","countryName":"Germany","latitude":"49.31366000","longitude":"6.75154000","wikiDataId":"Q14912"},{"id":28820,"name":"Saarwellingen","stateId":3020,"stateCode":"SL","stateName":"Saarland","countryId":82,"countryCode":"DE","countryName":"Germany","latitude":"49.35430000","longitude":"6.80487000","wikiDataId":"Q555648"},{"id":28869,"name":"Sankt Ingbert","stateId":3020,"stateCode":"SL","stateName":"Saarland","countryId":82,"countryCode":"DE","countryName":"Germany","latitude":"49.27697000","longitude":"7.11672000","wikiDataId":"Q32278322"},{"id":28883,"name":"Sankt Wendel","stateId":3020,"stateCode":"SL","stateName":"Saarland","countryId":82,"countryCode":"DE","countryName":"Germany","latitude":"49.46633000","longitude":"7.16814000","wikiDataId":"Q20749"},{"id":28944,"name":"Schiffweiler","stateId":3020,"stateCode":"SL","stateName":"Saarland","countryId":82,"countryCode":"DE","countryName":"Germany","latitude":"49.36667000","longitude":"7.13333000","wikiDataId":"Q631957"},{"id":28990,"name":"Schmelz","stateId":3020,"stateCode":"SL","stateName":"Saarland","countryId":82,"countryCode":"DE","countryName":"Germany","latitude":"49.43333000","longitude":"6.85000000","wikiDataId":"Q641689"},{"id":29049,"name":"Schwalbach","stateId":3020,"stateCode":"SL","stateName":"Saarland","countryId":82,"countryCode":"DE","countryName":"Germany","latitude":"49.30000000","longitude":"6.81667000","wikiDataId":"Q81712"},{"id":29302,"name":"Spiesen-Elversberg","stateId":3020,"stateCode":"SL","stateName":"Saarland","countryId":82,"countryCode":"DE","countryName":"Germany","latitude":"49.31667000","longitude":"7.13333000","wikiDataId":"Q629932"},{"id":29467,"name":"Sulzbach","stateId":3020,"stateCode":"SL","stateName":"Saarland","countryId":82,"countryCode":"DE","countryName":"Germany","latitude":"49.29882000","longitude":"7.05696000","wikiDataId":"Q83167"},{"id":29596,"name":"Tholey","stateId":3020,"stateCode":"SL","stateName":"Saarland","countryId":82,"countryCode":"DE","countryName":"Germany","latitude":"49.48374000","longitude":"7.03691000","wikiDataId":"Q638618"},{"id":30554,"name":"Überherrn","stateId":3020,"stateCode":"SL","stateName":"Saarland","countryId":82,"countryCode":"DE","countryName":"Germany","latitude":"49.24187000","longitude":"6.69840000","wikiDataId":"Q332495"},{"id":29892,"name":"Völklingen","stateId":3020,"stateCode":"SL","stateName":"Saarland","countryId":82,"countryCode":"DE","countryName":"Germany","latitude":"49.25162000","longitude":"6.85873000","wikiDataId":"Q14876"},{"id":29910,"name":"Wadern","stateId":3020,"stateCode":"SL","stateName":"Saarland","countryId":82,"countryCode":"DE","countryName":"Germany","latitude":"49.54122000","longitude":"6.88774000","wikiDataId":"Q529164"},{"id":29912,"name":"Wadgassen","stateId":3020,"stateCode":"SL","stateName":"Saarland","countryId":82,"countryCode":"DE","countryName":"Germany","latitude":"49.26667000","longitude":"6.78333000","wikiDataId":"Q253419"},{"id":29977,"name":"Wallerfangen","stateId":3020,"stateCode":"SL","stateName":"Saarland","countryId":82,"countryCode":"DE","countryName":"Germany","latitude":"49.32749000","longitude":"6.71102000","wikiDataId":"Q665005"},{"id":30110,"name":"Weiskirchen","stateId":3020,"stateCode":"SL","stateName":"Saarland","countryId":82,"countryCode":"DE","countryName":"Germany","latitude":"49.55000000","longitude":"6.81667000","wikiDataId":"Q570294"},{"id":30115,"name":"Weiten","stateId":3020,"stateCode":"SL","stateName":"Saarland","countryId":82,"countryCode":"DE","countryName":"Germany","latitude":"49.53011000","longitude":"6.54064000","wikiDataId":"Q561811"}]