[{"id":97519,"name":"Agirish","stateId":1838,"stateCode":"KHM","stateName":"Khanty-Mansi Autonomous Okrug","countryId":182,"countryCode":"RU","countryName":"Russia","latitude":"61.92472000","longitude":"63.02306000","wikiDataId":"Q3454348"},{"id":97625,"name":"Andra","stateId":1838,"stateCode":"KHM","stateName":"Khanty-Mansi Autonomous Okrug","countryId":182,"countryCode":"RU","countryName":"Russia","latitude":"62.51472000","longitude":"65.88778000","wikiDataId":"Q31883195"},{"id":97797,"name":"Barsovo","stateId":1838,"stateCode":"KHM","stateName":"Khanty-Mansi Autonomous Okrug","countryId":182,"countryCode":"RU","countryName":"Russia","latitude":"61.16667000","longitude":"73.16667000","wikiDataId":"Q3019228"},{"id":97869,"name":"Beloyarskiy","stateId":1838,"stateCode":"KHM","stateName":"Khanty-Mansi Autonomous Okrug","countryId":182,"countryCode":"RU","countryName":"Russia","latitude":"63.71194000","longitude":"66.67222000","wikiDataId":"Q104957"},{"id":97906,"name":"Berëzovo","stateId":1838,"stateCode":"KHM","stateName":"Khanty-Mansi Autonomous Okrug","countryId":182,"countryCode":"RU","countryName":"Russia","latitude":"63.93806000","longitude":"65.04194000","wikiDataId":"Q820767"},{"id":98417,"name":"Fedorovskiy","stateId":1838,"stateCode":"KHM","stateName":"Khanty-Mansi Autonomous Okrug","countryId":182,"countryCode":"RU","countryName":"Russia","latitude":"61.60630000","longitude":"73.71415000","wikiDataId":"Q2181986"},{"id":98531,"name":"Gornopravdinsk","stateId":1838,"stateCode":"KHM","stateName":"Khanty-Mansi Autonomous Okrug","countryId":182,"countryCode":"RU","countryName":"Russia","latitude":"60.05000000","longitude":"69.90000000","wikiDataId":"Q37804008"},{"id":98635,"name":"Igrim","stateId":1838,"stateCode":"KHM","stateName":"Khanty-Mansi Autonomous Okrug","countryId":182,"countryCode":"RU","countryName":"Russia","latitude":"63.19060000","longitude":"64.41620000","wikiDataId":"Q4197720"},{"id":98750,"name":"Izluchinsk","stateId":1838,"stateCode":"KHM","stateName":"Khanty-Mansi Autonomous Okrug","countryId":182,"countryCode":"RU","countryName":"Russia","latitude":"60.97944000","longitude":"76.92421000","wikiDataId":"Q37816296"},{"id":98962,"name":"Khanty-Mansiysk","stateId":1838,"stateCode":"KHM","stateName":"Khanty-Mansi Autonomous Okrug","countryId":182,"countryCode":"RU","countryName":"Russia","latitude":"61.00417000","longitude":"69.00194000","wikiDataId":"Q6329"},{"id":99017,"name":"Khulimsunt","stateId":1838,"stateCode":"KHM","stateName":"Khanty-Mansi Autonomous Okrug","countryId":182,"countryCode":"RU","countryName":"Russia","latitude":"62.86333000","longitude":"61.64361000","wikiDataId":"Q35695588"},{"id":99128,"name":"Kogalym","stateId":1838,"stateCode":"KHM","stateName":"Khanty-Mansi Autonomous Okrug","countryId":182,"countryCode":"RU","countryName":"Russia","latitude":"62.26537000","longitude":"74.47906000","wikiDataId":"Q154630"},{"id":99167,"name":"Kommunisticheskiy","stateId":1838,"stateCode":"KHM","stateName":"Khanty-Mansi Autonomous Okrug","countryId":182,"countryCode":"RU","countryName":"Russia","latitude":"61.67889000","longitude":"64.48194000","wikiDataId":"Q35698833"},{"id":99179,"name":"Kondinskoye","stateId":1838,"stateCode":"KHM","stateName":"Khanty-Mansi Autonomous Okrug","countryId":182,"countryCode":"RU","countryName":"Russia","latitude":"59.64806000","longitude":"67.41000000","wikiDataId":"Q4230501"},{"id":99441,"name":"Kuminskiy","stateId":1838,"stateCode":"KHM","stateName":"Khanty-Mansi Autonomous Okrug","countryId":182,"countryCode":"RU","countryName":"Russia","latitude":"58.66667000","longitude":"66.56667000","wikiDataId":"Q35705141"},{"id":99544,"name":"Langepas","stateId":1838,"stateCode":"KHM","stateName":"Khanty-Mansi Autonomous Okrug","countryId":182,"countryCode":"RU","countryName":"Russia","latitude":"61.25439000","longitude":"75.21240000","wikiDataId":"Q157395"},{"id":99653,"name":"Lokosovo","stateId":1838,"stateCode":"KHM","stateName":"Khanty-Mansi Autonomous Okrug","countryId":182,"countryCode":"RU","countryName":"Russia","latitude":"61.13333000","longitude":"74.81667000","wikiDataId":"Q35718910"},{"id":99705,"name":"Lyantor","stateId":1838,"stateCode":"KHM","stateName":"Khanty-Mansi Autonomous Okrug","countryId":182,"countryCode":"RU","countryName":"Russia","latitude":"61.61945000","longitude":"72.15546000","wikiDataId":"Q157850"},{"id":99758,"name":"Malinovskiy","stateId":1838,"stateCode":"KHM","stateName":"Khanty-Mansi Autonomous Okrug","countryId":182,"countryCode":"RU","countryName":"Russia","latitude":"61.19528000","longitude":"62.83972000","wikiDataId":"Q4277945"},{"id":99851,"name":"Megion","stateId":1838,"stateCode":"KHM","stateName":"Khanty-Mansi Autonomous Okrug","countryId":182,"countryCode":"RU","countryName":"Russia","latitude":"61.02960000","longitude":"76.11360000","wikiDataId":"Q158405"},{"id":99881,"name":"Mezhdurechenskiy","stateId":1838,"stateCode":"KHM","stateName":"Khanty-Mansi Autonomous Okrug","countryId":182,"countryCode":"RU","countryName":"Russia","latitude":"59.60000000","longitude":"65.93333000","wikiDataId":"Q35728433"},{"id":99968,"name":"Mortka","stateId":1838,"stateCode":"KHM","stateName":"Khanty-Mansi Autonomous Okrug","countryId":182,"countryCode":"RU","countryName":"Russia","latitude":"59.33222000","longitude":"66.02139000","wikiDataId":"Q4303442"},{"id":100088,"name":"Nefteyugansk","stateId":1838,"stateCode":"KHM","stateName":"Khanty-Mansi Autonomous Okrug","countryId":182,"countryCode":"RU","countryName":"Russia","latitude":"61.09979000","longitude":"72.60349000","wikiDataId":"Q172616"},{"id":100158,"name":"Nizhnesortymskiy","stateId":1838,"stateCode":"KHM","stateName":"Khanty-Mansi Autonomous Okrug","countryId":182,"countryCode":"RU","countryName":"Russia","latitude":"62.43965000","longitude":"71.76029000","wikiDataId":"Q37896720"},{"id":100160,"name":"Nizhnevartovsk","stateId":1838,"stateCode":"KHM","stateName":"Khanty-Mansi Autonomous Okrug","countryId":182,"countryCode":"RU","countryName":"Russia","latitude":"60.93440000","longitude":"76.55310000","wikiDataId":"Q172637"},{"id":100221,"name":"Novoagansk","stateId":1838,"stateCode":"KHM","stateName":"Khanty-Mansi Autonomous Okrug","countryId":182,"countryCode":"RU","countryName":"Russia","latitude":"61.94490000","longitude":"76.66250000","wikiDataId":"Q37898274"},{"id":100373,"name":"Nyagan","stateId":1838,"stateCode":"KHM","stateName":"Khanty-Mansi Autonomous Okrug","countryId":182,"countryCode":"RU","countryName":"Russia","latitude":"62.14056000","longitude":"65.39361000","wikiDataId":"Q175576"},{"id":100681,"name":"Pionerskiy","stateId":1838,"stateCode":"KHM","stateName":"Khanty-Mansi Autonomous Okrug","countryId":182,"countryCode":"RU","countryName":"Russia","latitude":"61.19472000","longitude":"62.86889000","wikiDataId":"Q37961658"},{"id":100739,"name":"Pokachi","stateId":1838,"stateCode":"KHM","stateName":"Khanty-Mansi Autonomous Okrug","countryId":182,"countryCode":"RU","countryName":"Russia","latitude":"61.71982000","longitude":"75.36827000","wikiDataId":"Q179525"},{"id":100798,"name":"Poykovskiy","stateId":1838,"stateCode":"KHM","stateName":"Khanty-Mansi Autonomous Okrug","countryId":182,"countryCode":"RU","countryName":"Russia","latitude":"61.23333000","longitude":"73.33333000","wikiDataId":"Q37961610"},{"id":100836,"name":"Priob’ye","stateId":1838,"stateCode":"KHM","stateName":"Khanty-Mansi Autonomous Okrug","countryId":182,"countryCode":"RU","countryName":"Russia","latitude":"62.52056000","longitude":"65.59639000","wikiDataId":"Q1001512"},{"id":100917,"name":"Pyt-Yakh","stateId":1838,"stateCode":"KHM","stateName":"Khanty-Mansi Autonomous Okrug","countryId":182,"countryCode":"RU","countryName":"Russia","latitude":"60.74985000","longitude":"72.85824000","wikiDataId":"Q184391"},{"id":100927,"name":"Raduzhny","stateId":1838,"stateCode":"KHM","stateName":"Khanty-Mansi Autonomous Okrug","countryId":182,"countryCode":"RU","countryName":"Russia","latitude":"62.09611000","longitude":"77.47500000","wikiDataId":"Q184562"},{"id":101030,"name":"Russkinskiye","stateId":1838,"stateCode":"KHM","stateName":"Khanty-Mansi Autonomous Okrug","countryId":182,"countryCode":"RU","countryName":"Russia","latitude":"62.15380000","longitude":"73.60102000","wikiDataId":"Q4400429"},{"id":101082,"name":"Salym","stateId":1838,"stateCode":"KHM","stateName":"Khanty-Mansi Autonomous Okrug","countryId":182,"countryCode":"RU","countryName":"Russia","latitude":"60.06250000","longitude":"71.47889000","wikiDataId":"Q37961542"},{"id":101109,"name":"Saranpaul’","stateId":1838,"stateCode":"KHM","stateName":"Khanty-Mansi Autonomous Okrug","countryId":182,"countryCode":"RU","countryName":"Russia","latitude":"64.26102000","longitude":"60.90233000","wikiDataId":"Q37961533"},{"id":101307,"name":"Sherkaly","stateId":1838,"stateCode":"KHM","stateName":"Khanty-Mansi Autonomous Okrug","countryId":182,"countryCode":"RU","countryName":"Russia","latitude":"62.75806000","longitude":"65.47528000","wikiDataId":"Q37961369"},{"id":101375,"name":"Singapay","stateId":1838,"stateCode":"KHM","stateName":"Khanty-Mansi Autonomous Okrug","countryId":182,"countryCode":"RU","countryName":"Russia","latitude":"61.15452000","longitude":"72.66072000","wikiDataId":"Q37957569"},{"id":101452,"name":"Solnechniy","stateId":1838,"stateCode":"KHM","stateName":"Khanty-Mansi Autonomous Okrug","countryId":182,"countryCode":"RU","countryName":"Russia","latitude":"61.27944000","longitude":"73.18139000","wikiDataId":"Q196384"},{"id":101511,"name":"Sovetskiy","stateId":1838,"stateCode":"KHM","stateName":"Khanty-Mansi Autonomous Okrug","countryId":182,"countryCode":"RU","countryName":"Russia","latitude":"61.36139000","longitude":"63.58417000","wikiDataId":"Q196377"},{"id":101676,"name":"Surgut","stateId":1838,"stateCode":"KHM","stateName":"Khanty-Mansi Autonomous Okrug","countryId":182,"countryCode":"RU","countryName":"Russia","latitude":"61.25000000","longitude":"73.41667000","wikiDataId":"Q183002"},{"id":102071,"name":"Uray","stateId":1838,"stateCode":"KHM","stateName":"Khanty-Mansi Autonomous Okrug","countryId":182,"countryCode":"RU","countryName":"Russia","latitude":"60.13044000","longitude":"64.78896000","wikiDataId":"Q196833"},{"id":102588,"name":"Yugorsk","stateId":1838,"stateCode":"KHM","stateName":"Khanty-Mansi Autonomous Okrug","countryId":182,"countryCode":"RU","countryName":"Russia","latitude":"61.31226000","longitude":"63.33067000","wikiDataId":"Q198776"},{"id":102691,"name":"Zelenoborsk","stateId":1838,"stateCode":"KHM","stateName":"Khanty-Mansi Autonomous Okrug","countryId":182,"countryCode":"RU","countryName":"Russia","latitude":"61.47088000","longitude":"64.04344000","wikiDataId":"Q33527055"}]