[{"id":106885,"name":"Atamyrat","stateId":3370,"stateCode":"L","stateName":"Lebap Region","countryId":226,"countryCode":"TM","countryName":"Turkmenistan","latitude":"37.83573000","longitude":"65.21058000","wikiDataId":"Q2357934"},{"id":106892,"name":"Farap","stateId":3370,"stateCode":"L","stateName":"Lebap Region","countryId":226,"countryCode":"TM","countryName":"Turkmenistan","latitude":"39.17037000","longitude":"63.61165000","wikiDataId":"Q2587941"},{"id":106893,"name":"Gazojak","stateId":3370,"stateCode":"L","stateName":"Lebap Region","countryId":226,"countryCode":"TM","countryName":"Turkmenistan","latitude":"41.18746000","longitude":"61.40360000","wikiDataId":"Q4131635"},{"id":106894,"name":"Gowurdak","stateId":3370,"stateCode":"L","stateName":"Lebap Region","countryId":226,"countryCode":"TM","countryName":"Turkmenistan","latitude":"37.81244000","longitude":"66.04656000","wikiDataId":"Q1023619"},{"id":106900,"name":"Saýat","stateId":3370,"stateCode":"L","stateName":"Lebap Region","countryId":226,"countryCode":"TM","countryName":"Turkmenistan","latitude":"38.78393000","longitude":"63.88035000","wikiDataId":"Q4409652"},{"id":106906,"name":"Türkmenabat","stateId":3370,"stateCode":"L","stateName":"Lebap Region","countryId":226,"countryCode":"TM","countryName":"Turkmenistan","latitude":"39.07328000","longitude":"63.57861000","wikiDataId":"Q487684"}]