[{"id":16199,"name":"Bay Roberts","stateId":877,"stateCode":"NL","stateName":"Newfoundland and Labrador","countryId":39,"countryCode":"CA","countryName":"Canada","latitude":"47.59989000","longitude":"-53.26478000","wikiDataId":"Q2892168"},{"id":16200,"name":"Bay St. George South","stateId":877,"stateCode":"NL","stateName":"Newfoundland and Labrador","countryId":39,"countryCode":"CA","countryName":"Canada","latitude":"48.22781000","longitude":"-58.84162000","wikiDataId":"Q2892168"},{"id":16228,"name":"Bonavista","stateId":877,"stateCode":"NL","stateName":"Newfoundland and Labrador","countryId":39,"countryCode":"CA","countryName":"Canada","latitude":"48.64989000","longitude":"-53.11474000","wikiDataId":"Q2909951"},{"id":16230,"name":"Botwood","stateId":877,"stateCode":"NL","stateName":"Newfoundland and Labrador","countryId":39,"countryCode":"CA","countryName":"Canada","latitude":"49.14994000","longitude":"-55.34819000","wikiDataId":"Q2911880"},{"id":16251,"name":"Burgeo","stateId":877,"stateCode":"NL","stateName":"Newfoundland and Labrador","countryId":39,"countryCode":"CA","countryName":"Canada","latitude":"47.61668000","longitude":"-57.61516000","wikiDataId":"Q2928455"},{"id":16276,"name":"Carbonear","stateId":877,"stateCode":"NL","stateName":"Newfoundland and Labrador","countryId":39,"countryCode":"CA","countryName":"Canada","latitude":"47.73319000","longitude":"-53.21478000","wikiDataId":"Q2937956"},{"id":16287,"name":"Catalina","stateId":877,"stateCode":"NL","stateName":"Newfoundland and Labrador","countryId":39,"countryCode":"CA","countryName":"Canada","latitude":"48.51659000","longitude":"-53.08135000","wikiDataId":"Q5051247"},{"id":16294,"name":"Channel-Port aux Basques","stateId":877,"stateCode":"NL","stateName":"Newfoundland and Labrador","countryId":39,"countryCode":"CA","countryName":"Canada","latitude":"47.57286000","longitude":"-59.13808000","wikiDataId":"Q1013617"},{"id":16313,"name":"Clarenville-Shoal Harbour","stateId":877,"stateCode":"NL","stateName":"Newfoundland and Labrador","countryId":39,"countryCode":"CA","countryName":"Canada","latitude":"48.18050000","longitude":"-53.96982000","wikiDataId":"Q2364972"},{"id":16327,"name":"Conception Bay South","stateId":877,"stateCode":"NL","stateName":"Newfoundland and Labrador","countryId":39,"countryCode":"CA","countryName":"Canada","latitude":"47.49989000","longitude":"-52.99806000","wikiDataId":"Q1123842"},{"id":16336,"name":"Corner Brook","stateId":877,"stateCode":"NL","stateName":"Newfoundland and Labrador","countryId":39,"countryCode":"CA","countryName":"Canada","latitude":"48.95001000","longitude":"-57.95202000","wikiDataId":"Q991363"},{"id":16362,"name":"Deer Lake","stateId":877,"stateCode":"NL","stateName":"Newfoundland and Labrador","countryId":39,"countryCode":"CA","countryName":"Canada","latitude":"49.16671000","longitude":"-57.43163000","wikiDataId":"Q2674298"},{"id":16425,"name":"Fogo Island","stateId":877,"stateCode":"NL","stateName":"Newfoundland and Labrador","countryId":39,"countryCode":"CA","countryName":"Canada","latitude":"49.71649000","longitude":"-54.16981000","wikiDataId":"Q551124"},{"id":16445,"name":"Gambo","stateId":877,"stateCode":"NL","stateName":"Newfoundland and Labrador","countryId":39,"countryCode":"CA","countryName":"Canada","latitude":"48.78320000","longitude":"-54.21482000","wikiDataId":"Q3094948"},{"id":16460,"name":"Goulds","stateId":877,"stateCode":"NL","stateName":"Newfoundland and Labrador","countryId":39,"countryCode":"CA","countryName":"Canada","latitude":"47.45532000","longitude":"-52.77552000","wikiDataId":"Q1020179"},{"id":16462,"name":"Grand Bank","stateId":877,"stateCode":"NL","stateName":"Newfoundland and Labrador","countryId":39,"countryCode":"CA","countryName":"Canada","latitude":"47.09995000","longitude":"-55.76504000","wikiDataId":"Q3113519"},{"id":16464,"name":"Grand Falls-Windsor","stateId":877,"stateCode":"NL","stateName":"Newfoundland and Labrador","countryId":39,"countryCode":"CA","countryName":"Canada","latitude":"48.93324000","longitude":"-55.66492000","wikiDataId":"Q1542592"},{"id":16491,"name":"Happy Valley-Goose Bay","stateId":877,"stateCode":"NL","stateName":"Newfoundland and Labrador","countryId":39,"countryCode":"CA","countryName":"Canada","latitude":"53.30380000","longitude":"-60.32576000","wikiDataId":"Q1266964"},{"id":16492,"name":"Harbour Breton","stateId":877,"stateCode":"NL","stateName":"Newfoundland and Labrador","countryId":39,"countryCode":"CA","countryName":"Canada","latitude":"47.48325000","longitude":"-55.79833000","wikiDataId":"Q3127311"},{"id":16574,"name":"Labrador City","stateId":877,"stateCode":"NL","stateName":"Newfoundland and Labrador","countryId":39,"countryCode":"CA","countryName":"Canada","latitude":"52.94626000","longitude":"-66.91137000","wikiDataId":"Q767147"},{"id":16615,"name":"Lewisporte","stateId":877,"stateCode":"NL","stateName":"Newfoundland and Labrador","countryId":39,"countryCode":"CA","countryName":"Canada","latitude":"49.24993000","longitude":"-55.04816000","wikiDataId":"Q6537373"},{"id":16664,"name":"Marystown","stateId":877,"stateCode":"NL","stateName":"Newfoundland and Labrador","countryId":39,"countryCode":"CA","countryName":"Canada","latitude":"47.16663000","longitude":"-55.14829000","wikiDataId":"Q3296356"},{"id":16724,"name":"Mount Pearl","stateId":877,"stateCode":"NL","stateName":"Newfoundland and Labrador","countryId":39,"countryCode":"CA","countryName":"Canada","latitude":"47.51659000","longitude":"-52.78135000","wikiDataId":"Q1950648"},{"id":16802,"name":"Pasadena","stateId":877,"stateCode":"NL","stateName":"Newfoundland and Labrador","countryId":39,"countryCode":"CA","countryName":"Canada","latitude":"49.01671000","longitude":"-57.59837000","wikiDataId":"Q3367223"},{"id":17063,"name":"Springdale","stateId":877,"stateCode":"NL","stateName":"Newfoundland and Labrador","countryId":39,"countryCode":"CA","countryName":"Canada","latitude":"49.49995000","longitude":"-56.06492000","wikiDataId":"Q7580835"},{"id":17069,"name":"St. Anthony","stateId":877,"stateCode":"NL","stateName":"Newfoundland and Labrador","countryId":39,"countryCode":"CA","countryName":"Canada","latitude":"51.37039000","longitude":"-55.59743000","wikiDataId":"Q2317218"},{"id":17072,"name":"St. John's","stateId":877,"stateCode":"NL","stateName":"Newfoundland and Labrador","countryId":39,"countryCode":"CA","countryName":"Canada","latitude":"47.56494000","longitude":"-52.70931000","wikiDataId":"Q2082"},{"id":17076,"name":"Stephenville","stateId":877,"stateCode":"NL","stateName":"Newfoundland and Labrador","countryId":39,"countryCode":"CA","countryName":"Canada","latitude":"48.55001000","longitude":"-58.58180000","wikiDataId":"Q626279"},{"id":17077,"name":"Stephenville Crossing","stateId":877,"stateCode":"NL","stateName":"Newfoundland and Labrador","countryId":39,"countryCode":"CA","countryName":"Canada","latitude":"48.50001000","longitude":"-58.43180000","wikiDataId":"Q7611009"},{"id":17120,"name":"Torbay","stateId":877,"stateCode":"NL","stateName":"Newfoundland and Labrador","countryId":39,"countryCode":"CA","countryName":"Canada","latitude":"47.66659000","longitude":"-52.73135000","wikiDataId":"Q7825435"},{"id":17135,"name":"Upper Island Cove","stateId":877,"stateCode":"NL","stateName":"Newfoundland and Labrador","countryId":39,"countryCode":"CA","countryName":"Canada","latitude":"47.64989000","longitude":"-53.21478000","wikiDataId":"Q7898706"},{"id":17164,"name":"Wabana","stateId":877,"stateCode":"NL","stateName":"Newfoundland and Labrador","countryId":39,"countryCode":"CA","countryName":"Canada","latitude":"47.63319000","longitude":"-52.94806000","wikiDataId":"Q3303444"}]