[{"id":64967,"name":"Mongkol Borei","stateId":3984,"stateCode":"1","stateName":"Banteay Meanchey","countryId":37,"countryCode":"KH","countryName":"Cambodia","latitude":"13.45531000","longitude":"102.99186000","wikiDataId":"Q1945748"},{"id":64969,"name":"Paoy Paet","stateId":3984,"stateCode":"1","stateName":"Banteay Meanchey","countryId":37,"countryCode":"KH","countryName":"Cambodia","latitude":"13.65805000","longitude":"102.56365000","wikiDataId":"Q1015146"},{"id":64981,"name":"Sisophon","stateId":3984,"stateCode":"1","stateName":"Banteay Meanchey","countryId":37,"countryCode":"KH","countryName":"Cambodia","latitude":"13.58588000","longitude":"102.97369000","wikiDataId":"Q855717"},{"id":65009,"name":"Srŏk Malai","stateId":3984,"stateCode":"1","stateName":"Banteay Meanchey","countryId":37,"countryCode":"KH","countryName":"Cambodia","latitude":"13.49902000","longitude":"102.60164000","wikiDataId":"Q4929080"},{"id":65022,"name":"Srŏk Svay Chék","stateId":3984,"stateCode":"1","stateName":"Banteay Meanchey","countryId":37,"countryCode":"KH","countryName":"Cambodia","latitude":"13.81305000","longitude":"102.95269000","wikiDataId":"Q4929021"}]