[{"id":55169,"name":"Abasár","stateId":1040,"stateCode":"HE","stateName":"Heves County","countryId":99,"countryCode":"HU","countryName":"Hungary","latitude":"47.79705000","longitude":"20.00324000","wikiDataId":"Q368326"},{"id":55176,"name":"Adács","stateId":1040,"stateCode":"HE","stateName":"Heves County","countryId":99,"countryCode":"HU","countryName":"Hungary","latitude":"47.69210000","longitude":"19.97696000","wikiDataId":"Q506654"},{"id":55188,"name":"Andornaktálya","stateId":1040,"stateCode":"HE","stateName":"Heves County","countryId":99,"countryCode":"HU","countryName":"Hungary","latitude":"47.85000000","longitude":"20.41667000","wikiDataId":"Q760889"},{"id":55190,"name":"Apc","stateId":1040,"stateCode":"HE","stateName":"Heves County","countryId":99,"countryCode":"HU","countryName":"Hungary","latitude":"47.79419000","longitude":"19.69429000","wikiDataId":"Q773393"},{"id":55302,"name":"Bélapátfalva","stateId":1040,"stateCode":"HE","stateName":"Heves County","countryId":99,"countryCode":"HU","countryName":"Hungary","latitude":"48.05000000","longitude":"20.36667000","wikiDataId":"Q258884"},{"id":55303,"name":"Bélapátfalvai Járás","stateId":1040,"stateCode":"HE","stateName":"Heves County","countryId":99,"countryCode":"HU","countryName":"Hungary","latitude":"48.06386000","longitude":"20.36163000","wikiDataId":"Q831098"},{"id":55244,"name":"Besenyőtelek","stateId":1040,"stateCode":"HE","stateName":"Heves County","countryId":99,"countryCode":"HU","countryName":"Hungary","latitude":"47.70000000","longitude":"20.43333000","wikiDataId":"Q794014"},{"id":55253,"name":"Boldog","stateId":1040,"stateCode":"HE","stateName":"Heves County","countryId":99,"countryCode":"HU","countryName":"Hungary","latitude":"47.60285000","longitude":"19.68839000","wikiDataId":"Q654560"},{"id":55346,"name":"Csány","stateId":1040,"stateCode":"HE","stateName":"Heves County","countryId":99,"countryCode":"HU","countryName":"Hungary","latitude":"47.64829000","longitude":"19.82972000","wikiDataId":"Q672245"},{"id":55371,"name":"Domoszló","stateId":1040,"stateCode":"HE","stateName":"Heves County","countryId":99,"countryCode":"HU","countryName":"Hungary","latitude":"47.83333000","longitude":"20.11667000","wikiDataId":"Q780659"},{"id":55395,"name":"Ecséd","stateId":1040,"stateCode":"HE","stateName":"Heves County","countryId":99,"countryCode":"HU","countryName":"Hungary","latitude":"47.73267000","longitude":"19.76696000","wikiDataId":"Q282039"},{"id":55398,"name":"Eger","stateId":1040,"stateCode":"HE","stateName":"Heves County","countryId":99,"countryCode":"HU","countryName":"Hungary","latitude":"47.90265000","longitude":"20.37329000","wikiDataId":"Q167109"},{"id":55399,"name":"Egerszalók","stateId":1040,"stateCode":"HE","stateName":"Heves County","countryId":99,"countryCode":"HU","countryName":"Hungary","latitude":"47.86667000","longitude":"20.33333000","wikiDataId":"Q987849"},{"id":55400,"name":"Egri Járás","stateId":1040,"stateCode":"HE","stateName":"Heves County","countryId":99,"countryCode":"HU","countryName":"Hungary","latitude":"47.92961000","longitude":"20.37383000","wikiDataId":"Q854361"},{"id":55412,"name":"Erdőtelek","stateId":1040,"stateCode":"HE","stateName":"Heves County","countryId":99,"countryCode":"HU","countryName":"Hungary","latitude":"47.68333000","longitude":"20.31667000","wikiDataId":"Q249661"},{"id":55425,"name":"Felsőtárkány","stateId":1040,"stateCode":"HE","stateName":"Heves County","countryId":99,"countryCode":"HU","countryName":"Hungary","latitude":"47.96667000","longitude":"20.41667000","wikiDataId":"Q514643"},{"id":55441,"name":"Füzesabony","stateId":1040,"stateCode":"HE","stateName":"Heves County","countryId":99,"countryCode":"HU","countryName":"Hungary","latitude":"47.75000000","longitude":"20.41667000","wikiDataId":"Q911642"},{"id":55442,"name":"Füzesabonyi Járás","stateId":1040,"stateCode":"HE","stateName":"Heves County","countryId":99,"countryCode":"HU","countryName":"Hungary","latitude":"47.72671000","longitude":"20.42875000","wikiDataId":"Q853176"},{"id":55459,"name":"Gyöngyös","stateId":1040,"stateCode":"HE","stateName":"Heves County","countryId":99,"countryCode":"HU","countryName":"Hungary","latitude":"47.78257000","longitude":"19.92800000","wikiDataId":"Q209983"},{"id":55460,"name":"Gyöngyöshalász","stateId":1040,"stateCode":"HE","stateName":"Heves County","countryId":99,"countryCode":"HU","countryName":"Hungary","latitude":"47.74161000","longitude":"19.92876000","wikiDataId":"Q729853"},{"id":55461,"name":"Gyöngyösi Járás","stateId":1040,"stateCode":"HE","stateName":"Heves County","countryId":99,"countryCode":"HU","countryName":"Hungary","latitude":"47.79079000","longitude":"19.95430000","wikiDataId":"Q853127"},{"id":55462,"name":"Gyöngyöspata","stateId":1040,"stateCode":"HE","stateName":"Heves County","countryId":99,"countryCode":"HU","countryName":"Hungary","latitude":"47.81505000","longitude":"19.78925000","wikiDataId":"Q1030385"},{"id":55463,"name":"Gyöngyössolymos","stateId":1040,"stateCode":"HE","stateName":"Heves County","countryId":99,"countryCode":"HU","countryName":"Hungary","latitude":"47.81724000","longitude":"19.93619000","wikiDataId":"Q784268"},{"id":55464,"name":"Gyöngyöstarján","stateId":1040,"stateCode":"HE","stateName":"Heves County","countryId":99,"countryCode":"HU","countryName":"Hungary","latitude":"47.81369000","longitude":"19.86724000","wikiDataId":"Q1030405"},{"id":55500,"name":"Hatvan","stateId":1040,"stateCode":"HE","stateName":"Heves County","countryId":99,"countryCode":"HU","countryName":"Hungary","latitude":"47.66667000","longitude":"19.68333000","wikiDataId":"Q629849"},{"id":55501,"name":"Hatvani Járás","stateId":1040,"stateCode":"HE","stateName":"Heves County","countryId":99,"countryCode":"HU","countryName":"Hungary","latitude":"47.69468000","longitude":"19.72852000","wikiDataId":"Q16629260"},{"id":55509,"name":"Heréd","stateId":1040,"stateCode":"HE","stateName":"Heves County","countryId":99,"countryCode":"HU","countryName":"Hungary","latitude":"47.70638000","longitude":"19.63314000","wikiDataId":"Q771769"},{"id":55510,"name":"Heves","stateId":1040,"stateCode":"HE","stateName":"Heves County","countryId":99,"countryCode":"HU","countryName":"Hungary","latitude":"47.60000000","longitude":"20.28333000","wikiDataId":"Q855011"},{"id":55511,"name":"Hevesi Járás","stateId":1040,"stateCode":"HE","stateName":"Heves County","countryId":99,"countryCode":"HU","countryName":"Hungary","latitude":"47.61535000","longitude":"20.31739000","wikiDataId":"Q854348"},{"id":55514,"name":"Hort","stateId":1040,"stateCode":"HE","stateName":"Heves County","countryId":99,"countryCode":"HU","countryName":"Hungary","latitude":"47.69081000","longitude":"19.78930000","wikiDataId":"Q10719398"},{"id":55635,"name":"Kál","stateId":1040,"stateCode":"HE","stateName":"Heves County","countryId":99,"countryCode":"HU","countryName":"Hungary","latitude":"47.73333000","longitude":"20.26667000","wikiDataId":"Q1043477"},{"id":55571,"name":"Karácsond","stateId":1040,"stateCode":"HE","stateName":"Heves County","countryId":99,"countryCode":"HU","countryName":"Hungary","latitude":"47.72962000","longitude":"20.03076000","wikiDataId":"Q278275"},{"id":55586,"name":"Kerecsend","stateId":1040,"stateCode":"HE","stateName":"Heves County","countryId":99,"countryCode":"HU","countryName":"Hungary","latitude":"47.80000000","longitude":"20.35000000","wikiDataId":"Q1070818"},{"id":55601,"name":"Kisköre","stateId":1040,"stateCode":"HE","stateName":"Heves County","countryId":99,"countryCode":"HU","countryName":"Hungary","latitude":"47.50000000","longitude":"20.50000000","wikiDataId":"Q222242"},{"id":55620,"name":"Kompolt","stateId":1040,"stateCode":"HE","stateName":"Heves County","countryId":99,"countryCode":"HU","countryName":"Hungary","latitude":"47.73333000","longitude":"20.25000000","wikiDataId":"Q936331"},{"id":55671,"name":"Lőrinci","stateId":1040,"stateCode":"HE","stateName":"Heves County","countryId":99,"countryCode":"HU","countryName":"Hungary","latitude":"47.73295000","longitude":"19.67867000","wikiDataId":"Q1088716"},{"id":55676,"name":"Maklár","stateId":1040,"stateCode":"HE","stateName":"Heves County","countryId":99,"countryCode":"HU","countryName":"Hungary","latitude":"47.80000000","longitude":"20.41667000","wikiDataId":"Q521373"},{"id":55724,"name":"Mátraderecske","stateId":1040,"stateCode":"HE","stateName":"Heves County","countryId":99,"countryCode":"HU","countryName":"Hungary","latitude":"47.95000000","longitude":"20.08333000","wikiDataId":"Q603285"},{"id":55761,"name":"Nagyréde","stateId":1040,"stateCode":"HE","stateName":"Heves County","countryId":99,"countryCode":"HU","countryName":"Hungary","latitude":"47.76543000","longitude":"19.84819000","wikiDataId":"Q371004"},{"id":55802,"name":"Ostoros","stateId":1040,"stateCode":"HE","stateName":"Heves County","countryId":99,"countryCode":"HU","countryName":"Hungary","latitude":"47.86667000","longitude":"20.43333000","wikiDataId":"Q1071246"},{"id":55810,"name":"Parád","stateId":1040,"stateCode":"HE","stateName":"Heves County","countryId":99,"countryCode":"HU","countryName":"Hungary","latitude":"47.92323000","longitude":"20.02972000","wikiDataId":"Q935066"},{"id":55811,"name":"Parádsasvár","stateId":1040,"stateCode":"HE","stateName":"Heves County","countryId":99,"countryCode":"HU","countryName":"Hungary","latitude":"47.91260000","longitude":"19.97709000","wikiDataId":"Q1185447"},{"id":55856,"name":"Pétervására","stateId":1040,"stateCode":"HE","stateName":"Heves County","countryId":99,"countryCode":"HU","countryName":"Hungary","latitude":"48.01667000","longitude":"20.10000000","wikiDataId":"Q185719"},{"id":55857,"name":"Pétervásárai Járás","stateId":1040,"stateCode":"HE","stateName":"Heves County","countryId":99,"countryCode":"HU","countryName":"Hungary","latitude":"48.00589000","longitude":"20.09466000","wikiDataId":"Q733824"},{"id":55816,"name":"Petőfibánya","stateId":1040,"stateCode":"HE","stateName":"Heves County","countryId":99,"countryCode":"HU","countryName":"Hungary","latitude":"47.76960000","longitude":"19.69988000","wikiDataId":"Q1185245"},{"id":55831,"name":"Poroszló","stateId":1040,"stateCode":"HE","stateName":"Heves County","countryId":99,"countryCode":"HU","countryName":"Hungary","latitude":"47.65000000","longitude":"20.66667000","wikiDataId":"Q780264"},{"id":55863,"name":"Recsk","stateId":1040,"stateCode":"HE","stateName":"Heves County","countryId":99,"countryCode":"HU","countryName":"Hungary","latitude":"47.93333000","longitude":"20.11667000","wikiDataId":"Q582533"},{"id":55880,"name":"Rózsaszentmárton","stateId":1040,"stateCode":"HE","stateName":"Heves County","countryId":99,"countryCode":"HU","countryName":"Hungary","latitude":"47.78200000","longitude":"19.74210000","wikiDataId":"Q1072238"},{"id":55900,"name":"Sirok","stateId":1040,"stateCode":"HE","stateName":"Heves County","countryId":99,"countryCode":"HU","countryName":"Hungary","latitude":"47.93333000","longitude":"20.20000000","wikiDataId":"Q1089593"},{"id":55957,"name":"Szihalom","stateId":1040,"stateCode":"HE","stateName":"Heves County","countryId":99,"countryCode":"HU","countryName":"Hungary","latitude":"47.76667000","longitude":"20.48333000","wikiDataId":"Q782269"},{"id":55960,"name":"Szilvásvárad","stateId":1040,"stateCode":"HE","stateName":"Heves County","countryId":99,"countryCode":"HU","countryName":"Hungary","latitude":"48.10000000","longitude":"20.40000000","wikiDataId":"Q1089496"},{"id":56013,"name":"Tarnalelesz","stateId":1040,"stateCode":"HE","stateName":"Heves County","countryId":99,"countryCode":"HU","countryName":"Hungary","latitude":"48.05000000","longitude":"20.18333000","wikiDataId":"Q1185533"},{"id":56014,"name":"Tarnaörs","stateId":1040,"stateCode":"HE","stateName":"Heves County","countryId":99,"countryCode":"HU","countryName":"Hungary","latitude":"47.59499000","longitude":"20.05254000","wikiDataId":"Q1072281"},{"id":56040,"name":"Tiszanána","stateId":1040,"stateCode":"HE","stateName":"Heves County","countryId":99,"countryCode":"HU","countryName":"Hungary","latitude":"47.56667000","longitude":"20.53333000","wikiDataId":"Q543964"},{"id":56109,"name":"Vámosgyörk","stateId":1040,"stateCode":"HE","stateName":"Heves County","countryId":99,"countryCode":"HU","countryName":"Hungary","latitude":"47.68429000","longitude":"19.92924000","wikiDataId":"Q375741"},{"id":56098,"name":"Verpelét","stateId":1040,"stateCode":"HE","stateName":"Heves County","countryId":99,"countryCode":"HU","countryName":"Hungary","latitude":"47.85000000","longitude":"20.23333000","wikiDataId":"Q1047661"},{"id":56119,"name":"Zagyvaszántó","stateId":1040,"stateCode":"HE","stateName":"Heves County","countryId":99,"countryCode":"HU","countryName":"Hungary","latitude":"47.77703000","longitude":"19.67092000","wikiDataId":"Q1072177"}]