[{"id":105260,"name":"Amphoe Bueng Khong Long","stateId":3533,"stateCode":"38","stateName":"Bueng Kan","countryId":219,"countryCode":"TH","countryName":"Thailand","latitude":"18.00899000","longitude":"104.07302000","wikiDataId":"Q475297"},{"id":105264,"name":"Amphoe Bung Khla","stateId":3533,"stateCode":"38","stateName":"Bueng Kan","countryId":219,"countryCode":"TH","countryName":"Thailand","latitude":"18.24726000","longitude":"103.99427000","wikiDataId":"Q475304"},{"id":105533,"name":"Amphoe Mueang Bueng Kan","stateId":3533,"stateCode":"38","stateName":"Bueng Kan","countryId":219,"countryCode":"TH","countryName":"Thailand","latitude":"18.29950000","longitude":"103.64016000","wikiDataId":"Q476000"},{"id":105702,"name":"Amphoe Pak Khat","stateId":3533,"stateCode":"38","stateName":"Bueng Kan","countryId":219,"countryCode":"TH","countryName":"Thailand","latitude":"18.27738000","longitude":"103.34140000","wikiDataId":"Q476324"},{"id":105752,"name":"Amphoe Phon Charoen","stateId":3533,"stateCode":"38","stateName":"Bueng Kan","countryId":219,"countryCode":"TH","countryName":"Thailand","latitude":"18.07967000","longitude":"103.65453000","wikiDataId":"Q476420"},{"id":106205,"name":"Amphoe Seka","stateId":3533,"stateCode":"38","stateName":"Bueng Kan","countryId":219,"countryCode":"TH","countryName":"Thailand","latitude":"17.98734000","longitude":"103.89616000","wikiDataId":"Q476675"},{"id":106230,"name":"Amphoe Si Wilai","stateId":3533,"stateCode":"38","stateName":"Bueng Kan","countryId":219,"countryCode":"TH","countryName":"Thailand","latitude":"18.15528000","longitude":"103.77975000","wikiDataId":"Q476727"},{"id":106239,"name":"Amphoe So Phisai","stateId":3533,"stateCode":"38","stateName":"Bueng Kan","countryId":219,"countryCode":"TH","countryName":"Thailand","latitude":"18.14176000","longitude":"103.44923000","wikiDataId":"Q476746"},{"id":106455,"name":"Bueng Kan","stateId":3533,"stateCode":"38","stateName":"Bueng Kan","countryId":219,"countryCode":"TH","countryName":"Thailand","latitude":"18.36303000","longitude":"103.65194000","wikiDataId":"Q4985499"},{"id":106696,"name":"Seka","stateId":3533,"stateCode":"38","stateName":"Bueng Kan","countryId":219,"countryCode":"TH","countryName":"Thailand","latitude":"17.92851000","longitude":"103.95519000","wikiDataId":"Q28722399"}]