[{"id":17371,"name":"Aesch","stateId":1641,"stateCode":"BL","stateName":"Basel-Land","countryId":214,"countryCode":"CH","countryName":"Switzerland","latitude":"47.47104000","longitude":"7.59730000","wikiDataId":"Q22361346"},{"id":17386,"name":"Allschwil","stateId":1641,"stateCode":"BL","stateName":"Basel-Land","countryId":214,"countryCode":"CH","countryName":"Switzerland","latitude":"47.55074000","longitude":"7.53599000","wikiDataId":"Q22394150"},{"id":17406,"name":"Arisdorf","stateId":1641,"stateCode":"BL","stateName":"Basel-Land","countryId":214,"countryCode":"CH","countryName":"Switzerland","latitude":"47.51323000","longitude":"7.76515000","wikiDataId":"Q22450913"},{"id":17408,"name":"Arlesheim","stateId":1641,"stateCode":"BL","stateName":"Basel-Land","countryId":214,"countryCode":"CH","countryName":"Switzerland","latitude":"47.49412000","longitude":"7.61979000","wikiDataId":"Q22451146"},{"id":17474,"name":"Bezirk Arlesheim","stateId":1641,"stateCode":"BL","stateName":"Basel-Land","countryId":214,"countryCode":"CH","countryName":"Switzerland","latitude":"47.51668000","longitude":"7.58733000","wikiDataId":"Q688961"},{"id":17493,"name":"Bezirk Laufen","stateId":1641,"stateCode":"BL","stateName":"Basel-Land","countryId":214,"countryCode":"CH","countryName":"Switzerland","latitude":"47.42324000","longitude":"7.48750000","wikiDataId":"Q113474"},{"id":17497,"name":"Bezirk Liestal","stateId":1641,"stateCode":"BL","stateName":"Basel-Land","countryId":214,"countryCode":"CH","countryName":"Switzerland","latitude":"47.48124000","longitude":"7.72714000","wikiDataId":"Q659800"},{"id":17510,"name":"Bezirk Sissach","stateId":1641,"stateCode":"BL","stateName":"Basel-Land","countryId":214,"countryCode":"CH","countryName":"Switzerland","latitude":"47.44237000","longitude":"7.84871000","wikiDataId":"Q660249"},{"id":17518,"name":"Bezirk Waldenburg","stateId":1641,"stateCode":"BL","stateName":"Basel-Land","countryId":214,"countryCode":"CH","countryName":"Switzerland","latitude":"47.39367000","longitude":"7.74137000","wikiDataId":"Q598365"},{"id":17530,"name":"Binningen","stateId":1641,"stateCode":"BL","stateName":"Basel-Land","countryId":214,"countryCode":"CH","countryName":"Switzerland","latitude":"47.54021000","longitude":"7.56932000","wikiDataId":"Q22546214"},{"id":17538,"name":"Birsfelden","stateId":1641,"stateCode":"BL","stateName":"Basel-Land","countryId":214,"countryCode":"CH","countryName":"Switzerland","latitude":"47.55290000","longitude":"7.62322000","wikiDataId":"Q22551246"},{"id":17553,"name":"Bottmingen","stateId":1641,"stateCode":"BL","stateName":"Basel-Land","countryId":214,"countryCode":"CH","countryName":"Switzerland","latitude":"47.52343000","longitude":"7.57211000","wikiDataId":"Q22581162"},{"id":17563,"name":"Brislach","stateId":1641,"stateCode":"BL","stateName":"Basel-Land","countryId":214,"countryCode":"CH","countryName":"Switzerland","latitude":"47.41763000","longitude":"7.54340000","wikiDataId":"Q22595117"},{"id":17575,"name":"Bubendorf","stateId":1641,"stateCode":"BL","stateName":"Basel-Land","countryId":214,"countryCode":"CH","countryName":"Switzerland","latitude":"47.44586000","longitude":"7.73759000","wikiDataId":"Q22602724"},{"id":17589,"name":"Buus","stateId":1641,"stateCode":"BL","stateName":"Basel-Land","countryId":214,"countryCode":"CH","countryName":"Switzerland","latitude":"47.50635000","longitude":"7.86414000","wikiDataId":"Q22364264"},{"id":17684,"name":"Diegten","stateId":1641,"stateCode":"BL","stateName":"Basel-Land","countryId":214,"countryCode":"CH","countryName":"Switzerland","latitude":"47.41380000","longitude":"7.81085000","wikiDataId":"Q22630012"},{"id":17775,"name":"Ettingen","stateId":1641,"stateCode":"BL","stateName":"Basel-Land","countryId":214,"countryCode":"CH","countryName":"Switzerland","latitude":"47.48225000","longitude":"7.54654000","wikiDataId":"Q22445194"},{"id":17808,"name":"Frenkendorf","stateId":1641,"stateCode":"BL","stateName":"Basel-Land","countryId":214,"countryCode":"CH","countryName":"Switzerland","latitude":"47.50686000","longitude":"7.71648000","wikiDataId":"Q22511682"},{"id":17817,"name":"Füllinsdorf","stateId":1641,"stateCode":"BL","stateName":"Basel-Land","countryId":214,"countryCode":"CH","countryName":"Switzerland","latitude":"47.50688000","longitude":"7.73129000","wikiDataId":"Q22619754"},{"id":17825,"name":"Gelterkinden","stateId":1641,"stateCode":"BL","stateName":"Basel-Land","countryId":214,"countryCode":"CH","countryName":"Switzerland","latitude":"47.46497000","longitude":"7.85174000","wikiDataId":"Q22634007"},{"id":17867,"name":"Grellingen","stateId":1641,"stateCode":"BL","stateName":"Basel-Land","countryId":214,"countryCode":"CH","countryName":"Switzerland","latitude":"47.44231000","longitude":"7.58906000","wikiDataId":"Q22440045"},{"id":17942,"name":"Hölstein","stateId":1641,"stateCode":"BL","stateName":"Basel-Land","countryId":214,"countryCode":"CH","countryName":"Switzerland","latitude":"47.42290000","longitude":"7.77041000","wikiDataId":"Q22444499"},{"id":17956,"name":"Itingen","stateId":1641,"stateCode":"BL","stateName":"Basel-Land","countryId":214,"countryCode":"CH","countryName":"Switzerland","latitude":"47.46651000","longitude":"7.78502000","wikiDataId":"Q22445345"},{"id":18034,"name":"Langenbruck","stateId":1641,"stateCode":"BL","stateName":"Basel-Land","countryId":214,"countryCode":"CH","countryName":"Switzerland","latitude":"47.34917000","longitude":"7.76802000","wikiDataId":"Q22362386"},{"id":18109,"name":"Läufelfingen","stateId":1641,"stateCode":"BL","stateName":"Basel-Land","countryId":214,"countryCode":"CH","countryName":"Switzerland","latitude":"47.39457000","longitude":"7.85578000","wikiDataId":"Q22614554"},{"id":18042,"name":"Laufen","stateId":1641,"stateCode":"BL","stateName":"Basel-Land","countryId":214,"countryCode":"CH","countryName":"Switzerland","latitude":"47.42193000","longitude":"7.49946000","wikiDataId":"Q22372470"},{"id":18050,"name":"Lausen","stateId":1641,"stateCode":"BL","stateName":"Basel-Land","countryId":214,"countryCode":"CH","countryName":"Switzerland","latitude":"47.47139000","longitude":"7.76030000","wikiDataId":"Q22374830"},{"id":18082,"name":"Liesberg","stateId":1641,"stateCode":"BL","stateName":"Basel-Land","countryId":214,"countryCode":"CH","countryName":"Switzerland","latitude":"47.40398000","longitude":"7.42787000","wikiDataId":"Q22426676"},{"id":18083,"name":"Liestal","stateId":1641,"stateCode":"BL","stateName":"Basel-Land","countryId":214,"countryCode":"CH","countryName":"Switzerland","latitude":"47.48455000","longitude":"7.73446000","wikiDataId":"Q22426676"},{"id":18200,"name":"Münchenstein","stateId":1641,"stateCode":"BL","stateName":"Basel-Land","countryId":214,"countryCode":"CH","countryName":"Switzerland","latitude":"47.51848000","longitude":"7.60966000","wikiDataId":"Q22643903"},{"id":18185,"name":"Muttenz","stateId":1641,"stateCode":"BL","stateName":"Basel-Land","countryId":214,"countryCode":"CH","countryName":"Switzerland","latitude":"47.52271000","longitude":"7.64511000","wikiDataId":"Q22640384"},{"id":18244,"name":"Oberdorf","stateId":1641,"stateCode":"BL","stateName":"Basel-Land","countryId":214,"countryCode":"CH","countryName":"Switzerland","latitude":"47.39353000","longitude":"7.75169000","wikiDataId":"Q22419678"},{"id":18270,"name":"Oberwil","stateId":1641,"stateCode":"BL","stateName":"Basel-Land","countryId":214,"countryCode":"CH","countryName":"Switzerland","latitude":"47.51407000","longitude":"7.55786000","wikiDataId":"Q22421694"},{"id":18287,"name":"Ormalingen","stateId":1641,"stateCode":"BL","stateName":"Basel-Land","countryId":214,"countryCode":"CH","countryName":"Switzerland","latitude":"47.46936000","longitude":"7.87248000","wikiDataId":"Q22449071"},{"id":18307,"name":"Pfeffingen","stateId":1641,"stateCode":"BL","stateName":"Basel-Land","countryId":214,"countryCode":"CH","countryName":"Switzerland","latitude":"47.45984000","longitude":"7.58975000","wikiDataId":"Q22535291"},{"id":18324,"name":"Pratteln","stateId":1641,"stateCode":"BL","stateName":"Basel-Land","countryId":214,"countryCode":"CH","countryName":"Switzerland","latitude":"47.52071000","longitude":"7.69356000","wikiDataId":"Q22562729"},{"id":18362,"name":"Reigoldswil","stateId":1641,"stateCode":"BL","stateName":"Basel-Land","countryId":214,"countryCode":"CH","countryName":"Switzerland","latitude":"47.39824000","longitude":"7.68718000","wikiDataId":"Q22594845"},{"id":18403,"name":"Röschenz","stateId":1641,"stateCode":"BL","stateName":"Basel-Land","countryId":214,"countryCode":"CH","countryName":"Switzerland","latitude":"47.42366000","longitude":"7.48024000","wikiDataId":"Q22371020"},{"id":18484,"name":"Schönenbuch","stateId":1641,"stateCode":"BL","stateName":"Basel-Land","countryId":214,"countryCode":"CH","countryName":"Switzerland","latitude":"47.53853000","longitude":"7.50572000","wikiDataId":"Q22548757"},{"id":18505,"name":"Seltisberg","stateId":1641,"stateCode":"BL","stateName":"Basel-Land","countryId":214,"countryCode":"CH","countryName":"Switzerland","latitude":"47.46249000","longitude":"7.72039000","wikiDataId":"Q22560898"},{"id":18526,"name":"Sissach","stateId":1641,"stateCode":"BL","stateName":"Basel-Land","countryId":214,"countryCode":"CH","countryName":"Switzerland","latitude":"47.46408000","longitude":"7.80888000","wikiDataId":"Q22631389"},{"id":18589,"name":"Therwil","stateId":1641,"stateCode":"BL","stateName":"Basel-Land","countryId":214,"countryCode":"CH","countryName":"Switzerland","latitude":"47.49941000","longitude":"7.55669000","wikiDataId":"Q22494360"},{"id":18699,"name":"Wahlen","stateId":1641,"stateCode":"BL","stateName":"Basel-Land","countryId":214,"countryCode":"CH","countryName":"Switzerland","latitude":"47.40226000","longitude":"7.51511000","wikiDataId":"Q22438542"},{"id":18710,"name":"Waldenburg","stateId":1641,"stateCode":"BL","stateName":"Basel-Land","countryId":214,"countryCode":"CH","countryName":"Switzerland","latitude":"47.38333000","longitude":"7.75000000","wikiDataId":"Q22440950"},{"id":18803,"name":"Zunzgen","stateId":1641,"stateCode":"BL","stateName":"Basel-Land","countryId":214,"countryCode":"CH","countryName":"Switzerland","latitude":"47.44925000","longitude":"7.80789000","wikiDataId":"Q22658914"},{"id":18807,"name":"Zwingen","stateId":1641,"stateCode":"BL","stateName":"Basel-Land","countryId":214,"countryCode":"CH","countryName":"Switzerland","latitude":"47.43825000","longitude":"7.53027000","wikiDataId":"Q22659164"}]