[{"id":109065,"name":"Dodoma","stateId":1466,"stateCode":"03","stateName":"Dodoma","countryId":218,"countryCode":"TZ","countryName":"Tanzania","latitude":"-6.17221000","longitude":"35.73947000","wikiDataId":"Q3866"},{"id":109101,"name":"Kibakwe","stateId":1466,"stateCode":"03","stateName":"Dodoma","countryId":218,"countryCode":"TZ","countryName":"Tanzania","latitude":"-6.71667000","longitude":"36.36667000","wikiDataId":"Q6403941"},{"id":109125,"name":"Kisasa","stateId":1466,"stateCode":"03","stateName":"Dodoma","countryId":218,"countryCode":"TZ","countryName":"Tanzania","latitude":"-6.17526000","longitude":"35.79266000","wikiDataId":"Q11929863"},{"id":109135,"name":"Kondoa","stateId":1466,"stateCode":"03","stateName":"Dodoma","countryId":218,"countryCode":"TZ","countryName":"Tanzania","latitude":"-4.70931000","longitude":"35.86227000","wikiDataId":"Q1327204"},{"id":109136,"name":"Kongwa","stateId":1466,"stateCode":"03","stateName":"Dodoma","countryId":218,"countryCode":"TZ","countryName":"Tanzania","latitude":"-6.20000000","longitude":"36.41667000","wikiDataId":"Q5318130"},{"id":109211,"name":"Mpwapwa","stateId":1466,"stateCode":"03","stateName":"Dodoma","countryId":218,"countryCode":"TZ","countryName":"Tanzania","latitude":"-6.35000000","longitude":"36.48333000","wikiDataId":"Q3711197"},{"id":109212,"name":"Msanga","stateId":1466,"stateCode":"03","stateName":"Dodoma","countryId":218,"countryCode":"TZ","countryName":"Tanzania","latitude":"-6.05000000","longitude":"36.03333000","wikiDataId":"Q3711197"}]