[{"id":31610,"name":"Iisaku","stateId":3569,"stateCode":"44","stateName":"Ida-Viru County","countryId":69,"countryCode":"EE","countryName":"Estonia","latitude":"59.10139000","longitude":"27.30806000","wikiDataId":"Q382727"},{"id":31616,"name":"Jõhvi","stateId":3569,"stateCode":"44","stateName":"Ida-Viru County","countryId":69,"countryCode":"EE","countryName":"Estonia","latitude":"59.35917000","longitude":"27.42111000","wikiDataId":"Q211059"},{"id":31617,"name":"Jõhvi vald","stateId":3569,"stateCode":"44","stateName":"Ida-Viru County","countryId":69,"countryCode":"EE","countryName":"Estonia","latitude":"59.35653000","longitude":"27.39304000","wikiDataId":"Q1640282"},{"id":31634,"name":"Kiviõli","stateId":3569,"stateCode":"44","stateName":"Ida-Viru County","countryId":69,"countryCode":"EE","countryName":"Estonia","latitude":"59.35306000","longitude":"26.97111000","wikiDataId":"Q216119"},{"id":31638,"name":"Kohtla-Järve","stateId":3569,"stateCode":"44","stateName":"Ida-Viru County","countryId":69,"countryCode":"EE","countryName":"Estonia","latitude":"59.39861000","longitude":"27.27306000","wikiDataId":"Q201391"},{"id":31639,"name":"Kohtla-Nõmme","stateId":3569,"stateCode":"44","stateName":"Ida-Viru County","countryId":69,"countryCode":"EE","countryName":"Estonia","latitude":"59.35167000","longitude":"27.17500000","wikiDataId":"Q1010597"},{"id":31657,"name":"Lüganuse vald","stateId":3569,"stateCode":"44","stateName":"Ida-Viru County","countryId":69,"countryCode":"EE","countryName":"Estonia","latitude":"59.39262000","longitude":"27.07641000","wikiDataId":"Q1010581"},{"id":31665,"name":"Narva","stateId":3569,"stateCode":"44","stateName":"Ida-Viru County","countryId":69,"countryCode":"EE","countryName":"Estonia","latitude":"59.37722000","longitude":"28.19028000","wikiDataId":"Q102158"},{"id":31666,"name":"Narva-Jõesuu","stateId":3569,"stateCode":"44","stateName":"Ida-Viru County","countryId":69,"countryCode":"EE","countryName":"Estonia","latitude":"59.45889000","longitude":"28.04083000","wikiDataId":"Q723372"},{"id":31667,"name":"Narva-Jõesuu linn","stateId":3569,"stateCode":"44","stateName":"Ida-Viru County","countryId":69,"countryCode":"EE","countryName":"Estonia","latitude":"59.44127000","longitude":"28.02142000","wikiDataId":"Q43266354"},{"id":31687,"name":"Püssi","stateId":3569,"stateCode":"44","stateName":"Ida-Viru County","countryId":69,"countryCode":"EE","countryName":"Estonia","latitude":"59.36000000","longitude":"27.04972000","wikiDataId":"Q172263"},{"id":31709,"name":"Sillamäe","stateId":3569,"stateCode":"44","stateName":"Ida-Viru County","countryId":69,"countryCode":"EE","countryName":"Estonia","latitude":"59.39697000","longitude":"27.76331000","wikiDataId":"Q207748"},{"id":31724,"name":"Toila","stateId":3569,"stateCode":"44","stateName":"Ida-Viru County","countryId":69,"countryCode":"EE","countryName":"Estonia","latitude":"59.42127000","longitude":"27.50807000","wikiDataId":"Q1018469"},{"id":31745,"name":"Voka","stateId":3569,"stateCode":"44","stateName":"Ida-Viru County","countryId":69,"countryCode":"EE","countryName":"Estonia","latitude":"59.40776000","longitude":"27.58263000","wikiDataId":"Q1024196"}]