[{"id":148287,"name":"Achi","stateId":4924,"stateCode":"39","stateName":"Kōchi Prefecture","countryId":109,"countryCode":"JP","countryName":"Japan","latitude":"35.44388889","longitude":"137.74750000","wikiDataId":"Q1203279"},{"id":148214,"name":"Agematsu","stateId":4924,"stateCode":"39","stateName":"Kōchi Prefecture","countryId":109,"countryCode":"JP","countryName":"Japan","latitude":"35.78388889","longitude":"137.69416667","wikiDataId":"Q374859"},{"id":148213,"name":"Aki","stateId":4924,"stateCode":"39","stateName":"Kōchi Prefecture","countryId":109,"countryCode":"JP","countryName":"Japan","latitude":"33.50250000","longitude":"133.90722222","wikiDataId":"Q417825"},{"id":148279,"name":"Anan","stateId":4924,"stateCode":"39","stateName":"Kōchi Prefecture","countryId":109,"countryCode":"JP","countryName":"Japan","latitude":"35.32361111","longitude":"137.81611111","wikiDataId":"Q1203314"},{"id":148259,"name":"Aoki","stateId":4924,"stateCode":"39","stateName":"Kōchi Prefecture","countryId":109,"countryCode":"JP","countryName":"Japan","latitude":"36.37000000","longitude":"138.12861111","wikiDataId":"Q615719"},{"id":148261,"name":"Asahi","stateId":4924,"stateCode":"39","stateName":"Kōchi Prefecture","countryId":109,"countryCode":"JP","countryName":"Japan","latitude":"36.12361111","longitude":"137.86638889","wikiDataId":"Q720461"},{"id":148299,"name":"Azumino","stateId":4924,"stateCode":"39","stateName":"Kōchi Prefecture","countryId":109,"countryCode":"JP","countryName":"Japan","latitude":"36.30388889","longitude":"137.90555556","wikiDataId":"Q534667"},{"id":148293,"name":"Chikuhoku","stateId":4924,"stateCode":"39","stateName":"Kōchi Prefecture","countryId":109,"countryCode":"JP","countryName":"Japan","latitude":"36.42120000","longitude":"138.04011000","wikiDataId":"Q1072656"},{"id":148298,"name":"Chikuma","stateId":4924,"stateCode":"39","stateName":"Kōchi Prefecture","countryId":109,"countryCode":"JP","countryName":"Japan","latitude":"36.50624000","longitude":"138.12352000","wikiDataId":"Q179757"},{"id":148304,"name":"Chino","stateId":4924,"stateCode":"39","stateName":"Kōchi Prefecture","countryId":109,"countryCode":"JP","countryName":"Japan","latitude":"35.99555556","longitude":"138.15888889","wikiDataId":"Q838660"},{"id":148225,"name":"Fujimi","stateId":4924,"stateCode":"39","stateName":"Kōchi Prefecture","countryId":109,"countryCode":"JP","countryName":"Japan","latitude":"35.91472222","longitude":"138.24083333","wikiDataId":"Q1204145"},{"id":148257,"name":"Geisei","stateId":4924,"stateCode":"39","stateName":"Kōchi Prefecture","countryId":109,"countryCode":"JP","countryName":"Japan","latitude":"33.52694444","longitude":"133.80916667","wikiDataId":"Q1206376"},{"id":148269,"name":"Hakuba","stateId":4924,"stateCode":"39","stateName":"Kōchi Prefecture","countryId":109,"countryCode":"JP","countryName":"Japan","latitude":"36.70000000","longitude":"137.86666667","wikiDataId":"Q1011157"},{"id":148274,"name":"Hara","stateId":4924,"stateCode":"39","stateName":"Kōchi Prefecture","countryId":109,"countryCode":"JP","countryName":"Japan","latitude":"35.96444444","longitude":"138.21750000","wikiDataId":"Q1203041"},{"id":148276,"name":"Hidaka","stateId":4924,"stateCode":"39","stateName":"Kōchi Prefecture","countryId":109,"countryCode":"JP","countryName":"Japan","latitude":"33.53472222","longitude":"133.37333333","wikiDataId":"Q1156151"},{"id":148286,"name":"Hiraya","stateId":4924,"stateCode":"39","stateName":"Kōchi Prefecture","countryId":109,"countryCode":"JP","countryName":"Japan","latitude":"35.32333333","longitude":"137.63027778","wikiDataId":"Q1346768"},{"id":148315,"name":"Iida","stateId":4924,"stateCode":"39","stateName":"Kōchi Prefecture","countryId":109,"countryCode":"JP","countryName":"Japan","latitude":"35.51472222","longitude":"137.82194444","wikiDataId":"Q841129"},{"id":148236,"name":"Iijima","stateId":4924,"stateCode":"39","stateName":"Kōchi Prefecture","countryId":109,"countryCode":"JP","countryName":"Japan","latitude":"35.67638889","longitude":"137.91944444","wikiDataId":"Q522462"},{"id":148312,"name":"Iiyama","stateId":4924,"stateCode":"39","stateName":"Kōchi Prefecture","countryId":109,"countryCode":"JP","countryName":"Japan","latitude":"36.85166667","longitude":"138.36555556","wikiDataId":"Q851097"},{"id":148290,"name":"Iizuna","stateId":4924,"stateCode":"39","stateName":"Kōchi Prefecture","countryId":109,"countryCode":"JP","countryName":"Japan","latitude":"36.75500000","longitude":"138.23555556","wikiDataId":"Q772034"},{"id":148284,"name":"Ikeda","stateId":4924,"stateCode":"39","stateName":"Kōchi Prefecture","countryId":109,"countryCode":"JP","countryName":"Japan","latitude":"36.42138889","longitude":"137.87472222","wikiDataId":"Q1204048"},{"id":148267,"name":"Ikusaka","stateId":4924,"stateCode":"39","stateName":"Kōchi Prefecture","countryId":109,"countryCode":"JP","countryName":"Japan","latitude":"36.42527778","longitude":"137.92750000","wikiDataId":"Q1347517"},{"id":148313,"name":"Ina","stateId":4924,"stateCode":"39","stateName":"Kōchi Prefecture","countryId":109,"countryCode":"JP","countryName":"Japan","latitude":"35.82750000","longitude":"137.95388889","wikiDataId":"Q840888"},{"id":148305,"name":"Ino","stateId":4924,"stateCode":"39","stateName":"Kōchi Prefecture","countryId":109,"countryCode":"JP","countryName":"Japan","latitude":"33.55000000","longitude":"133.43333333","wikiDataId":"Q1206590"},{"id":148237,"name":"Karuizawa","stateId":4924,"stateCode":"39","stateName":"Kōchi Prefecture","countryId":109,"countryCode":"JP","countryName":"Japan","latitude":"36.34833333","longitude":"138.59694444","wikiDataId":"Q1012064"},{"id":148288,"name":"Kawakami","stateId":4924,"stateCode":"39","stateName":"Kōchi Prefecture","countryId":109,"countryCode":"JP","countryName":"Japan","latitude":"35.97555556","longitude":"138.57833333","wikiDataId":"Q588091"},{"id":148264,"name":"Kijimadaira","stateId":4924,"stateCode":"39","stateName":"Kōchi Prefecture","countryId":109,"countryCode":"JP","countryName":"Japan","latitude":"36.85861111","longitude":"138.40666667","wikiDataId":"Q1204471"},{"id":148217,"name":"Kiso","stateId":4924,"stateCode":"39","stateName":"Kōchi Prefecture","countryId":109,"countryCode":"JP","countryName":"Japan","latitude":"35.93638889","longitude":"137.78305556","wikiDataId":"Q1743742"},{"id":148281,"name":"Kitaaiki","stateId":4924,"stateCode":"39","stateName":"Kōchi Prefecture","countryId":109,"countryCode":"JP","countryName":"Japan","latitude":"36.05916667","longitude":"138.55111111","wikiDataId":"Q1202620"},{"id":148289,"name":"Kitagawa","stateId":4924,"stateCode":"39","stateName":"Kōchi Prefecture","countryId":109,"countryCode":"JP","countryName":"Japan","latitude":"33.44777778","longitude":"134.04222222","wikiDataId":"Q1350216"},{"id":148317,"name":"Kōchi","stateId":4924,"stateCode":"39","stateName":"Kōchi Prefecture","countryId":109,"countryCode":"JP","countryName":"Japan","latitude":"33.55888889","longitude":"133.53138889","wikiDataId":"Q200251"},{"id":148306,"name":"Komoro","stateId":4924,"stateCode":"39","stateName":"Kōchi Prefecture","countryId":109,"countryCode":"JP","countryName":"Japan","latitude":"36.32750000","longitude":"138.42583333","wikiDataId":"Q838657"},{"id":148300,"name":"Kōnan","stateId":4924,"stateCode":"39","stateName":"Kōchi Prefecture","countryId":109,"countryCode":"JP","countryName":"Japan","latitude":"33.56416667","longitude":"133.70055556","wikiDataId":"Q877209"},{"id":148280,"name":"Kuroshio","stateId":4924,"stateCode":"39","stateName":"Kōchi Prefecture","countryId":109,"countryCode":"JP","countryName":"Japan","latitude":"33.02500000","longitude":"133.01083333","wikiDataId":"Q1351626"},{"id":148252,"name":"Matsukawa","stateId":4924,"stateCode":"39","stateName":"Kōchi Prefecture","countryId":109,"countryCode":"JP","countryName":"Japan","latitude":"35.59722222","longitude":"137.90972222","wikiDataId":"Q222825"},{"id":148292,"name":"Matsumoto","stateId":4924,"stateCode":"39","stateName":"Kōchi Prefecture","countryId":109,"countryCode":"JP","countryName":"Japan","latitude":"36.23805556","longitude":"137.97194444","wikiDataId":"Q213324"},{"id":148227,"name":"Mihara","stateId":4924,"stateCode":"39","stateName":"Kōchi Prefecture","countryId":109,"countryCode":"JP","countryName":"Japan","latitude":"32.90611111","longitude":"132.84722222","wikiDataId":"Q1206074"},{"id":148256,"name":"Minamiaiki","stateId":4924,"stateCode":"39","stateName":"Kōchi Prefecture","countryId":109,"countryCode":"JP","countryName":"Japan","latitude":"36.03611111","longitude":"138.54694444","wikiDataId":"Q763885"},{"id":148228,"name":"Minamimaki","stateId":4924,"stateCode":"39","stateName":"Kōchi Prefecture","countryId":109,"countryCode":"JP","countryName":"Japan","latitude":"36.02083333","longitude":"138.49222222","wikiDataId":"Q1203240"},{"id":148235,"name":"Minamiminowa","stateId":4924,"stateCode":"39","stateName":"Kōchi Prefecture","countryId":109,"countryCode":"JP","countryName":"Japan","latitude":"35.87277778","longitude":"137.97527778","wikiDataId":"Q1347404"},{"id":148254,"name":"Minowa","stateId":4924,"stateCode":"39","stateName":"Kōchi Prefecture","countryId":109,"countryCode":"JP","countryName":"Japan","latitude":"35.91500000","longitude":"137.98194444","wikiDataId":"Q1346975"},{"id":148247,"name":"Mitsushima","stateId":4924,"stateCode":"39","stateName":"Kōchi Prefecture","countryId":109,"countryCode":"JP","countryName":"Japan","latitude":"35.27525100","longitude":"137.85213700","wikiDataId":"Q6883364"},{"id":148265,"name":"Miyada","stateId":4924,"stateCode":"39","stateName":"Kōchi Prefecture","countryId":109,"countryCode":"JP","countryName":"Japan","latitude":"35.76888889","longitude":"137.94422222","wikiDataId":"Q959501"},{"id":148291,"name":"Miyota","stateId":4924,"stateCode":"39","stateName":"Kōchi Prefecture","countryId":109,"countryCode":"JP","countryName":"Japan","latitude":"36.32138889","longitude":"138.50888889","wikiDataId":"Q1204123"},{"id":148215,"name":"Motoyama","stateId":4924,"stateCode":"39","stateName":"Kōchi Prefecture","countryId":109,"countryCode":"JP","countryName":"Japan","latitude":"35.16402778","longitude":"136.96361111","wikiDataId":"Q735494"},{"id":148314,"name":"Muroto","stateId":4924,"stateCode":"39","stateName":"Kōchi Prefecture","countryId":109,"countryCode":"JP","countryName":"Japan","latitude":"33.29000000","longitude":"134.15194444","wikiDataId":"Q431889"},{"id":148310,"name":"Nagano","stateId":4924,"stateCode":"39","stateName":"Kōchi Prefecture","countryId":109,"countryCode":"JP","countryName":"Japan","latitude":"36.64861111","longitude":"138.19277778","wikiDataId":"Q128849"},{"id":148238,"name":"Nagawa","stateId":4924,"stateCode":"39","stateName":"Kōchi Prefecture","countryId":109,"countryCode":"JP","countryName":"Japan","latitude":"36.25611111","longitude":"138.26777778","wikiDataId":"Q1346846"},{"id":148263,"name":"Nagiso","stateId":4924,"stateCode":"39","stateName":"Kōchi Prefecture","countryId":109,"countryCode":"JP","countryName":"Japan","latitude":"35.60361111","longitude":"137.60888889","wikiDataId":"Q1310803"},{"id":148270,"name":"Nahari","stateId":4924,"stateCode":"39","stateName":"Kōchi Prefecture","countryId":109,"countryCode":"JP","countryName":"Japan","latitude":"33.42416667","longitude":"134.02111111","wikiDataId":"Q1205759"},{"id":148224,"name":"Nakagawa","stateId":4924,"stateCode":"39","stateName":"Kōchi Prefecture","countryId":109,"countryCode":"JP","countryName":"Japan","latitude":"35.63444444","longitude":"137.94611111","wikiDataId":"Q1194229"},{"id":148243,"name":"Nakajō","stateId":4924,"stateCode":"39","stateName":"Kōchi Prefecture","countryId":109,"countryCode":"JP","countryName":"Japan","latitude":"36.61222222","longitude":"138.03652778","wikiDataId":"Q854747"},{"id":148245,"name":"Nakamura","stateId":4924,"stateCode":"39","stateName":"Kōchi Prefecture","countryId":109,"countryCode":"JP","countryName":"Japan","latitude":"32.99138889","longitude":"132.93375000","wikiDataId":"Q35798633"},{"id":148249,"name":"Nakano","stateId":4924,"stateCode":"39","stateName":"Kōchi Prefecture","countryId":109,"countryCode":"JP","countryName":"Japan","latitude":"36.74194444","longitude":"138.36944444","wikiDataId":"Q838652"},{"id":148231,"name":"Nakatosa","stateId":4924,"stateCode":"39","stateName":"Kōchi Prefecture","countryId":109,"countryCode":"JP","countryName":"Japan","latitude":"33.32750000","longitude":"133.22833333","wikiDataId":"Q1350193"},{"id":148302,"name":"Nankoku","stateId":4924,"stateCode":"39","stateName":"Kōchi Prefecture","countryId":109,"countryCode":"JP","countryName":"Japan","latitude":"33.57555556","longitude":"133.64138889","wikiDataId":"Q861621"},{"id":148297,"name":"Neba","stateId":4924,"stateCode":"39","stateName":"Kōchi Prefecture","countryId":109,"countryCode":"JP","countryName":"Japan","latitude":"35.25305556","longitude":"137.58111111","wikiDataId":"Q1204111"},{"id":148271,"name":"Niyodogawa","stateId":4924,"stateCode":"39","stateName":"Kōchi Prefecture","countryId":109,"countryCode":"JP","countryName":"Japan","latitude":"33.57527778","longitude":"133.16833333","wikiDataId":"Q1206371"},{"id":148240,"name":"Nozawaonsen","stateId":4924,"stateCode":"39","stateName":"Kōchi Prefecture","countryId":109,"countryCode":"JP","countryName":"Japan","latitude":"36.92277778","longitude":"138.44055556","wikiDataId":"Q1354760"},{"id":148233,"name":"Obuse","stateId":4924,"stateCode":"39","stateName":"Kōchi Prefecture","countryId":109,"countryCode":"JP","countryName":"Japan","latitude":"36.69777778","longitude":"138.31222222","wikiDataId":"Q1348977"},{"id":148266,"name":"Ochi","stateId":4924,"stateCode":"39","stateName":"Kōchi Prefecture","countryId":109,"countryCode":"JP","countryName":"Japan","latitude":"33.53277778","longitude":"133.25194444","wikiDataId":"Q1205739"},{"id":148303,"name":"Ogawa","stateId":4924,"stateCode":"39","stateName":"Kōchi Prefecture","countryId":109,"countryCode":"JP","countryName":"Japan","latitude":"36.61694444","longitude":"137.97444444","wikiDataId":"Q1348971"},{"id":148262,"name":"Ōkawa","stateId":4924,"stateCode":"39","stateName":"Kōchi Prefecture","countryId":109,"countryCode":"JP","countryName":"Japan","latitude":"33.78361111","longitude":"133.46666667","wikiDataId":"Q1206551"},{"id":148307,"name":"Okaya","stateId":4924,"stateCode":"39","stateName":"Kōchi Prefecture","countryId":109,"countryCode":"JP","countryName":"Japan","latitude":"36.06694444","longitude":"138.04944444","wikiDataId":"Q838672"},{"id":148251,"name":"Ōkuwa","stateId":4924,"stateCode":"39","stateName":"Kōchi Prefecture","countryId":109,"countryCode":"JP","countryName":"Japan","latitude":"35.68277778","longitude":"137.66500000","wikiDataId":"Q1204461"},{"id":148321,"name":"Ōmachi","stateId":4924,"stateCode":"39","stateName":"Kōchi Prefecture","countryId":109,"countryCode":"JP","countryName":"Japan","latitude":"36.50000000","longitude":"137.85000000","wikiDataId":"Q385375"},{"id":148241,"name":"Omi","stateId":4924,"stateCode":"39","stateName":"Kōchi Prefecture","countryId":109,"countryCode":"JP","countryName":"Japan","latitude":"36.45611111","longitude":"138.04527778","wikiDataId":"Q1349060"},{"id":148260,"name":"Ōshika","stateId":4924,"stateCode":"39","stateName":"Kōchi Prefecture","countryId":109,"countryCode":"JP","countryName":"Japan","latitude":"35.57833333","longitude":"138.03416667","wikiDataId":"Q1203751"},{"id":148250,"name":"Ōtaki","stateId":4924,"stateCode":"39","stateName":"Kōchi Prefecture","countryId":109,"countryCode":"JP","countryName":"Japan","latitude":"35.80944444","longitude":"137.55111111","wikiDataId":"Q1204275"},{"id":148242,"name":"Otari","stateId":4924,"stateCode":"39","stateName":"Kōchi Prefecture","countryId":109,"countryCode":"JP","countryName":"Japan","latitude":"36.77916667","longitude":"137.90833333","wikiDataId":"Q1204497"},{"id":148218,"name":"Ōtoyo","stateId":4924,"stateCode":"39","stateName":"Kōchi Prefecture","countryId":109,"countryCode":"JP","countryName":"Japan","latitude":"33.76416667","longitude":"133.66416667","wikiDataId":"Q1206441"},{"id":148223,"name":"Ōtsuki","stateId":4924,"stateCode":"39","stateName":"Kōchi Prefecture","countryId":109,"countryCode":"JP","countryName":"Japan","latitude":"32.84138889","longitude":"132.70694444","wikiDataId":"Q1206036"},{"id":148275,"name":"Sakae","stateId":4924,"stateCode":"39","stateName":"Kōchi Prefecture","countryId":109,"countryCode":"JP","countryName":"Japan","latitude":"36.98750000","longitude":"138.57750000","wikiDataId":"Q1204286"},{"id":148216,"name":"Sakaki","stateId":4924,"stateCode":"39","stateName":"Kōchi Prefecture","countryId":109,"countryCode":"JP","countryName":"Japan","latitude":"36.46194444","longitude":"138.18027778","wikiDataId":"Q1348962"},{"id":148255,"name":"Sakawa","stateId":4924,"stateCode":"39","stateName":"Kōchi Prefecture","countryId":109,"countryCode":"JP","countryName":"Japan","latitude":"33.50083333","longitude":"133.28666667","wikiDataId":"Q1205751"},{"id":148316,"name":"Saku","stateId":4924,"stateCode":"39","stateName":"Kōchi Prefecture","countryId":109,"countryCode":"JP","countryName":"Japan","latitude":"36.24888889","longitude":"138.47694444","wikiDataId":"Q495821"},{"id":148239,"name":"Sakuho","stateId":4924,"stateCode":"39","stateName":"Kōchi Prefecture","countryId":109,"countryCode":"JP","countryName":"Japan","latitude":"36.16111111","longitude":"138.48333333","wikiDataId":"Q1203700"},{"id":148294,"name":"Sanada","stateId":4924,"stateCode":"39","stateName":"Kōchi Prefecture","countryId":109,"countryCode":"JP","countryName":"Japan","latitude":"36.44088889","longitude":"138.30361111","wikiDataId":"Q7415455"},{"id":148273,"name":"Shimanto","stateId":4924,"stateCode":"39","stateName":"Kōchi Prefecture","countryId":109,"countryCode":"JP","countryName":"Japan","latitude":"33.20833333","longitude":"133.13555556","wikiDataId":"Q1156035"},{"id":148277,"name":"Shimojō","stateId":4924,"stateCode":"39","stateName":"Kōchi Prefecture","countryId":109,"countryCode":"JP","countryName":"Japan","latitude":"35.39750000","longitude":"137.78611111","wikiDataId":"Q1203050"},{"id":148272,"name":"Shimosuwa","stateId":4924,"stateCode":"39","stateName":"Kōchi Prefecture","countryId":109,"countryCode":"JP","countryName":"Japan","latitude":"36.06972222","longitude":"138.08027778","wikiDataId":"Q1204211"},{"id":148278,"name":"Shinano","stateId":4924,"stateCode":"39","stateName":"Kōchi Prefecture","countryId":109,"countryCode":"JP","countryName":"Japan","latitude":"36.80638889","longitude":"138.20694444","wikiDataId":"Q1349050"},{"id":148301,"name":"Shiojiri","stateId":4924,"stateCode":"39","stateName":"Kōchi Prefecture","countryId":109,"countryCode":"JP","countryName":"Japan","latitude":"36.11666667","longitude":"137.95000000","wikiDataId":"Q857272"},{"id":148308,"name":"Sukumo","stateId":4924,"stateCode":"39","stateName":"Kōchi Prefecture","countryId":109,"countryCode":"JP","countryName":"Japan","latitude":"32.93888889","longitude":"132.72611111","wikiDataId":"Q655258"},{"id":148318,"name":"Susaki","stateId":4924,"stateCode":"39","stateName":"Kōchi Prefecture","countryId":109,"countryCode":"JP","countryName":"Japan","latitude":"33.40083333","longitude":"133.28305556","wikiDataId":"Q751154"},{"id":148309,"name":"Suwa","stateId":4924,"stateCode":"39","stateName":"Kōchi Prefecture","countryId":109,"countryCode":"JP","countryName":"Japan","latitude":"36.03916667","longitude":"138.11416667","wikiDataId":"Q846338"},{"id":148311,"name":"Suzaka","stateId":4924,"stateCode":"39","stateName":"Kōchi Prefecture","countryId":109,"countryCode":"JP","countryName":"Japan","latitude":"36.65000000","longitude":"138.31667000","wikiDataId":"Q850461"},{"id":148226,"name":"Takagi","stateId":4924,"stateCode":"39","stateName":"Kōchi Prefecture","countryId":109,"countryCode":"JP","countryName":"Japan","latitude":"35.51388889","longitude":"137.87388889","wikiDataId":"Q1203939"},{"id":148222,"name":"Takamori","stateId":4924,"stateCode":"39","stateName":"Kōchi Prefecture","countryId":109,"countryCode":"JP","countryName":"Japan","latitude":"35.55138889","longitude":"137.87861111","wikiDataId":"Q1203136"},{"id":148283,"name":"Takayama","stateId":4924,"stateCode":"39","stateName":"Kōchi Prefecture","countryId":109,"countryCode":"JP","countryName":"Japan","latitude":"36.67972222","longitude":"138.36305556","wikiDataId":"Q1349115"},{"id":148232,"name":"Tano","stateId":4924,"stateCode":"39","stateName":"Kōchi Prefecture","countryId":109,"countryCode":"JP","countryName":"Japan","latitude":"33.42777778","longitude":"134.00833333","wikiDataId":"Q1205916"},{"id":148285,"name":"Tateshina","stateId":4924,"stateCode":"39","stateName":"Kōchi Prefecture","countryId":109,"countryCode":"JP","countryName":"Japan","latitude":"36.27194444","longitude":"138.31611111","wikiDataId":"Q1346895"},{"id":148295,"name":"Tatsuno","stateId":4924,"stateCode":"39","stateName":"Kōchi Prefecture","countryId":109,"countryCode":"JP","countryName":"Japan","latitude":"35.98250000","longitude":"137.98750000","wikiDataId":"Q1347504"},{"id":148244,"name":"Togari","stateId":4924,"stateCode":"39","stateName":"Kōchi Prefecture","countryId":109,"countryCode":"JP","countryName":"Japan","latitude":"36.91666667","longitude":"138.38333333","wikiDataId":"Q7813042"},{"id":148212,"name":"Tōmi","stateId":4924,"stateCode":"39","stateName":"Kōchi Prefecture","countryId":109,"countryCode":"JP","countryName":"Japan","latitude":"36.35944444","longitude":"138.33055556","wikiDataId":"Q840859"},{"id":148320,"name":"Tosa","stateId":4924,"stateCode":"39","stateName":"Kōchi Prefecture","countryId":109,"countryCode":"JP","countryName":"Japan","latitude":"33.49611111","longitude":"133.42527778","wikiDataId":"Q851163"},{"id":148319,"name":"Tosashimizu","stateId":4924,"stateCode":"39","stateName":"Kōchi Prefecture","countryId":109,"countryCode":"JP","countryName":"Japan","latitude":"32.78138889","longitude":"132.95500000","wikiDataId":"Q573115"},{"id":148296,"name":"Tōyō","stateId":4924,"stateCode":"39","stateName":"Kōchi Prefecture","countryId":109,"countryCode":"JP","countryName":"Japan","latitude":"33.52805556","longitude":"134.28000000","wikiDataId":"Q1205386"},{"id":148268,"name":"Toyooka","stateId":4924,"stateCode":"39","stateName":"Kōchi Prefecture","countryId":109,"countryCode":"JP","countryName":"Japan","latitude":"35.55138889","longitude":"137.89583333","wikiDataId":"Q44545"},{"id":148221,"name":"Tsuno","stateId":4924,"stateCode":"39","stateName":"Kōchi Prefecture","countryId":109,"countryCode":"JP","countryName":"Japan","latitude":"33.44666667","longitude":"133.19944444","wikiDataId":"Q1156308"},{"id":148246,"name":"Ueda","stateId":4924,"stateCode":"39","stateName":"Kōchi Prefecture","countryId":109,"countryCode":"JP","countryName":"Japan","latitude":"36.40194444","longitude":"138.24916667","wikiDataId":"Q844852"},{"id":148258,"name":"Umaji","stateId":4924,"stateCode":"39","stateName":"Kōchi Prefecture","countryId":109,"countryCode":"JP","countryName":"Japan","latitude":"33.55527778","longitude":"134.04805556","wikiDataId":"Q1206380"},{"id":148220,"name":"Urugi","stateId":4924,"stateCode":"39","stateName":"Kōchi Prefecture","countryId":109,"countryCode":"JP","countryName":"Japan","latitude":"35.27111111","longitude":"137.71111111","wikiDataId":"Q1203126"},{"id":148248,"name":"Usa","stateId":4924,"stateCode":"39","stateName":"Kōchi Prefecture","countryId":109,"countryCode":"JP","countryName":"Japan","latitude":"33.44936111","longitude":"133.43711111","wikiDataId":"Q7901658"},{"id":148219,"name":"Yamagata","stateId":4924,"stateCode":"39","stateName":"Kōchi Prefecture","countryId":109,"countryCode":"JP","countryName":"Japan","latitude":"36.16805556","longitude":"137.87888889","wikiDataId":"Q1348998"},{"id":148234,"name":"Yamanouchi","stateId":4924,"stateCode":"39","stateName":"Kōchi Prefecture","countryId":109,"countryCode":"JP","countryName":"Japan","latitude":"36.74472222","longitude":"138.41250000","wikiDataId":"Q1204468"},{"id":148282,"name":"Yasuda","stateId":4924,"stateCode":"39","stateName":"Kōchi Prefecture","countryId":109,"countryCode":"JP","countryName":"Japan","latitude":"33.43833333","longitude":"133.98111111","wikiDataId":"Q1156177"},{"id":148229,"name":"Yasuoka","stateId":4924,"stateCode":"39","stateName":"Kōchi Prefecture","countryId":109,"countryCode":"JP","countryName":"Japan","latitude":"35.37722222","longitude":"137.84583333","wikiDataId":"Q902559"},{"id":148253,"name":"Yawata","stateId":4924,"stateCode":"39","stateName":"Kōchi Prefecture","countryId":109,"countryCode":"JP","countryName":"Japan","latitude":"36.51666667","longitude":"138.10000000","wikiDataId":"Q104658420"},{"id":148230,"name":"Yusuhara","stateId":4924,"stateCode":"39","stateName":"Kōchi Prefecture","countryId":109,"countryCode":"JP","countryName":"Japan","latitude":"33.39194444","longitude":"132.92694444","wikiDataId":"Q1206286"}]