[{"id":17356,"name":"Aadorf","stateId":1657,"stateCode":"TG","stateName":"Thurgau","countryId":214,"countryCode":"CH","countryName":"Switzerland","latitude":"47.49204000","longitude":"8.90099000","wikiDataId":"Q223920"},{"id":17374,"name":"Affeltrangen","stateId":1657,"stateCode":"TG","stateName":"Thurgau","countryId":214,"countryCode":"CH","countryName":"Switzerland","latitude":"47.52581000","longitude":"9.03307000","wikiDataId":"Q22363434"},{"id":17392,"name":"Altnau","stateId":1657,"stateCode":"TG","stateName":"Thurgau","countryId":214,"countryCode":"CH","countryName":"Switzerland","latitude":"47.61052000","longitude":"9.26160000","wikiDataId":"Q22397987"},{"id":17395,"name":"Amriswil","stateId":1657,"stateCode":"TG","stateName":"Thurgau","countryId":214,"countryCode":"CH","countryName":"Switzerland","latitude":"47.54699000","longitude":"9.29586000","wikiDataId":"Q22407536"},{"id":17402,"name":"Arbon","stateId":1657,"stateCode":"TG","stateName":"Thurgau","countryId":214,"countryCode":"CH","countryName":"Switzerland","latitude":"47.51667000","longitude":"9.43333000","wikiDataId":"Q22447975"},{"id":17403,"name":"Arbon District","stateId":1657,"stateCode":"TG","stateName":"Thurgau","countryId":214,"countryCode":"CH","countryName":"Switzerland","latitude":"47.54867000","longitude":"9.35159000","wikiDataId":"Q546803"},{"id":17459,"name":"Berg","stateId":1657,"stateCode":"TG","stateName":"Thurgau","countryId":214,"countryCode":"CH","countryName":"Switzerland","latitude":"47.57879000","longitude":"9.16635000","wikiDataId":"Q22394931"},{"id":17552,"name":"Bottighofen","stateId":1657,"stateCode":"TG","stateName":"Thurgau","countryId":214,"countryCode":"CH","countryName":"Switzerland","latitude":"47.63643000","longitude":"9.20882000","wikiDataId":"Q22581119"},{"id":17603,"name":"Bürglen","stateId":1657,"stateCode":"TG","stateName":"Thurgau","countryId":214,"countryCode":"CH","countryName":"Switzerland","latitude":"47.54921000","longitude":"9.14950000","wikiDataId":"Q22368239"},{"id":17688,"name":"Diessenhofen","stateId":1657,"stateCode":"TG","stateName":"Thurgau","countryId":214,"countryCode":"CH","countryName":"Switzerland","latitude":"47.68908000","longitude":"8.74958000","wikiDataId":"Q67128"},{"id":17733,"name":"Egnach","stateId":1657,"stateCode":"TG","stateName":"Thurgau","countryId":214,"countryCode":"CH","countryName":"Switzerland","latitude":"47.54268000","longitude":"9.38048000","wikiDataId":"Q22377046"},{"id":17760,"name":"Erlen","stateId":1657,"stateCode":"TG","stateName":"Thurgau","countryId":214,"countryCode":"CH","countryName":"Switzerland","latitude":"47.54814000","longitude":"9.23415000","wikiDataId":"Q22418998"},{"id":17766,"name":"Ermatingen","stateId":1657,"stateCode":"TG","stateName":"Thurgau","countryId":214,"countryCode":"CH","countryName":"Switzerland","latitude":"47.67057000","longitude":"9.08573000","wikiDataId":"Q22419347"},{"id":17770,"name":"Eschenz","stateId":1657,"stateCode":"TG","stateName":"Thurgau","countryId":214,"countryCode":"CH","countryName":"Switzerland","latitude":"47.64793000","longitude":"8.87472000","wikiDataId":"Q22421820"},{"id":17771,"name":"Eschlikon","stateId":1657,"stateCode":"TG","stateName":"Thurgau","countryId":214,"countryCode":"CH","countryName":"Switzerland","latitude":"47.46361000","longitude":"8.96381000","wikiDataId":"Q22421820"},{"id":17789,"name":"Fischingen","stateId":1657,"stateCode":"TG","stateName":"Thurgau","countryId":214,"countryCode":"CH","countryName":"Switzerland","latitude":"47.41422000","longitude":"8.96862000","wikiDataId":"Q22471713"},{"id":17803,"name":"Frauenfeld","stateId":1657,"stateCode":"TG","stateName":"Thurgau","countryId":214,"countryCode":"CH","countryName":"Switzerland","latitude":"47.55776000","longitude":"8.89893000","wikiDataId":"Q68120"},{"id":17804,"name":"Frauenfeld District","stateId":1657,"stateCode":"TG","stateName":"Thurgau","countryId":214,"countryCode":"CH","countryName":"Switzerland","latitude":"47.61115000","longitude":"8.89444000","wikiDataId":"Q660546"},{"id":17818,"name":"Gachnang","stateId":1657,"stateCode":"TG","stateName":"Thurgau","countryId":214,"countryCode":"CH","countryName":"Switzerland","latitude":"47.53935000","longitude":"8.85311000","wikiDataId":"Q22620576"},{"id":17858,"name":"Gottlieben","stateId":1657,"stateCode":"TG","stateName":"Thurgau","countryId":214,"countryCode":"CH","countryName":"Switzerland","latitude":"47.66380000","longitude":"9.13371000","wikiDataId":"Q22383643"},{"id":17889,"name":"Güttingen","stateId":1657,"stateCode":"TG","stateName":"Thurgau","countryId":214,"countryCode":"CH","countryName":"Switzerland","latitude":"47.60349000","longitude":"9.28742000","wikiDataId":"Q22583741"},{"id":17928,"name":"Homburg","stateId":1657,"stateCode":"TG","stateName":"Thurgau","countryId":214,"countryCode":"CH","countryName":"Switzerland","latitude":"47.63469000","longitude":"9.00756000","wikiDataId":"Q22635714"},{"id":17945,"name":"Hüttwilen","stateId":1657,"stateCode":"TG","stateName":"Thurgau","countryId":214,"countryCode":"CH","countryName":"Switzerland","latitude":"47.60674000","longitude":"8.87343000","wikiDataId":"Q22652813"},{"id":18005,"name":"Kreuzlingen","stateId":1657,"stateCode":"TG","stateName":"Thurgau","countryId":214,"countryCode":"CH","countryName":"Switzerland","latitude":"47.65051000","longitude":"9.17504000","wikiDataId":"Q22557867"},{"id":18006,"name":"Kreuzlingen District","stateId":1657,"stateCode":"TG","stateName":"Thurgau","countryId":214,"countryCode":"CH","countryName":"Switzerland","latitude":"47.63046000","longitude":"9.16458000","wikiDataId":"Q660450"},{"id":18041,"name":"Langrickenbach","stateId":1657,"stateCode":"TG","stateName":"Thurgau","countryId":214,"countryCode":"CH","countryName":"Switzerland","latitude":"47.59353000","longitude":"9.24727000","wikiDataId":"Q22363645"},{"id":18189,"name":"Märstetten-Dorf","stateId":1657,"stateCode":"TG","stateName":"Thurgau","countryId":214,"countryCode":"CH","countryName":"Switzerland","latitude":"47.59252000","longitude":"9.06851000","wikiDataId":"Q22644702"},{"id":18135,"name":"Matzingen","stateId":1657,"stateCode":"TG","stateName":"Thurgau","countryId":214,"countryCode":"CH","countryName":"Switzerland","latitude":"47.51957000","longitude":"8.93365000","wikiDataId":"Q22453471"},{"id":18198,"name":"Müllheim","stateId":1657,"stateCode":"TG","stateName":"Thurgau","countryId":214,"countryCode":"CH","countryName":"Switzerland","latitude":"47.60195000","longitude":"9.00357000","wikiDataId":"Q22643842"},{"id":18202,"name":"Münchwilen","stateId":1657,"stateCode":"TG","stateName":"Thurgau","countryId":214,"countryCode":"CH","countryName":"Switzerland","latitude":"47.47719000","longitude":"8.99677000","wikiDataId":"Q22643918"},{"id":18203,"name":"Münchwilen District","stateId":1657,"stateCode":"TG","stateName":"Thurgau","countryId":214,"countryCode":"CH","countryName":"Switzerland","latitude":"47.47324000","longitude":"8.98812000","wikiDataId":"Q182001"},{"id":18205,"name":"Münsterlingen","stateId":1657,"stateCode":"TG","stateName":"Thurgau","countryId":214,"countryCode":"CH","countryName":"Switzerland","latitude":"47.63197000","longitude":"9.23271000","wikiDataId":"Q22643982"},{"id":18309,"name":"Pfyn","stateId":1657,"stateCode":"TG","stateName":"Thurgau","countryId":214,"countryCode":"CH","countryName":"Switzerland","latitude":"47.59693000","longitude":"8.95420000","wikiDataId":"Q22535385"},{"id":18373,"name":"Rickenbach bei Wil","stateId":1657,"stateCode":"TG","stateName":"Thurgau","countryId":214,"countryCode":"CH","countryName":"Switzerland","latitude":"47.44856000","longitude":"9.04902000","wikiDataId":"Q22379327"},{"id":18383,"name":"Roggwil","stateId":1657,"stateCode":"TG","stateName":"Thurgau","countryId":214,"countryCode":"CH","countryName":"Switzerland","latitude":"47.49981000","longitude":"9.39580000","wikiDataId":"Q22459395"},{"id":18388,"name":"Romanshorn","stateId":1657,"stateCode":"TG","stateName":"Thurgau","countryId":214,"countryCode":"CH","countryName":"Switzerland","latitude":"47.56586000","longitude":"9.37869000","wikiDataId":"Q22460440"},{"id":18433,"name":"Salmsach","stateId":1657,"stateCode":"TG","stateName":"Thurgau","countryId":214,"countryCode":"CH","countryName":"Switzerland","latitude":"47.55433000","longitude":"9.37229000","wikiDataId":"Q22395018"},{"id":18525,"name":"Sirnach","stateId":1657,"stateCode":"TG","stateName":"Thurgau","countryId":214,"countryCode":"CH","countryName":"Switzerland","latitude":"47.46222000","longitude":"8.99763000","wikiDataId":"Q22631122"},{"id":18549,"name":"Steckborn","stateId":1657,"stateCode":"TG","stateName":"Thurgau","countryId":214,"countryCode":"CH","countryName":"Switzerland","latitude":"47.66667000","longitude":"8.98333000","wikiDataId":"Q22386241"},{"id":18557,"name":"Stettfurt","stateId":1657,"stateCode":"TG","stateName":"Thurgau","countryId":214,"countryCode":"CH","countryName":"Switzerland","latitude":"47.52588000","longitude":"8.95317000","wikiDataId":"Q22393348"},{"id":18563,"name":"Sulgen","stateId":1657,"stateCode":"TG","stateName":"Thurgau","countryId":214,"countryCode":"CH","countryName":"Switzerland","latitude":"47.53967000","longitude":"9.18585000","wikiDataId":"Q22431631"},{"id":18616,"name":"Tägerwilen","stateId":1657,"stateCode":"TG","stateName":"Thurgau","countryId":214,"countryCode":"CH","countryName":"Switzerland","latitude":"47.65698000","longitude":"9.13999000","wikiDataId":"Q22378830"},{"id":18593,"name":"Thundorf","stateId":1657,"stateCode":"TG","stateName":"Thurgau","countryId":214,"countryCode":"CH","countryName":"Switzerland","latitude":"47.54594000","longitude":"8.96358000","wikiDataId":"Q64847"},{"id":18652,"name":"Uttwil","stateId":1657,"stateCode":"TG","stateName":"Thurgau","countryId":214,"countryCode":"CH","countryName":"Switzerland","latitude":"47.58440000","longitude":"9.34101000","wikiDataId":"Q22401220"},{"id":18698,"name":"Wagenhausen","stateId":1657,"stateCode":"TG","stateName":"Thurgau","countryId":214,"countryCode":"CH","countryName":"Switzerland","latitude":"47.66003000","longitude":"8.84782000","wikiDataId":"Q22437603"},{"id":18781,"name":"Wängi","stateId":1657,"stateCode":"TG","stateName":"Thurgau","countryId":214,"countryCode":"CH","countryName":"Switzerland","latitude":"47.49654000","longitude":"8.95325000","wikiDataId":"Q22641736"},{"id":18730,"name":"Weinfelden","stateId":1657,"stateCode":"TG","stateName":"Thurgau","countryId":214,"countryCode":"CH","countryName":"Switzerland","latitude":"47.56667000","longitude":"9.10000000","wikiDataId":"Q22559587"},{"id":18731,"name":"Weinfelden District","stateId":1657,"stateCode":"TG","stateName":"Thurgau","countryId":214,"countryCode":"CH","countryName":"Switzerland","latitude":"47.54237000","longitude":"9.15713000","wikiDataId":"Q175071"},{"id":18747,"name":"Wigoltingen","stateId":1657,"stateCode":"TG","stateName":"Thurgau","countryId":214,"countryCode":"CH","countryName":"Switzerland","latitude":"47.59770000","longitude":"9.03141000","wikiDataId":"Q22615859"}]