[{"id":56181,"name":"Amuntai","stateId":1819,"stateCode":"KS","stateName":"Kalimantan Selatan","countryId":102,"countryCode":"ID","countryName":"Indonesia","latitude":"-2.41773000","longitude":"115.24941000","wikiDataId":"Q18970"},{"id":56203,"name":"Banjarmasin","stateId":1819,"stateCode":"KS","stateName":"Kalimantan Selatan","countryId":102,"countryCode":"ID","countryName":"Indonesia","latitude":"-3.31987000","longitude":"114.59075000","wikiDataId":"Q25012347"},{"id":56207,"name":"Barabai","stateId":1819,"stateCode":"KS","stateName":"Kalimantan Selatan","countryId":102,"countryCode":"ID","countryName":"Indonesia","latitude":"-2.58333000","longitude":"115.38333000","wikiDataId":"Q25012517"},{"id":56323,"name":"Kabupaten Balangan","stateId":1819,"stateCode":"KS","stateName":"Kalimantan Selatan","countryId":102,"countryCode":"ID","countryName":"Indonesia","latitude":"-2.32314000","longitude":"115.62922000","wikiDataId":"Q14170"},{"id":56335,"name":"Kabupaten Banjar","stateId":1819,"stateCode":"KS","stateName":"Kalimantan Selatan","countryId":102,"countryCode":"ID","countryName":"Indonesia","latitude":"-3.31667000","longitude":"115.08333000","wikiDataId":"Q14171"},{"id":56341,"name":"Kabupaten Barito Kuala","stateId":1819,"stateCode":"KS","stateName":"Kalimantan Selatan","countryId":102,"countryCode":"ID","countryName":"Indonesia","latitude":"-3.08333000","longitude":"114.61667000","wikiDataId":"Q14172"},{"id":56420,"name":"Kabupaten Hulu Sungai Selatan","stateId":1819,"stateCode":"KS","stateName":"Kalimantan Selatan","countryId":102,"countryCode":"ID","countryName":"Indonesia","latitude":"-2.75000000","longitude":"115.20000000","wikiDataId":"Q14176"},{"id":56421,"name":"Kabupaten Hulu Sungai Tengah","stateId":1819,"stateCode":"KS","stateName":"Kalimantan Selatan","countryId":102,"countryCode":"ID","countryName":"Indonesia","latitude":"-2.61667000","longitude":"115.41667000","wikiDataId":"Q14173"},{"id":56422,"name":"Kabupaten Hulu Sungai Utara","stateId":1819,"stateCode":"KS","stateName":"Kalimantan Selatan","countryId":102,"countryCode":"ID","countryName":"Indonesia","latitude":"-2.45000000","longitude":"115.13333000","wikiDataId":"Q14175"},{"id":56468,"name":"Kabupaten Kota Baru","stateId":1819,"stateCode":"KS","stateName":"Kalimantan Selatan","countryId":102,"countryCode":"ID","countryName":"Indonesia","latitude":"-3.00000000","longitude":"116.00000000","wikiDataId":"Q14174"},{"id":56657,"name":"Kabupaten Tabalong","stateId":1819,"stateCode":"KS","stateName":"Kalimantan Selatan","countryId":102,"countryCode":"ID","countryName":"Indonesia","latitude":"-1.88333000","longitude":"115.50000000","wikiDataId":"Q14177"},{"id":56663,"name":"Kabupaten Tanah Bumbu","stateId":1819,"stateCode":"KS","stateName":"Kalimantan Selatan","countryId":102,"countryCode":"ID","countryName":"Indonesia","latitude":"-3.45413000","longitude":"115.70372000","wikiDataId":"Q14179"},{"id":56665,"name":"Kabupaten Tanah Laut","stateId":1819,"stateCode":"KS","stateName":"Kalimantan Selatan","countryId":102,"countryCode":"ID","countryName":"Indonesia","latitude":"-3.88333000","longitude":"114.86667000","wikiDataId":"Q14178"},{"id":56673,"name":"Kabupaten Tapin","stateId":1819,"stateCode":"KS","stateName":"Kalimantan Selatan","countryId":102,"countryCode":"ID","countryName":"Indonesia","latitude":"-2.91667000","longitude":"115.03333000","wikiDataId":"Q14180"},{"id":56733,"name":"Kota Banjar Baru","stateId":1819,"stateCode":"KS","stateName":"Kalimantan Selatan","countryId":102,"countryCode":"ID","countryName":"Indonesia","latitude":"-3.41667000","longitude":"114.83333000","wikiDataId":"Q14181"},{"id":56734,"name":"Kota Banjarmasin","stateId":1819,"stateCode":"KS","stateName":"Kalimantan Selatan","countryId":102,"countryCode":"ID","countryName":"Indonesia","latitude":"-3.32444000","longitude":"114.59102000","wikiDataId":"Q14182"},{"id":56864,"name":"Martapura","stateId":1819,"stateCode":"KS","stateName":"Kalimantan Selatan","countryId":102,"countryCode":"ID","countryName":"Indonesia","latitude":"-3.41090000","longitude":"114.86420000","wikiDataId":"Q185689"}]