[{"id":153349,"name":"Äetsä","stateId":1506,"stateCode":"11","stateName":"Pirkanmaa","countryId":74,"countryCode":"FI","countryName":"Finland","latitude":"61.28333000","longitude":"22.68333000","wikiDataId":"Q252873"},{"id":153290,"name":"Aimala","stateId":1506,"stateCode":"11","stateName":"Pirkanmaa","countryId":74,"countryCode":"FI","countryName":"Finland","latitude":"61.33000000","longitude":"23.69000000","wikiDataId":"Q15178579"},{"id":153291,"name":"Aitoo","stateId":1506,"stateCode":"11","stateName":"Pirkanmaa","countryId":74,"countryCode":"FI","countryName":"Finland","latitude":"61.33897400","longitude":"24.49431900","wikiDataId":"Q11850238"},{"id":153292,"name":"Akaa","stateId":1506,"stateCode":"11","stateName":"Pirkanmaa","countryId":74,"countryCode":"FI","countryName":"Finland","latitude":"61.16666667","longitude":"23.86805556","wikiDataId":"Q413747"},{"id":153293,"name":"Amuri","stateId":1506,"stateCode":"11","stateName":"Pirkanmaa","countryId":74,"countryCode":"FI","countryName":"Finland","latitude":"61.50000000","longitude":"23.74500000","wikiDataId":"Q4749000"},{"id":153294,"name":"Haihara","stateId":1506,"stateCode":"11","stateName":"Pirkanmaa","countryId":74,"countryCode":"FI","countryName":"Finland","latitude":"61.47630000","longitude":"23.87711000","wikiDataId":"Q26845411"},{"id":153295,"name":"Hallila","stateId":1506,"stateCode":"11","stateName":"Pirkanmaa","countryId":74,"countryCode":"FI","countryName":"Finland","latitude":"61.46250000","longitude":"23.82916667","wikiDataId":"Q5642997"},{"id":153297,"name":"Hämeenkyrö","stateId":1506,"stateCode":"11","stateName":"Pirkanmaa","countryId":74,"countryCode":"FI","countryName":"Finland","latitude":"61.63333333","longitude":"23.20000000","wikiDataId":"Q996656"},{"id":153296,"name":"Hervanta","stateId":1506,"stateCode":"11","stateName":"Pirkanmaa","countryId":74,"countryCode":"FI","countryName":"Finland","latitude":"61.44810000","longitude":"23.85210000","wikiDataId":"Q385316"},{"id":153298,"name":"Ikaalinen","stateId":1506,"stateCode":"11","stateName":"Pirkanmaa","countryId":74,"countryCode":"FI","countryName":"Finland","latitude":"61.76944444","longitude":"23.06805556","wikiDataId":"Q735133"},{"id":153299,"name":"Juupajoki","stateId":1506,"stateCode":"11","stateName":"Pirkanmaa","countryId":74,"countryCode":"FI","countryName":"Finland","latitude":"61.79666667","longitude":"24.37000000","wikiDataId":"Q1009127"},{"id":153300,"name":"Kangasala","stateId":1506,"stateCode":"11","stateName":"Pirkanmaa","countryId":74,"countryCode":"FI","countryName":"Finland","latitude":"61.46388900","longitude":"24.06500000","wikiDataId":"Q986322"},{"id":153301,"name":"Kihniö","stateId":1506,"stateCode":"11","stateName":"Pirkanmaa","countryId":74,"countryCode":"FI","countryName":"Finland","latitude":"62.20833333","longitude":"23.17916667","wikiDataId":"Q990563"},{"id":153302,"name":"Kiikka","stateId":1506,"stateCode":"11","stateName":"Pirkanmaa","countryId":74,"countryCode":"FI","countryName":"Finland","latitude":"61.32077778","longitude":"22.77538889","wikiDataId":"Q3432678"},{"id":153303,"name":"Kiikoinen","stateId":1506,"stateCode":"11","stateName":"Pirkanmaa","countryId":74,"countryCode":"FI","countryName":"Finland","latitude":"61.45000000","longitude":"22.57500000","wikiDataId":"Q999298"},{"id":153304,"name":"Kolho","stateId":1506,"stateCode":"11","stateName":"Pirkanmaa","countryId":74,"countryCode":"FI","countryName":"Finland","latitude":"62.13333333","longitude":"24.51666667","wikiDataId":"Q11872198"},{"id":153305,"name":"Kuhmalahti","stateId":1506,"stateCode":"11","stateName":"Pirkanmaa","countryId":74,"countryCode":"FI","countryName":"Finland","latitude":"61.50500000","longitude":"24.56666667","wikiDataId":"Q1025697"},{"id":153306,"name":"Kuru","stateId":1506,"stateCode":"11","stateName":"Pirkanmaa","countryId":74,"countryCode":"FI","countryName":"Finland","latitude":"61.87558000","longitude":"23.71948000","wikiDataId":"Q1025732"},{"id":153307,"name":"Kylmäkoski","stateId":1506,"stateCode":"11","stateName":"Pirkanmaa","countryId":74,"countryCode":"FI","countryName":"Finland","latitude":"61.15000000","longitude":"23.69166667","wikiDataId":"Q1641581"},{"id":153312,"name":"Längelmäki","stateId":1506,"stateCode":"11","stateName":"Pirkanmaa","countryId":74,"countryCode":"FI","countryName":"Finland","latitude":"61.68890000","longitude":"24.69194000","wikiDataId":"Q1807534"},{"id":153308,"name":"Lempäälä","stateId":1506,"stateCode":"11","stateName":"Pirkanmaa","countryId":74,"countryCode":"FI","countryName":"Finland","latitude":"61.31388889","longitude":"23.75277778","wikiDataId":"Q838821"},{"id":153309,"name":"Lentävänniemi","stateId":1506,"stateCode":"11","stateName":"Pirkanmaa","countryId":74,"countryCode":"FI","countryName":"Finland","latitude":"61.52801000","longitude":"23.70575000","wikiDataId":"Q11875545"},{"id":153310,"name":"Lielahti","stateId":1506,"stateCode":"11","stateName":"Pirkanmaa","countryId":74,"countryCode":"FI","countryName":"Finland","latitude":"61.51666667","longitude":"23.66666667","wikiDataId":"Q6544133"},{"id":153311,"name":"Luopioinen","stateId":1506,"stateCode":"11","stateName":"Pirkanmaa","countryId":74,"countryCode":"FI","countryName":"Finland","latitude":"61.36293000","longitude":"24.66781000","wikiDataId":"Q2428286"},{"id":153315,"name":"Mänttä","stateId":1506,"stateCode":"11","stateName":"Pirkanmaa","countryId":74,"countryCode":"FI","countryName":"Finland","latitude":"62.03014000","longitude":"24.62791000","wikiDataId":"Q1001762"},{"id":153313,"name":"Messukylä","stateId":1506,"stateCode":"11","stateName":"Pirkanmaa","countryId":74,"countryCode":"FI","countryName":"Finland","latitude":"61.48527778","longitude":"23.84472222","wikiDataId":"Q1020004"},{"id":153314,"name":"Mouhijärvi","stateId":1506,"stateCode":"11","stateName":"Pirkanmaa","countryId":74,"countryCode":"FI","countryName":"Finland","latitude":"61.50000000","longitude":"23.01667000","wikiDataId":"Q661269"},{"id":153316,"name":"Naistenmatka","stateId":1506,"stateCode":"11","stateName":"Pirkanmaa","countryId":74,"countryCode":"FI","countryName":"Finland","latitude":"61.46518000","longitude":"23.65253000","wikiDataId":"Q18682312"},{"id":153317,"name":"Nekala","stateId":1506,"stateCode":"11","stateName":"Pirkanmaa","countryId":74,"countryCode":"FI","countryName":"Finland","latitude":"61.48333333","longitude":"23.79055556","wikiDataId":"Q6989789"},{"id":153318,"name":"Nokia","stateId":1506,"stateCode":"11","stateName":"Pirkanmaa","countryId":74,"countryCode":"FI","countryName":"Finland","latitude":"61.47666667","longitude":"23.50527778","wikiDataId":"Q192870"},{"id":153319,"name":"Nurmi","stateId":1506,"stateCode":"11","stateName":"Pirkanmaa","countryId":74,"countryCode":"FI","countryName":"Finland","latitude":"61.53779000","longitude":"23.94178000","wikiDataId":"Q26845699"},{"id":153320,"name":"Nuutajärvi","stateId":1506,"stateCode":"11","stateName":"Pirkanmaa","countryId":74,"countryCode":"FI","countryName":"Finland","latitude":"61.04000000","longitude":"23.43000000","wikiDataId":"Q18682350"},{"id":153321,"name":"Orivesi","stateId":1506,"stateCode":"11","stateName":"Pirkanmaa","countryId":74,"countryCode":"FI","countryName":"Finland","latitude":"61.67777778","longitude":"24.35694444","wikiDataId":"Q953081"},{"id":153322,"name":"Osara","stateId":1506,"stateCode":"11","stateName":"Pirkanmaa","countryId":74,"countryCode":"FI","countryName":"Finland","latitude":"61.70866000","longitude":"23.15871000","wikiDataId":"Q31087965"},{"id":153328,"name":"Pälkäne","stateId":1506,"stateCode":"11","stateName":"Pirkanmaa","countryId":74,"countryCode":"FI","countryName":"Finland","latitude":"61.35403000","longitude":"24.51912000","wikiDataId":"Q374619"},{"id":153323,"name":"Parkano","stateId":1506,"stateCode":"11","stateName":"Pirkanmaa","countryId":74,"countryCode":"FI","countryName":"Finland","latitude":"62.00972222","longitude":"23.02500000","wikiDataId":"Q953070"},{"id":153324,"name":"Pirkkala","stateId":1506,"stateCode":"11","stateName":"Pirkanmaa","countryId":74,"countryCode":"FI","countryName":"Finland","latitude":"61.46666667","longitude":"23.65000000","wikiDataId":"Q853628"},{"id":153325,"name":"Pispala","stateId":1506,"stateCode":"11","stateName":"Pirkanmaa","countryId":74,"countryCode":"FI","countryName":"Finland","latitude":"61.50611111","longitude":"23.70250000","wikiDataId":"Q3116516"},{"id":153326,"name":"Pohjaslahti","stateId":1506,"stateCode":"11","stateName":"Pirkanmaa","countryId":74,"countryCode":"FI","countryName":"Finland","latitude":"62.15631000","longitude":"24.13190000","wikiDataId":"Q11888451"},{"id":153327,"name":"Punkalaidun","stateId":1506,"stateCode":"11","stateName":"Pirkanmaa","countryId":74,"countryCode":"FI","countryName":"Finland","latitude":"61.11166667","longitude":"23.10500000","wikiDataId":"Q1001932"},{"id":153329,"name":"Ruovesi","stateId":1506,"stateCode":"11","stateName":"Pirkanmaa","countryId":74,"countryCode":"FI","countryName":"Finland","latitude":"61.98333300","longitude":"24.08333300","wikiDataId":"Q510636"},{"id":153334,"name":"Sääksmäki","stateId":1506,"stateCode":"11","stateName":"Pirkanmaa","countryId":74,"countryCode":"FI","countryName":"Finland","latitude":"61.20000000","longitude":"24.06666667","wikiDataId":"Q606021"},{"id":153330,"name":"Sahalahti","stateId":1506,"stateCode":"11","stateName":"Pirkanmaa","countryId":74,"countryCode":"FI","countryName":"Finland","latitude":"61.46666667","longitude":"24.31666667","wikiDataId":"Q280118"},{"id":153331,"name":"Sastamala","stateId":1506,"stateCode":"11","stateName":"Pirkanmaa","countryId":74,"countryCode":"FI","countryName":"Finland","latitude":"61.34166667","longitude":"22.90833333","wikiDataId":"Q1001927"},{"id":153332,"name":"Suodenniemi","stateId":1506,"stateCode":"11","stateName":"Pirkanmaa","countryId":74,"countryCode":"FI","countryName":"Finland","latitude":"61.55810000","longitude":"22.78526000","wikiDataId":"Q937668"},{"id":153333,"name":"Suoniemi","stateId":1506,"stateCode":"11","stateName":"Pirkanmaa","countryId":74,"countryCode":"FI","countryName":"Finland","latitude":"61.44111111","longitude":"23.21500000","wikiDataId":"Q3432479"},{"id":153335,"name":"Tampere","stateId":1506,"stateCode":"11","stateName":"Pirkanmaa","countryId":74,"countryCode":"FI","countryName":"Finland","latitude":"61.49805556","longitude":"23.76000000","wikiDataId":"Q40840"},{"id":153336,"name":"Teisko","stateId":1506,"stateCode":"11","stateName":"Pirkanmaa","countryId":74,"countryCode":"FI","countryName":"Finland","latitude":"61.67336111","longitude":"23.84766944","wikiDataId":"Q11896798"},{"id":153337,"name":"Toijala","stateId":1506,"stateCode":"11","stateName":"Pirkanmaa","countryId":74,"countryCode":"FI","countryName":"Finland","latitude":"61.16780000","longitude":"23.83819000","wikiDataId":"Q1850632"},{"id":153338,"name":"Tottijärvi","stateId":1506,"stateCode":"11","stateName":"Pirkanmaa","countryId":74,"countryCode":"FI","countryName":"Finland","latitude":"61.39777778","longitude":"23.34277778","wikiDataId":"Q3432686"},{"id":153339,"name":"Urjala","stateId":1506,"stateCode":"11","stateName":"Pirkanmaa","countryId":74,"countryCode":"FI","countryName":"Finland","latitude":"61.08333333","longitude":"23.55000000","wikiDataId":"Q636459"},{"id":153340,"name":"Valkeakoski","stateId":1506,"stateCode":"11","stateName":"Pirkanmaa","countryId":74,"countryCode":"FI","countryName":"Finland","latitude":"61.26666667","longitude":"24.03055556","wikiDataId":"Q322126"},{"id":153341,"name":"Vammala","stateId":1506,"stateCode":"11","stateName":"Pirkanmaa","countryId":74,"countryCode":"FI","countryName":"Finland","latitude":"61.34027778","longitude":"22.90972222","wikiDataId":"Q996067"},{"id":153342,"name":"Vesilahti","stateId":1506,"stateCode":"11","stateName":"Pirkanmaa","countryId":74,"countryCode":"FI","countryName":"Finland","latitude":"61.31666700","longitude":"23.61666700","wikiDataId":"Q1009136"},{"id":153343,"name":"Viiala","stateId":1506,"stateCode":"11","stateName":"Pirkanmaa","countryId":74,"countryCode":"FI","countryName":"Finland","latitude":"61.21023000","longitude":"23.76738000","wikiDataId":"Q654667"},{"id":153344,"name":"Viljakkala","stateId":1506,"stateCode":"11","stateName":"Pirkanmaa","countryId":74,"countryCode":"FI","countryName":"Finland","latitude":"61.70601000","longitude":"23.26688000","wikiDataId":"Q2307308"},{"id":153345,"name":"Vilppula","stateId":1506,"stateCode":"11","stateName":"Pirkanmaa","countryId":74,"countryCode":"FI","countryName":"Finland","latitude":"62.02121000","longitude":"24.50483000","wikiDataId":"Q1264422"},{"id":153346,"name":"Virrat","stateId":1506,"stateCode":"11","stateName":"Pirkanmaa","countryId":74,"countryCode":"FI","countryName":"Finland","latitude":"62.24027778","longitude":"23.77083333","wikiDataId":"Q938820"},{"id":153347,"name":"Vuores","stateId":1506,"stateCode":"11","stateName":"Pirkanmaa","countryId":74,"countryCode":"FI","countryName":"Finland","latitude":"61.43100000","longitude":"23.81184000","wikiDataId":"Q11901997"},{"id":153348,"name":"Ylöjärvi","stateId":1506,"stateCode":"11","stateName":"Pirkanmaa","countryId":74,"countryCode":"FI","countryName":"Finland","latitude":"61.55000000","longitude":"23.58333333","wikiDataId":"Q543800"}]