[{"id":81177,"name":"Alabel","stateId":1310,"stateCode":"12","stateName":"Soccsksargen","countryId":174,"countryCode":"PH","countryName":"Philippines","latitude":"6.10179000","longitude":"125.29048000","wikiDataId":"Q174393"},{"id":81183,"name":"Alamada","stateId":1310,"stateCode":"12","stateName":"Soccsksargen","countryId":174,"countryCode":"PH","countryName":"Philippines","latitude":"7.33333000","longitude":"124.56667000","wikiDataId":"Q315042"},{"id":81242,"name":"Amas","stateId":1310,"stateCode":"12","stateName":"Soccsksargen","countryId":174,"countryCode":"PH","countryName":"Philippines","latitude":"7.05694000","longitude":"124.98389000","wikiDataId":"Q31465342"},{"id":81403,"name":"Bagontapay","stateId":1310,"stateCode":"12","stateName":"Soccsksargen","countryId":174,"countryCode":"PH","countryName":"Philippines","latitude":"6.85889000","longitude":"124.90889000","wikiDataId":"Q31796144"},{"id":81407,"name":"Baguer","stateId":1310,"stateCode":"12","stateName":"Soccsksargen","countryId":174,"countryCode":"PH","countryName":"Philippines","latitude":"7.25611000","longitude":"124.50417000","wikiDataId":"Q31475802"},{"id":81484,"name":"Baliton","stateId":1310,"stateCode":"12","stateName":"Soccsksargen","countryId":174,"countryCode":"PH","countryName":"Philippines","latitude":"5.74361000","longitude":"125.23639000","wikiDataId":"Q31481082"},{"id":81493,"name":"Balogo","stateId":1310,"stateCode":"12","stateName":"Soccsksargen","countryId":174,"countryCode":"PH","countryName":"Philippines","latitude":"7.28230000","longitude":"124.46388000","wikiDataId":"Q31481612"},{"id":81516,"name":"Banawa","stateId":1310,"stateCode":"12","stateName":"Soccsksargen","countryId":174,"countryCode":"PH","countryName":"Philippines","latitude":"7.15361000","longitude":"124.86667000","wikiDataId":"Q31796268"},{"id":81671,"name":"Bañga","stateId":1310,"stateCode":"12","stateName":"Soccsksargen","countryId":174,"countryCode":"PH","countryName":"Philippines","latitude":"6.42389000","longitude":"124.77833000","wikiDataId":"Q569215"},{"id":81541,"name":"Banisilan","stateId":1310,"stateCode":"12","stateName":"Soccsksargen","countryId":174,"countryCode":"PH","countryName":"Philippines","latitude":"7.49083000","longitude":"124.72417000","wikiDataId":"Q315121"},{"id":81557,"name":"Bantogon","stateId":1310,"stateCode":"12","stateName":"Soccsksargen","countryId":174,"countryCode":"PH","countryName":"Philippines","latitude":"6.53333000","longitude":"124.03333000","wikiDataId":"Q31485148"},{"id":81582,"name":"Barongis","stateId":1310,"stateCode":"12","stateName":"Soccsksargen","countryId":174,"countryCode":"PH","countryName":"Philippines","latitude":"7.26111000","longitude":"124.56417000","wikiDataId":"Q31487365"},{"id":81595,"name":"Basak","stateId":1310,"stateCode":"12","stateName":"Soccsksargen","countryId":174,"countryCode":"PH","countryName":"Philippines","latitude":"6.72736000","longitude":"124.15117000","wikiDataId":"Q31488188"},{"id":81619,"name":"Batasan","stateId":1310,"stateCode":"12","stateName":"Soccsksargen","countryId":174,"countryCode":"PH","countryName":"Philippines","latitude":"7.03333000","longitude":"125.05000000","wikiDataId":"Q31490173"},{"id":81638,"name":"Batutitik","stateId":1310,"stateCode":"12","stateName":"Soccsksargen","countryId":174,"countryCode":"PH","countryName":"Philippines","latitude":"6.22333000","longitude":"125.25194000","wikiDataId":"Q31491210"},{"id":81639,"name":"Bau","stateId":1310,"stateCode":"12","stateName":"Soccsksargen","countryId":174,"countryCode":"PH","countryName":"Philippines","latitude":"7.40528000","longitude":"124.64972000","wikiDataId":"Q31491255"},{"id":81660,"name":"Bayasong","stateId":1310,"stateCode":"12","stateName":"Soccsksargen","countryId":174,"countryCode":"PH","countryName":"Philippines","latitude":"6.64889000","longitude":"124.87306000","wikiDataId":"Q31492544"},{"id":81682,"name":"Bialong","stateId":1310,"stateCode":"12","stateName":"Soccsksargen","countryId":174,"countryCode":"PH","countryName":"Philippines","latitude":"6.98056000","longitude":"124.88889000","wikiDataId":"Q31498182"},{"id":81748,"name":"Biwang","stateId":1310,"stateCode":"12","stateName":"Soccsksargen","countryId":174,"countryCode":"PH","countryName":"Philippines","latitude":"6.60592000","longitude":"124.54358000","wikiDataId":"Q31504224"},{"id":81750,"name":"Blingkong","stateId":1310,"stateCode":"12","stateName":"Soccsksargen","countryId":174,"countryCode":"PH","countryName":"Philippines","latitude":"6.58808000","longitude":"124.88951000","wikiDataId":"Q31505808"},{"id":81814,"name":"Buadtasan","stateId":1310,"stateCode":"12","stateName":"Soccsksargen","countryId":174,"countryCode":"PH","countryName":"Philippines","latitude":"6.00496000","longitude":"124.61266000","wikiDataId":"Q31514426"},{"id":81816,"name":"Bual","stateId":1310,"stateCode":"12","stateName":"Soccsksargen","countryId":174,"countryCode":"PH","countryName":"Philippines","latitude":"6.79583000","longitude":"124.91083000","wikiDataId":"Q31514458"},{"id":81822,"name":"Buawan","stateId":1310,"stateCode":"12","stateName":"Soccsksargen","countryId":174,"countryCode":"PH","countryName":"Philippines","latitude":"8.31667000","longitude":"124.30306000","wikiDataId":"Q31514619"},{"id":81823,"name":"Buayan","stateId":1310,"stateCode":"12","stateName":"Soccsksargen","countryId":174,"countryCode":"PH","countryName":"Philippines","latitude":"6.11639000","longitude":"125.23472000","wikiDataId":"Q31514713"},{"id":81857,"name":"Bukay Pait","stateId":1310,"stateCode":"12","stateName":"Soccsksargen","countryId":174,"countryCode":"PH","countryName":"Philippines","latitude":"6.56161000","longitude":"124.76706000","wikiDataId":"Q31796592"},{"id":81871,"name":"Bulatukan","stateId":1310,"stateCode":"12","stateName":"Soccsksargen","countryId":174,"countryCode":"PH","countryName":"Philippines","latitude":"6.90250000","longitude":"125.16083000","wikiDataId":"Q31517523"},{"id":81912,"name":"Burias","stateId":1310,"stateCode":"12","stateName":"Soccsksargen","countryId":174,"countryCode":"PH","countryName":"Philippines","latitude":"5.71778000","longitude":"125.25361000","wikiDataId":"Q31519427"},{"id":81919,"name":"Busok","stateId":1310,"stateCode":"12","stateName":"Soccsksargen","countryId":174,"countryCode":"PH","countryName":"Philippines","latitude":"6.50820000","longitude":"124.60009000","wikiDataId":"Q31520416"},{"id":82173,"name":"Carmen","stateId":1310,"stateCode":"12","stateName":"Soccsksargen","countryId":174,"countryCode":"PH","countryName":"Philippines","latitude":"7.20444000","longitude":"124.79167000","wikiDataId":"Q315144"},{"id":82179,"name":"Carpenter Hill","stateId":1310,"stateCode":"12","stateName":"Soccsksargen","countryId":174,"countryCode":"PH","countryName":"Philippines","latitude":"6.44413000","longitude":"124.88138000","wikiDataId":"Q31535348"},{"id":82239,"name":"Cebuano","stateId":1310,"stateCode":"12","stateName":"Soccsksargen","countryId":174,"countryCode":"PH","countryName":"Philippines","latitude":"6.38794000","longitude":"124.96841000","wikiDataId":"Q31539209"},{"id":82260,"name":"Colongulo","stateId":1310,"stateCode":"12","stateName":"Soccsksargen","countryId":174,"countryCode":"PH","countryName":"Philippines","latitude":"6.33861000","longitude":"124.72167000","wikiDataId":"Q31549980"},{"id":82263,"name":"Columbio","stateId":1310,"stateCode":"12","stateName":"Soccsksargen","countryId":174,"countryCode":"PH","countryName":"Philippines","latitude":"6.69639000","longitude":"124.93722000","wikiDataId":"Q173404"},{"id":82279,"name":"Conel","stateId":1310,"stateCode":"12","stateName":"Soccsksargen","countryId":174,"countryCode":"PH","countryName":"Philippines","latitude":"6.20222000","longitude":"125.18722000","wikiDataId":"Q31551178"},{"id":82303,"name":"Cotabato City","stateId":1310,"stateCode":"12","stateName":"Soccsksargen","countryId":174,"countryCode":"PH","countryName":"Philippines","latitude":"7.21667000","longitude":"124.25000000","wikiDataId":"Q726993"},{"id":82337,"name":"Daguma","stateId":1310,"stateCode":"12","stateName":"Soccsksargen","countryId":174,"countryCode":"PH","countryName":"Philippines","latitude":"6.60345000","longitude":"124.57020000","wikiDataId":"Q31558689"},{"id":82342,"name":"Dahay","stateId":1310,"stateCode":"12","stateName":"Soccsksargen","countryId":174,"countryCode":"PH","countryName":"Philippines","latitude":"6.39067000","longitude":"124.71464000","wikiDataId":"Q31558801"},{"id":82346,"name":"Daliao","stateId":1310,"stateCode":"12","stateName":"Soccsksargen","countryId":174,"countryCode":"PH","countryName":"Philippines","latitude":"5.86111000","longitude":"124.95333000","wikiDataId":"Q31559852"},{"id":82359,"name":"Damawato","stateId":1310,"stateCode":"12","stateName":"Soccsksargen","countryId":174,"countryCode":"PH","countryName":"Philippines","latitude":"6.70000000","longitude":"124.78333000","wikiDataId":"Q31560657"},{"id":82372,"name":"Dansuli","stateId":1310,"stateCode":"12","stateName":"Soccsksargen","countryId":174,"countryCode":"PH","countryName":"Philippines","latitude":"6.64075000","longitude":"124.58258000","wikiDataId":"Q31561536"},{"id":82424,"name":"Digkilaan","stateId":1310,"stateCode":"12","stateName":"Soccsksargen","countryId":174,"countryCode":"PH","countryName":"Philippines","latitude":"8.25111000","longitude":"124.31722000","wikiDataId":"Q31566853"},{"id":82468,"name":"Dualing","stateId":1310,"stateCode":"12","stateName":"Soccsksargen","countryId":174,"countryCode":"PH","countryName":"Philippines","latitude":"7.15167000","longitude":"124.56833000","wikiDataId":"Q31571737"},{"id":82473,"name":"Dukay","stateId":1310,"stateCode":"12","stateName":"Soccsksargen","countryId":174,"countryCode":"PH","countryName":"Philippines","latitude":"6.66688000","longitude":"124.55697000","wikiDataId":"Q31572149"},{"id":82482,"name":"Dumaguil","stateId":1310,"stateCode":"12","stateName":"Soccsksargen","countryId":174,"countryCode":"PH","countryName":"Philippines","latitude":"6.62000000","longitude":"124.65333000","wikiDataId":"Q873377"},{"id":82496,"name":"Dunguan","stateId":1310,"stateCode":"12","stateName":"Soccsksargen","countryId":174,"countryCode":"PH","countryName":"Philippines","latitude":"6.94972000","longitude":"124.86083000","wikiDataId":"Q31573114"},{"id":82520,"name":"Esperanza","stateId":1310,"stateCode":"12","stateName":"Soccsksargen","countryId":174,"countryCode":"PH","countryName":"Philippines","latitude":"6.72306000","longitude":"124.51972000","wikiDataId":"Q173414"},{"id":82565,"name":"Gansing","stateId":1310,"stateCode":"12","stateName":"Soccsksargen","countryId":174,"countryCode":"PH","countryName":"Philippines","latitude":"6.71851000","longitude":"124.65338000","wikiDataId":"Q31588615"},{"id":82582,"name":"General Santos","stateId":1310,"stateCode":"12","stateName":"Soccsksargen","countryId":174,"countryCode":"PH","countryName":"Philippines","latitude":"6.11278000","longitude":"125.17167000","wikiDataId":"Q594275"},{"id":82599,"name":"Glad","stateId":1310,"stateCode":"12","stateName":"Soccsksargen","countryId":174,"countryCode":"PH","countryName":"Philippines","latitude":"7.14833000","longitude":"124.51806000","wikiDataId":"Q31457955"},{"id":82600,"name":"Glamang","stateId":1310,"stateCode":"12","stateName":"Soccsksargen","countryId":174,"countryCode":"PH","countryName":"Philippines","latitude":"6.16255000","longitude":"125.08392000","wikiDataId":"Q31457985"},{"id":82601,"name":"Glan","stateId":1310,"stateCode":"12","stateName":"Soccsksargen","countryId":174,"countryCode":"PH","countryName":"Philippines","latitude":"5.82417000","longitude":"125.20333000","wikiDataId":"Q174403"},{"id":82602,"name":"Glan Peidu","stateId":1310,"stateCode":"12","stateName":"Soccsksargen","countryId":174,"countryCode":"PH","countryName":"Philippines","latitude":"5.85500000","longitude":"125.21861000","wikiDataId":"Q31458011"},{"id":82605,"name":"Gocoton","stateId":1310,"stateCode":"12","stateName":"Soccsksargen","countryId":174,"countryCode":"PH","countryName":"Philippines","latitude":"7.15611000","longitude":"124.69111000","wikiDataId":"Q31458381"},{"id":82640,"name":"Guinsang-an","stateId":1310,"stateCode":"12","stateName":"Soccsksargen","countryId":174,"countryCode":"PH","countryName":"Philippines","latitude":"6.46499000","longitude":"124.68491000","wikiDataId":"Q31811373"},{"id":82725,"name":"Ilaya","stateId":1310,"stateCode":"12","stateName":"Soccsksargen","countryId":174,"countryCode":"PH","countryName":"Philippines","latitude":"5.81528000","longitude":"125.22667000","wikiDataId":"Q31811479"},{"id":82727,"name":"Iligan City","stateId":1310,"stateCode":"12","stateName":"Soccsksargen","countryId":174,"countryCode":"PH","countryName":"Philippines","latitude":"8.25000000","longitude":"124.40000000","wikiDataId":"Q285488"},{"id":82773,"name":"Isulan","stateId":1310,"stateCode":"12","stateName":"Soccsksargen","countryId":174,"countryCode":"PH","countryName":"Philippines","latitude":"6.62944000","longitude":"124.60500000","wikiDataId":"Q173428"},{"id":82821,"name":"Kabacan","stateId":1310,"stateCode":"12","stateName":"Soccsksargen","countryId":174,"countryCode":"PH","countryName":"Philippines","latitude":"7.10667000","longitude":"124.82917000","wikiDataId":"Q315164"},{"id":82823,"name":"Kabalen","stateId":1310,"stateCode":"12","stateName":"Soccsksargen","countryId":174,"countryCode":"PH","countryName":"Philippines","latitude":"6.31944000","longitude":"125.01056000","wikiDataId":"Q31811566"},{"id":82828,"name":"Kablalan","stateId":1310,"stateCode":"12","stateName":"Soccsksargen","countryId":174,"countryCode":"PH","countryName":"Philippines","latitude":"5.77972000","longitude":"125.19778000","wikiDataId":"Q31811570"},{"id":82838,"name":"Kalaisan","stateId":1310,"stateCode":"12","stateName":"Soccsksargen","countryId":174,"countryCode":"PH","countryName":"Philippines","latitude":"7.01028000","longitude":"125.04500000","wikiDataId":"Q31811580"},{"id":82839,"name":"Kalamangog","stateId":1310,"stateCode":"12","stateName":"Soccsksargen","countryId":174,"countryCode":"PH","countryName":"Philippines","latitude":"6.72556000","longitude":"124.06889000","wikiDataId":"Q31811582"},{"id":82840,"name":"Kalamansig","stateId":1310,"stateCode":"12","stateName":"Soccsksargen","countryId":174,"countryCode":"PH","countryName":"Philippines","latitude":"6.55187000","longitude":"124.05111000","wikiDataId":"Q173438"},{"id":82841,"name":"Kalandagan","stateId":1310,"stateCode":"12","stateName":"Soccsksargen","countryId":174,"countryCode":"PH","countryName":"Philippines","latitude":"6.67826000","longitude":"124.72477000","wikiDataId":"Q173438"},{"id":82857,"name":"Kamanga","stateId":1310,"stateCode":"12","stateName":"Soccsksargen","countryId":174,"countryCode":"PH","countryName":"Philippines","latitude":"5.85778000","longitude":"125.05611000","wikiDataId":"Q31811600"},{"id":82870,"name":"Kapatan","stateId":1310,"stateCode":"12","stateName":"Soccsksargen","countryId":174,"countryCode":"PH","countryName":"Philippines","latitude":"5.90056000","longitude":"125.23750000","wikiDataId":"Q31811612"},{"id":82871,"name":"Kapaya","stateId":1310,"stateCode":"12","stateName":"Soccsksargen","countryId":174,"countryCode":"PH","countryName":"Philippines","latitude":"6.54258000","longitude":"124.56314000","wikiDataId":"Q31811613"},{"id":82872,"name":"Kapingkong","stateId":1310,"stateCode":"12","stateName":"Soccsksargen","countryId":174,"countryCode":"PH","countryName":"Philippines","latitude":"6.67503000","longitude":"124.62632000","wikiDataId":"Q31811614"},{"id":82876,"name":"Katangawan","stateId":1310,"stateCode":"12","stateName":"Soccsksargen","countryId":174,"countryCode":"PH","countryName":"Philippines","latitude":"6.17222000","longitude":"125.22139000","wikiDataId":"Q51485"},{"id":82881,"name":"Katubao","stateId":1310,"stateCode":"12","stateName":"Soccsksargen","countryId":174,"countryCode":"PH","countryName":"Philippines","latitude":"5.88917000","longitude":"124.82944000","wikiDataId":"Q31811623"},{"id":82891,"name":"Kiamba","stateId":1310,"stateCode":"12","stateName":"Soccsksargen","countryId":174,"countryCode":"PH","countryName":"Philippines","latitude":"5.98944000","longitude":"124.62417000","wikiDataId":"Q174417"},{"id":82899,"name":"Kidapawan","stateId":1310,"stateCode":"12","stateName":"Soccsksargen","countryId":174,"countryCode":"PH","countryName":"Philippines","latitude":"7.00833000","longitude":"125.08944000","wikiDataId":"Q583137"},{"id":82911,"name":"Kipalbig","stateId":1310,"stateCode":"12","stateName":"Soccsksargen","countryId":174,"countryCode":"PH","countryName":"Philippines","latitude":"6.41056000","longitude":"124.92640000","wikiDataId":"Q31811652"},{"id":82913,"name":"Kisante","stateId":1310,"stateCode":"12","stateName":"Soccsksargen","countryId":174,"countryCode":"PH","countryName":"Philippines","latitude":"6.92306000","longitude":"125.15500000","wikiDataId":"Q31811654"},{"id":82920,"name":"Kiupo","stateId":1310,"stateCode":"12","stateName":"Soccsksargen","countryId":174,"countryCode":"PH","countryName":"Philippines","latitude":"5.84167000","longitude":"125.31917000","wikiDataId":"Q31811660"},{"id":82921,"name":"Klinan","stateId":1310,"stateCode":"12","stateName":"Soccsksargen","countryId":174,"countryCode":"PH","countryName":"Philippines","latitude":"6.18683000","longitude":"125.13684000","wikiDataId":"Q31811664"},{"id":82924,"name":"Kolumbug","stateId":1310,"stateCode":"12","stateName":"Soccsksargen","countryId":174,"countryCode":"PH","countryName":"Philippines","latitude":"6.52389000","longitude":"124.60833000","wikiDataId":"Q31811670"},{"id":82925,"name":"Koronadal","stateId":1310,"stateCode":"12","stateName":"Soccsksargen","countryId":174,"countryCode":"PH","countryName":"Philippines","latitude":"6.50306000","longitude":"124.84694000","wikiDataId":"Q542154"},{"id":82928,"name":"Kudanding","stateId":1310,"stateCode":"12","stateName":"Soccsksargen","countryId":174,"countryCode":"PH","countryName":"Philippines","latitude":"6.58803000","longitude":"124.63274000","wikiDataId":"Q31811678"},{"id":82929,"name":"Kulaman","stateId":1310,"stateCode":"12","stateName":"Soccsksargen","countryId":174,"countryCode":"PH","countryName":"Philippines","latitude":"6.46001000","longitude":"124.08767000","wikiDataId":"Q31811682"},{"id":82965,"name":"Labu-o","stateId":1310,"stateCode":"12","stateName":"Soccsksargen","countryId":174,"countryCode":"PH","countryName":"Philippines","latitude":"7.11417000","longitude":"125.04528000","wikiDataId":"Q31811723"},{"id":82980,"name":"Laguilayan","stateId":1310,"stateCode":"12","stateName":"Soccsksargen","countryId":174,"countryCode":"PH","countryName":"Philippines","latitude":"6.67213000","longitude":"124.52491000","wikiDataId":"Q31811737"},{"id":82986,"name":"Lake Sebu","stateId":1310,"stateCode":"12","stateName":"Soccsksargen","countryId":174,"countryCode":"PH","countryName":"Philippines","latitude":"6.22482000","longitude":"124.71042000","wikiDataId":"Q31515335"},{"id":82987,"name":"Lala","stateId":1310,"stateCode":"12","stateName":"Soccsksargen","countryId":174,"countryCode":"PH","countryName":"Philippines","latitude":"7.97306000","longitude":"123.74722000","wikiDataId":"Q31515335"},{"id":82994,"name":"Lamba","stateId":1310,"stateCode":"12","stateName":"Soccsksargen","countryId":174,"countryCode":"PH","countryName":"Philippines","latitude":"6.35025000","longitude":"124.81974000","wikiDataId":"Q31811761"},{"id":82996,"name":"Lambayong","stateId":1310,"stateCode":"12","stateName":"Soccsksargen","countryId":174,"countryCode":"PH","countryName":"Philippines","latitude":"6.51944000","longitude":"125.04444000","wikiDataId":"Q31811760"},{"id":82997,"name":"Lambontong","stateId":1310,"stateCode":"12","stateName":"Soccsksargen","countryId":174,"countryCode":"PH","countryName":"Philippines","latitude":"6.30833000","longitude":"124.81056000","wikiDataId":"Q31811762"},{"id":82999,"name":"Lamian","stateId":1310,"stateCode":"12","stateName":"Soccsksargen","countryId":174,"countryCode":"PH","countryName":"Philippines","latitude":"6.30917000","longitude":"124.84639000","wikiDataId":"Q31811763"},{"id":83004,"name":"Lampari","stateId":1310,"stateCode":"12","stateName":"Soccsksargen","countryId":174,"countryCode":"PH","countryName":"Philippines","latitude":"6.31264000","longitude":"124.88028000","wikiDataId":"Q31811768"},{"id":83005,"name":"Lampitak","stateId":1310,"stateCode":"12","stateName":"Soccsksargen","countryId":174,"countryCode":"PH","countryName":"Philippines","latitude":"6.43222000","longitude":"125.05250000","wikiDataId":"Q31811769"},{"id":83040,"name":"Lapuz","stateId":1310,"stateCode":"12","stateName":"Soccsksargen","countryId":174,"countryCode":"PH","countryName":"Philippines","latitude":"6.49416000","longitude":"124.63054000","wikiDataId":"Q31811804"},{"id":83077,"name":"Libas","stateId":1310,"stateCode":"12","stateName":"Soccsksargen","countryId":174,"countryCode":"PH","countryName":"Philippines","latitude":"6.52014000","longitude":"124.78234000","wikiDataId":"Q31811847"},{"id":83089,"name":"Liberty","stateId":1310,"stateCode":"12","stateName":"Soccsksargen","countryId":174,"countryCode":"PH","countryName":"Philippines","latitude":"6.51989000","longitude":"124.63194000","wikiDataId":"Q31811865"},{"id":83099,"name":"Libungan","stateId":1310,"stateCode":"12","stateName":"Soccsksargen","countryId":174,"countryCode":"PH","countryName":"Philippines","latitude":"7.24083000","longitude":"124.52000000","wikiDataId":"Q31811871"},{"id":83110,"name":"Liliongan","stateId":1310,"stateCode":"12","stateName":"Soccsksargen","countryId":174,"countryCode":"PH","countryName":"Philippines","latitude":"7.36278000","longitude":"124.79278000","wikiDataId":"Q31811878"},{"id":83120,"name":"Limbalod","stateId":1310,"stateCode":"12","stateName":"Soccsksargen","countryId":174,"countryCode":"PH","countryName":"Philippines","latitude":"7.13278000","longitude":"124.79889000","wikiDataId":"Q31811888"},{"id":83127,"name":"Limulan","stateId":1310,"stateCode":"12","stateName":"Soccsksargen","countryId":174,"countryCode":"PH","countryName":"Philippines","latitude":"6.58528000","longitude":"124.06189000","wikiDataId":"Q31811897"},{"id":83132,"name":"Linan","stateId":1310,"stateCode":"12","stateName":"Soccsksargen","countryId":174,"countryCode":"PH","countryName":"Philippines","latitude":"6.43218000","longitude":"124.97617000","wikiDataId":"Q31811903"},{"id":83134,"name":"Linao","stateId":1310,"stateCode":"12","stateName":"Soccsksargen","countryId":174,"countryCode":"PH","countryName":"Philippines","latitude":"7.16778000","longitude":"124.96750000","wikiDataId":"Q31811906"},{"id":83180,"name":"Lopez Jaena","stateId":1310,"stateCode":"12","stateName":"Soccsksargen","countryId":174,"countryCode":"PH","countryName":"Philippines","latitude":"6.47591000","longitude":"124.69828000","wikiDataId":"Q31811950"},{"id":83214,"name":"Lumatil","stateId":1310,"stateCode":"12","stateName":"Soccsksargen","countryId":174,"countryCode":"PH","countryName":"Philippines","latitude":"5.87472000","longitude":"124.88833000","wikiDataId":"Q31811985"},{"id":83215,"name":"Lumazal","stateId":1310,"stateCode":"12","stateName":"Soccsksargen","countryId":174,"countryCode":"PH","countryName":"Philippines","latitude":"5.88528000","longitude":"124.84944000","wikiDataId":"Q31811986"},{"id":83226,"name":"Lumuyon","stateId":1310,"stateCode":"12","stateName":"Soccsksargen","countryId":174,"countryCode":"PH","countryName":"Philippines","latitude":"5.91583000","longitude":"124.78694000","wikiDataId":"Q31811997"},{"id":83227,"name":"Lun Pequeño","stateId":1310,"stateCode":"12","stateName":"Soccsksargen","countryId":174,"countryCode":"PH","countryName":"Philippines","latitude":"6.03778000","longitude":"125.28389000","wikiDataId":"Q31811998"},{"id":83238,"name":"Lunen","stateId":1310,"stateCode":"12","stateName":"Soccsksargen","countryId":174,"countryCode":"PH","countryName":"Philippines","latitude":"6.35911000","longitude":"124.90477000","wikiDataId":"Q31812007"},{"id":83255,"name":"Maan","stateId":1310,"stateCode":"12","stateName":"Soccsksargen","countryId":174,"countryCode":"PH","countryName":"Philippines","latitude":"5.93389000","longitude":"124.73556000","wikiDataId":"Q31812024"},{"id":83259,"name":"Maasim","stateId":1310,"stateCode":"12","stateName":"Soccsksargen","countryId":174,"countryCode":"PH","countryName":"Philippines","latitude":"5.85750000","longitude":"125.00611000","wikiDataId":"Q174429"},{"id":83268,"name":"Mabay","stateId":1310,"stateCode":"12","stateName":"Soccsksargen","countryId":174,"countryCode":"PH","countryName":"Philippines","latitude":"6.05772000","longitude":"124.46661000","wikiDataId":"Q31812036"},{"id":83283,"name":"Mabini","stateId":1310,"stateCode":"12","stateName":"Soccsksargen","countryId":174,"countryCode":"PH","countryName":"Philippines","latitude":"6.50556000","longitude":"124.90810000","wikiDataId":"Q31812046"},{"id":83339,"name":"Magpet","stateId":1310,"stateCode":"12","stateName":"Soccsksargen","countryId":174,"countryCode":"PH","countryName":"Philippines","latitude":"7.10017000","longitude":"125.11548000","wikiDataId":"Q267975"},{"id":83352,"name":"Maguling","stateId":1310,"stateCode":"12","stateName":"Soccsksargen","countryId":174,"countryCode":"PH","countryName":"Philippines","latitude":"6.09500000","longitude":"124.40333000","wikiDataId":"Q31812102"},{"id":83364,"name":"Maibu","stateId":1310,"stateCode":"12","stateName":"Soccsksargen","countryId":174,"countryCode":"PH","countryName":"Philippines","latitude":"6.57000000","longitude":"124.79361000","wikiDataId":"Q31812113"},{"id":83368,"name":"Maindang","stateId":1310,"stateCode":"12","stateName":"Soccsksargen","countryId":174,"countryCode":"PH","countryName":"Philippines","latitude":"6.58978000","longitude":"124.84732000","wikiDataId":"Q31812116"},{"id":83373,"name":"Maitum","stateId":1310,"stateCode":"12","stateName":"Soccsksargen","countryId":174,"countryCode":"PH","countryName":"Philippines","latitude":"6.03917000","longitude":"124.49861000","wikiDataId":"Q174442"},{"id":83377,"name":"Makilala","stateId":1310,"stateCode":"12","stateName":"Soccsksargen","countryId":174,"countryCode":"PH","countryName":"Philippines","latitude":"6.95167000","longitude":"125.09694000","wikiDataId":"Q315244"},{"id":83399,"name":"Malamote","stateId":1310,"stateCode":"12","stateName":"Soccsksargen","countryId":174,"countryCode":"PH","countryName":"Philippines","latitude":"7.07389000","longitude":"124.94000000","wikiDataId":"Q31812141"},{"id":83401,"name":"Malandag","stateId":1310,"stateCode":"12","stateName":"Soccsksargen","countryId":174,"countryCode":"PH","countryName":"Philippines","latitude":"6.31030000","longitude":"125.24756000","wikiDataId":"Q31812143"},{"id":83405,"name":"Malapag","stateId":1310,"stateCode":"12","stateName":"Soccsksargen","countryId":174,"countryCode":"PH","countryName":"Philippines","latitude":"7.13333000","longitude":"124.81667000","wikiDataId":"Q31812146"},{"id":83406,"name":"Malapatan","stateId":1310,"stateCode":"12","stateName":"Soccsksargen","countryId":174,"countryCode":"PH","countryName":"Philippines","latitude":"5.96917000","longitude":"125.28944000","wikiDataId":"Q174457"},{"id":83408,"name":"Malasila","stateId":1310,"stateCode":"12","stateName":"Soccsksargen","countryId":174,"countryCode":"PH","countryName":"Philippines","latitude":"6.94389000","longitude":"125.12944000","wikiDataId":"Q31812150"},{"id":83420,"name":"Malbang","stateId":1310,"stateCode":"12","stateName":"Soccsksargen","countryId":174,"countryCode":"PH","countryName":"Philippines","latitude":"5.85556000","longitude":"125.04528000","wikiDataId":"Q31812162"},{"id":83435,"name":"Malinao","stateId":1310,"stateCode":"12","stateName":"Soccsksargen","countryId":174,"countryCode":"PH","countryName":"Philippines","latitude":"7.56029000","longitude":"124.70839000","wikiDataId":"Q31812349"},{"id":83440,"name":"Malingao","stateId":1310,"stateCode":"12","stateName":"Soccsksargen","countryId":174,"countryCode":"PH","countryName":"Philippines","latitude":"7.16083000","longitude":"124.47500000","wikiDataId":"Q31812179"},{"id":83444,"name":"Malisbeng","stateId":1310,"stateCode":"12","stateName":"Soccsksargen","countryId":174,"countryCode":"PH","countryName":"Philippines","latitude":"6.12000000","longitude":"124.35472000","wikiDataId":"Q31812183"},{"id":83449,"name":"Malitubog","stateId":1310,"stateCode":"12","stateName":"Soccsksargen","countryId":174,"countryCode":"PH","countryName":"Philippines","latitude":"7.31556000","longitude":"124.63806000","wikiDataId":"Q31812186"},{"id":83456,"name":"Maltana","stateId":1310,"stateCode":"12","stateName":"Soccsksargen","countryId":174,"countryCode":"PH","countryName":"Philippines","latitude":"6.42290000","longitude":"124.93688000","wikiDataId":"Q31812192"},{"id":83464,"name":"Maluñgun","stateId":1310,"stateCode":"12","stateName":"Soccsksargen","countryId":174,"countryCode":"PH","countryName":"Philippines","latitude":"6.27917000","longitude":"125.28167000","wikiDataId":"Q174468"},{"id":83468,"name":"Mamali","stateId":1310,"stateCode":"12","stateName":"Soccsksargen","countryId":174,"countryCode":"PH","countryName":"Philippines","latitude":"6.77360000","longitude":"124.64770000","wikiDataId":"Q31812204"},{"id":83498,"name":"Manaulanan","stateId":1310,"stateCode":"12","stateName":"Soccsksargen","countryId":174,"countryCode":"PH","countryName":"Philippines","latitude":"7.04806000","longitude":"124.61944000","wikiDataId":"Q31812232"},{"id":83508,"name":"Manga","stateId":1310,"stateCode":"12","stateName":"Soccsksargen","countryId":174,"countryCode":"PH","countryName":"Philippines","latitude":"6.29083000","longitude":"125.30833000","wikiDataId":"Q31812244"},{"id":83541,"name":"Manuangan","stateId":1310,"stateCode":"12","stateName":"Soccsksargen","countryId":174,"countryCode":"PH","countryName":"Philippines","latitude":"7.27694000","longitude":"124.40444000","wikiDataId":"Q31812272"},{"id":83543,"name":"Manuel Roxas","stateId":1310,"stateCode":"12","stateName":"Soccsksargen","countryId":174,"countryCode":"PH","countryName":"Philippines","latitude":"6.44173000","longitude":"124.66605000","wikiDataId":"Q31812273"},{"id":83569,"name":"Marbel","stateId":1310,"stateCode":"12","stateName":"Soccsksargen","countryId":174,"countryCode":"PH","countryName":"Philippines","latitude":"7.11583000","longitude":"124.91250000","wikiDataId":"Q31812298"},{"id":83577,"name":"Mariano Marcos","stateId":1310,"stateCode":"12","stateName":"Soccsksargen","countryId":174,"countryCode":"PH","countryName":"Philippines","latitude":"6.73333000","longitude":"124.66667000","wikiDataId":"Q173449"},{"id":83616,"name":"Matalam","stateId":1310,"stateCode":"12","stateName":"Soccsksargen","countryId":174,"countryCode":"PH","countryName":"Philippines","latitude":"7.08639000","longitude":"124.90056000","wikiDataId":"Q315267"},{"id":83629,"name":"Matiompong","stateId":1310,"stateCode":"12","stateName":"Soccsksargen","countryId":174,"countryCode":"PH","countryName":"Philippines","latitude":"6.69611000","longitude":"124.56611000","wikiDataId":"Q31812351"},{"id":83670,"name":"Midsayap","stateId":1310,"stateCode":"12","stateName":"Soccsksargen","countryId":174,"countryCode":"PH","countryName":"Philippines","latitude":"7.19083000","longitude":"124.53028000","wikiDataId":"Q315283"},{"id":83681,"name":"Minapan","stateId":1310,"stateCode":"12","stateName":"Soccsksargen","countryId":174,"countryCode":"PH","countryName":"Philippines","latitude":"6.81500000","longitude":"124.85861000","wikiDataId":"Q31812431"},{"id":83683,"name":"Mindupok","stateId":1310,"stateCode":"12","stateName":"Soccsksargen","countryId":174,"countryCode":"PH","countryName":"Philippines","latitude":"6.09056000","longitude":"124.42333000","wikiDataId":"Q31812436"},{"id":83763,"name":"Nalus","stateId":1310,"stateCode":"12","stateName":"Soccsksargen","countryId":174,"countryCode":"PH","countryName":"Philippines","latitude":"6.01222000","longitude":"124.58528000","wikiDataId":"Q31812543"},{"id":83804,"name":"New Cebu","stateId":1310,"stateCode":"12","stateName":"Soccsksargen","countryId":174,"countryCode":"PH","countryName":"Philippines","latitude":"7.09528000","longitude":"125.03361000","wikiDataId":"Q31812613"},{"id":83806,"name":"New Iloilo","stateId":1310,"stateCode":"12","stateName":"Soccsksargen","countryId":174,"countryCode":"PH","countryName":"Philippines","latitude":"6.54776000","longitude":"124.78951000","wikiDataId":"Q31812619"},{"id":83807,"name":"New Lagao","stateId":1310,"stateCode":"12","stateName":"Soccsksargen","countryId":174,"countryCode":"PH","countryName":"Philippines","latitude":"6.70235000","longitude":"124.64141000","wikiDataId":"Q31812620"},{"id":83809,"name":"New Panay","stateId":1310,"stateCode":"12","stateName":"Soccsksargen","countryId":174,"countryCode":"PH","countryName":"Philippines","latitude":"6.74237000","longitude":"124.55956000","wikiDataId":"Q31812625"},{"id":83820,"name":"Noling","stateId":1310,"stateCode":"12","stateName":"Soccsksargen","countryId":174,"countryCode":"PH","countryName":"Philippines","latitude":"6.65984000","longitude":"124.09981000","wikiDataId":"Q31812653"},{"id":83821,"name":"Norala","stateId":1310,"stateCode":"12","stateName":"Soccsksargen","countryId":174,"countryCode":"PH","countryName":"Philippines","latitude":"6.52250000","longitude":"124.65917000","wikiDataId":"Q173922"},{"id":83832,"name":"Nunguan","stateId":1310,"stateCode":"12","stateName":"Soccsksargen","countryId":174,"countryCode":"PH","countryName":"Philippines","latitude":"7.12825000","longitude":"124.68912000","wikiDataId":"Q31812676"},{"id":83864,"name":"Osias","stateId":1310,"stateCode":"12","stateName":"Soccsksargen","countryId":174,"countryCode":"PH","countryName":"Philippines","latitude":"7.60000000","longitude":"124.81667000","wikiDataId":"Q31812730"},{"id":83872,"name":"Paatan","stateId":1310,"stateCode":"12","stateName":"Soccsksargen","countryId":174,"countryCode":"PH","countryName":"Philippines","latitude":"7.11972000","longitude":"124.92389000","wikiDataId":"Q31812747"},{"id":83889,"name":"Pagalungan","stateId":1310,"stateCode":"12","stateName":"Soccsksargen","countryId":174,"countryCode":"PH","countryName":"Philippines","latitude":"6.26556000","longitude":"125.01333000","wikiDataId":"Q212707"},{"id":83891,"name":"Pagangan","stateId":1310,"stateCode":"12","stateName":"Soccsksargen","countryId":174,"countryCode":"PH","countryName":"Philippines","latitude":"7.11444000","longitude":"124.59528000","wikiDataId":"Q31457641"},{"id":83923,"name":"Palian","stateId":1310,"stateCode":"12","stateName":"Soccsksargen","countryId":174,"countryCode":"PH","countryName":"Philippines","latitude":"6.37427000","longitude":"124.91062000","wikiDataId":"Q31458305"},{"id":83924,"name":"Palimbang","stateId":1310,"stateCode":"12","stateName":"Soccsksargen","countryId":174,"countryCode":"PH","countryName":"Philippines","latitude":"6.21002000","longitude":"124.18887000","wikiDataId":"Q173479"},{"id":83925,"name":"Palkan","stateId":1310,"stateCode":"12","stateName":"Soccsksargen","countryId":174,"countryCode":"PH","countryName":"Philippines","latitude":"6.29639000","longitude":"125.03167000","wikiDataId":"Q31458353"},{"id":83933,"name":"Pamantingan","stateId":1310,"stateCode":"12","stateName":"Soccsksargen","countryId":174,"countryCode":"PH","countryName":"Philippines","latitude":"6.71413000","longitude":"124.38095000","wikiDataId":"Q31460730"},{"id":83952,"name":"Panay","stateId":1310,"stateCode":"12","stateName":"Soccsksargen","countryId":174,"countryCode":"PH","countryName":"Philippines","latitude":"6.49704000","longitude":"124.63808000","wikiDataId":"Q31461293"},{"id":83984,"name":"Pangyan","stateId":1310,"stateCode":"12","stateName":"Soccsksargen","countryId":174,"countryCode":"PH","countryName":"Philippines","latitude":"5.70083000","longitude":"125.28111000","wikiDataId":"Q31462122"},{"id":84016,"name":"Paraiso","stateId":1310,"stateCode":"12","stateName":"Soccsksargen","countryId":174,"countryCode":"PH","countryName":"Philippines","latitude":"6.47606000","longitude":"124.80954000","wikiDataId":"Q31463217"},{"id":84044,"name":"Patindeguen","stateId":1310,"stateCode":"12","stateName":"Soccsksargen","countryId":174,"countryCode":"PH","countryName":"Philippines","latitude":"7.21972000","longitude":"124.49833000","wikiDataId":"Q31464304"},{"id":84073,"name":"Pedtad","stateId":1310,"stateCode":"12","stateName":"Soccsksargen","countryId":174,"countryCode":"PH","countryName":"Philippines","latitude":"7.16056000","longitude":"124.81444000","wikiDataId":"Q31465985"},{"id":84086,"name":"Pigcawayan","stateId":1310,"stateCode":"12","stateName":"Soccsksargen","countryId":174,"countryCode":"PH","countryName":"Philippines","latitude":"7.27722000","longitude":"124.42556000","wikiDataId":"Q31467869"},{"id":84087,"name":"Pikit","stateId":1310,"stateCode":"12","stateName":"Soccsksargen","countryId":174,"countryCode":"PH","countryName":"Philippines","latitude":"7.05444000","longitude":"124.67194000","wikiDataId":"Q315314"},{"id":84100,"name":"Pimbalayan","stateId":1310,"stateCode":"12","stateName":"Soccsksargen","countryId":174,"countryCode":"PH","countryName":"Philippines","latitude":"6.86917000","longitude":"124.67250000","wikiDataId":"Q31468793"},{"id":84149,"name":"Polo","stateId":1310,"stateCode":"12","stateName":"Soccsksargen","countryId":174,"countryCode":"PH","countryName":"Philippines","latitude":"6.26472000","longitude":"125.11250000","wikiDataId":"Q31474301"},{"id":84151,"name":"Polomolok","stateId":1310,"stateCode":"12","stateName":"Soccsksargen","countryId":174,"countryCode":"PH","countryName":"Philippines","latitude":"6.22167000","longitude":"125.06398000","wikiDataId":"Q173944"},{"id":84154,"name":"Polonoling","stateId":1310,"stateCode":"12","stateName":"Soccsksargen","countryId":174,"countryCode":"PH","countryName":"Philippines","latitude":"6.28496000","longitude":"124.96890000","wikiDataId":"Q31474394"},{"id":84172,"name":"President Quirino","stateId":1310,"stateCode":"12","stateName":"Soccsksargen","countryId":174,"countryCode":"PH","countryName":"Philippines","latitude":"6.70389000","longitude":"124.73722000","wikiDataId":"Q137813"},{"id":84174,"name":"President Roxas","stateId":1310,"stateCode":"12","stateName":"Soccsksargen","countryId":174,"countryCode":"PH","countryName":"Philippines","latitude":"7.15444000","longitude":"125.05583000","wikiDataId":"Q315334"},{"id":84203,"name":"Province of Cotabato","stateId":1310,"stateCode":"12","stateName":"Soccsksargen","countryId":174,"countryCode":"PH","countryName":"Philippines","latitude":"7.01667000","longitude":"125.08333000","wikiDataId":"Q13791"},{"id":84239,"name":"Province of Sarangani","stateId":1310,"stateCode":"12","stateName":"Soccsksargen","countryId":174,"countryCode":"PH","countryName":"Philippines","latitude":"5.87472000","longitude":"125.27528000","wikiDataId":"Q13877"},{"id":84242,"name":"Province of South Cotabato","stateId":1310,"stateCode":"12","stateName":"Soccsksargen","countryId":174,"countryCode":"PH","countryName":"Philippines","latitude":"6.25218000","longitude":"125.00060000","wikiDataId":"Q13882"},{"id":84244,"name":"Province of Sultan Kudarat","stateId":1310,"stateCode":"12","stateName":"Soccsksargen","countryId":174,"countryCode":"PH","countryName":"Philippines","latitude":"6.55000000","longitude":"124.28333000","wikiDataId":"Q13885"},{"id":84269,"name":"Puloypuloy","stateId":1310,"stateCode":"12","stateName":"Soccsksargen","countryId":174,"countryCode":"PH","countryName":"Philippines","latitude":"6.63517000","longitude":"124.09600000","wikiDataId":"Q31479916"},{"id":84278,"name":"Punolu","stateId":1310,"stateCode":"12","stateName":"Soccsksargen","countryId":174,"countryCode":"PH","countryName":"Philippines","latitude":"7.05000000","longitude":"124.58333000","wikiDataId":"Q31480317"},{"id":84285,"name":"Puricay","stateId":1310,"stateCode":"12","stateName":"Soccsksargen","countryId":174,"countryCode":"PH","countryName":"Philippines","latitude":"6.68614000","longitude":"124.06957000","wikiDataId":"Q31480656"},{"id":84319,"name":"Ragandang","stateId":1310,"stateCode":"12","stateName":"Soccsksargen","countryId":174,"countryCode":"PH","countryName":"Philippines","latitude":"6.66386000","longitude":"124.12063000","wikiDataId":"Q31483266"},{"id":84351,"name":"Rogongon","stateId":1310,"stateCode":"12","stateName":"Soccsksargen","countryId":174,"countryCode":"PH","countryName":"Philippines","latitude":"8.23333000","longitude":"124.33333000","wikiDataId":"Q106825"},{"id":84360,"name":"Rotonda","stateId":1310,"stateCode":"12","stateName":"Soccsksargen","countryId":174,"countryCode":"PH","countryName":"Philippines","latitude":"6.49179000","longitude":"124.88616000","wikiDataId":"Q31494148"},{"id":84378,"name":"Sadsalan","stateId":1310,"stateCode":"12","stateName":"Soccsksargen","countryId":174,"countryCode":"PH","countryName":"Philippines","latitude":"6.82906000","longitude":"124.60893000","wikiDataId":"Q31498009"},{"id":84396,"name":"Saguing","stateId":1310,"stateCode":"12","stateName":"Soccsksargen","countryId":174,"countryCode":"PH","countryName":"Philippines","latitude":"6.98028000","longitude":"125.07806000","wikiDataId":"Q31498553"},{"id":84410,"name":"Salimbao","stateId":1310,"stateCode":"12","stateName":"Soccsksargen","countryId":174,"countryCode":"PH","countryName":"Philippines","latitude":"7.22250000","longitude":"124.25333000","wikiDataId":"Q31499812"},{"id":84416,"name":"Salunayan","stateId":1310,"stateCode":"12","stateName":"Soccsksargen","countryId":174,"countryCode":"PH","countryName":"Philippines","latitude":"7.15444000","longitude":"124.49750000","wikiDataId":"Q31500442"},{"id":84423,"name":"Salvador","stateId":1310,"stateCode":"12","stateName":"Soccsksargen","countryId":174,"countryCode":"PH","countryName":"Philippines","latitude":"7.89528000","longitude":"123.84361000","wikiDataId":"Q31500670"},{"id":84433,"name":"Sampao","stateId":1310,"stateCode":"12","stateName":"Soccsksargen","countryId":174,"countryCode":"PH","countryName":"Philippines","latitude":"6.87667000","longitude":"124.59556000","wikiDataId":"Q31501236"},{"id":84557,"name":"San Miguel","stateId":1310,"stateCode":"12","stateName":"Soccsksargen","countryId":174,"countryCode":"PH","countryName":"Philippines","latitude":"6.49245000","longitude":"124.69643000","wikiDataId":"Q31506682"},{"id":84618,"name":"San Vicente","stateId":1310,"stateCode":"12","stateName":"Soccsksargen","countryId":174,"countryCode":"PH","countryName":"Philippines","latitude":"6.45375000","longitude":"124.78005000","wikiDataId":"Q31508632"},{"id":84633,"name":"Sangay","stateId":1310,"stateCode":"12","stateName":"Soccsksargen","countryId":174,"countryCode":"PH","countryName":"Philippines","latitude":"6.44500000","longitude":"124.04444000","wikiDataId":"Q31514359"},{"id":84723,"name":"Santo Niño","stateId":1310,"stateCode":"12","stateName":"Soccsksargen","countryId":174,"countryCode":"PH","countryName":"Philippines","latitude":"6.43500000","longitude":"124.69750000","wikiDataId":"Q608320"},{"id":84740,"name":"Sapad","stateId":1310,"stateCode":"12","stateName":"Soccsksargen","countryId":174,"countryCode":"PH","countryName":"Philippines","latitude":"7.85000000","longitude":"123.83333000","wikiDataId":"Q274369"},{"id":84747,"name":"Sapu Padidu","stateId":1310,"stateCode":"12","stateName":"Soccsksargen","countryId":174,"countryCode":"PH","countryName":"Philippines","latitude":"5.91722000","longitude":"125.26694000","wikiDataId":"Q31513504"},{"id":84798,"name":"Silway 7","stateId":1310,"stateCode":"12","stateName":"Soccsksargen","countryId":174,"countryCode":"PH","countryName":"Philippines","latitude":"6.17711000","longitude":"125.12068000","wikiDataId":"Q31520234"},{"id":84818,"name":"Sinolon","stateId":1310,"stateCode":"12","stateName":"Soccsksargen","countryId":174,"countryCode":"PH","countryName":"Philippines","latitude":"6.24389000","longitude":"124.81444000","wikiDataId":"Q31521071"},{"id":84869,"name":"Sulit","stateId":1310,"stateCode":"12","stateName":"Soccsksargen","countryId":174,"countryCode":"PH","countryName":"Philippines","latitude":"6.23611000","longitude":"125.02056000","wikiDataId":"Q31537011"},{"id":84881,"name":"Surallah","stateId":1310,"stateCode":"12","stateName":"Soccsksargen","countryId":174,"countryCode":"PH","countryName":"Philippines","latitude":"6.37527000","longitude":"124.74521000","wikiDataId":"Q173986"},{"id":84885,"name":"Suyan","stateId":1310,"stateCode":"12","stateName":"Soccsksargen","countryId":174,"countryCode":"PH","countryName":"Philippines","latitude":"6.06028000","longitude":"125.38528000","wikiDataId":"Q31539188"},{"id":84923,"name":"Tacurong","stateId":1310,"stateCode":"12","stateName":"Soccsksargen","countryId":174,"countryCode":"PH","countryName":"Philippines","latitude":"6.69250000","longitude":"124.67639000","wikiDataId":"Q173575"},{"id":84950,"name":"Taguisa","stateId":1310,"stateCode":"12","stateName":"Soccsksargen","countryId":174,"countryCode":"PH","countryName":"Philippines","latitude":"6.69833000","longitude":"124.03583000","wikiDataId":"Q31542699"},{"id":85001,"name":"Taluya","stateId":1310,"stateCode":"12","stateName":"Soccsksargen","countryId":174,"countryCode":"PH","countryName":"Philippines","latitude":"5.81167000","longitude":"125.17278000","wikiDataId":"Q31544652"},{"id":85005,"name":"Tambak","stateId":1310,"stateCode":"12","stateName":"Soccsksargen","countryId":174,"countryCode":"PH","countryName":"Philippines","latitude":"6.72532000","longitude":"124.62342000","wikiDataId":"Q31544765"},{"id":85008,"name":"Tambilil","stateId":1310,"stateCode":"12","stateName":"Soccsksargen","countryId":174,"countryCode":"PH","countryName":"Philippines","latitude":"5.96222000","longitude":"124.66972000","wikiDataId":"Q31544856"},{"id":85018,"name":"Tamnag","stateId":1310,"stateCode":"12","stateName":"Soccsksargen","countryId":174,"countryCode":"PH","countryName":"Philippines","latitude":"6.57298000","longitude":"124.88004000","wikiDataId":"Q31545092"},{"id":85019,"name":"Tamontaka","stateId":1310,"stateCode":"12","stateName":"Soccsksargen","countryId":174,"countryCode":"PH","countryName":"Philippines","latitude":"7.18056000","longitude":"124.22556000","wikiDataId":"Q31545092"},{"id":85021,"name":"Tampakan","stateId":1310,"stateCode":"12","stateName":"Soccsksargen","countryId":174,"countryCode":"PH","countryName":"Philippines","latitude":"6.49034000","longitude":"125.08275000","wikiDataId":"Q31545185"},{"id":85084,"name":"Tañgo","stateId":1310,"stateCode":"12","stateName":"Soccsksargen","countryId":174,"countryCode":"PH","countryName":"Philippines","latitude":"5.88083000","longitude":"125.22194000","wikiDataId":"Q31548799"},{"id":85042,"name":"Tantangan","stateId":1310,"stateCode":"12","stateName":"Soccsksargen","countryId":174,"countryCode":"PH","countryName":"Philippines","latitude":"6.61500000","longitude":"124.74889000","wikiDataId":"Q174039"},{"id":85087,"name":"Telafas","stateId":1310,"stateCode":"12","stateName":"Soccsksargen","countryId":174,"countryCode":"PH","countryName":"Philippines","latitude":"6.62980000","longitude":"124.97294000","wikiDataId":"Q31549309"},{"id":85090,"name":"Teresita","stateId":1310,"stateCode":"12","stateName":"Soccsksargen","countryId":174,"countryCode":"PH","countryName":"Philippines","latitude":"6.41434000","longitude":"124.70778000","wikiDataId":"Q31549942"},{"id":85125,"name":"Tinagacan","stateId":1310,"stateCode":"12","stateName":"Soccsksargen","countryId":174,"countryCode":"PH","countryName":"Philippines","latitude":"6.19917000","longitude":"125.22944000","wikiDataId":"Q31556580"},{"id":85140,"name":"Tinoto","stateId":1310,"stateCode":"12","stateName":"Soccsksargen","countryId":174,"countryCode":"PH","countryName":"Philippines","latitude":"5.88667000","longitude":"125.07056000","wikiDataId":"Q31557173"},{"id":85160,"name":"Tomado","stateId":1310,"stateCode":"12","stateName":"Soccsksargen","countryId":174,"countryCode":"PH","countryName":"Philippines","latitude":"7.19250000","longitude":"124.60806000","wikiDataId":"Q31558503"},{"id":85175,"name":"Tran","stateId":1310,"stateCode":"12","stateName":"Soccsksargen","countryId":174,"countryCode":"PH","countryName":"Philippines","latitude":"6.72028000","longitude":"124.05500000","wikiDataId":"Q31560240"},{"id":85214,"name":"Tuka","stateId":1310,"stateCode":"12","stateName":"Soccsksargen","countryId":174,"countryCode":"PH","countryName":"Philippines","latitude":"6.51862000","longitude":"124.58736000","wikiDataId":"Q31563153"},{"id":85218,"name":"Tulunan","stateId":1310,"stateCode":"12","stateName":"Soccsksargen","countryId":174,"countryCode":"PH","countryName":"Philippines","latitude":"6.83444000","longitude":"124.87694000","wikiDataId":"Q315345"},{"id":85232,"name":"Tupi","stateId":1310,"stateCode":"12","stateName":"Soccsksargen","countryId":174,"countryCode":"PH","countryName":"Philippines","latitude":"6.33444000","longitude":"124.95278000","wikiDataId":"Q174055"},{"id":85237,"name":"Tuyan","stateId":1310,"stateCode":"12","stateName":"Soccsksargen","countryId":174,"countryCode":"PH","countryName":"Philippines","latitude":"6.00000000","longitude":"125.28333000","wikiDataId":"Q59844"},{"id":85265,"name":"Upper Klinan","stateId":1310,"stateCode":"12","stateName":"Soccsksargen","countryId":174,"countryCode":"PH","countryName":"Philippines","latitude":"6.22722000","longitude":"125.12083000","wikiDataId":"Q31569431"},{"id":85266,"name":"Upper San Mateo","stateId":1310,"stateCode":"12","stateName":"Soccsksargen","countryId":174,"countryCode":"PH","countryName":"Philippines","latitude":"7.17306000","longitude":"124.58222000","wikiDataId":"Q31569595"},{"id":85296,"name":"Villamor","stateId":1310,"stateCode":"12","stateName":"Soccsksargen","countryId":174,"countryCode":"PH","countryName":"Philippines","latitude":"6.70380000","longitude":"124.52009000","wikiDataId":"Q31573158"}]