[{"id":10061,"name":"Abaíra","stateId":2002,"stateCode":"BA","stateName":"Bahia","countryId":31,"countryCode":"BR","countryName":"Brazil","latitude":"-13.32129000","longitude":"-41.69759000","wikiDataId":"Q1645077"},{"id":10059,"name":"Abaré","stateId":2002,"stateCode":"BA","stateName":"Bahia","countryId":31,"countryCode":"BR","countryName":"Brazil","latitude":"-8.80961000","longitude":"-39.27062000","wikiDataId":"Q1647789"},{"id":10069,"name":"Acajutiba","stateId":2002,"stateCode":"BA","stateName":"Bahia","countryId":31,"countryCode":"BR","countryName":"Brazil","latitude":"-11.60682000","longitude":"-38.03594000","wikiDataId":"Q1761962"},{"id":10084,"name":"Adustina","stateId":2002,"stateCode":"BA","stateName":"Bahia","countryId":31,"countryCode":"BR","countryName":"Brazil","latitude":"-10.48227000","longitude":"-37.98446000","wikiDataId":"Q676044"},{"id":15659,"name":"Água Fria","stateId":2002,"stateCode":"BA","stateName":"Bahia","countryId":31,"countryCode":"BR","countryName":"Brazil","latitude":"-11.74762000","longitude":"-38.73497000","wikiDataId":"Q1796727"},{"id":10103,"name":"Aiquara","stateId":2002,"stateCode":"BA","stateName":"Bahia","countryId":31,"countryCode":"BR","countryName":"Brazil","latitude":"-14.11135000","longitude":"-39.87641000","wikiDataId":"Q1650790"},{"id":10113,"name":"Alagoinhas","stateId":2002,"stateCode":"BA","stateName":"Bahia","countryId":31,"countryCode":"BR","countryName":"Brazil","latitude":"-12.00580000","longitude":"-38.36146000","wikiDataId":"Q22050101"},{"id":10118,"name":"Alcobaça","stateId":2002,"stateCode":"BA","stateName":"Bahia","countryId":31,"countryCode":"BR","countryName":"Brazil","latitude":"-17.46365000","longitude":"-39.37401000","wikiDataId":"Q22063205"},{"id":10139,"name":"Almadina","stateId":2002,"stateCode":"BA","stateName":"Bahia","countryId":31,"countryCode":"BR","countryName":"Brazil","latitude":"-14.67608000","longitude":"-39.69066000","wikiDataId":"Q2010570"},{"id":10211,"name":"Amargosa","stateId":2002,"stateCode":"BA","stateName":"Bahia","countryId":31,"countryCode":"BR","countryName":"Brazil","latitude":"-13.04970000","longitude":"-39.60720000","wikiDataId":"Q1648060"},{"id":10223,"name":"Amélia Rodrigues","stateId":2002,"stateCode":"BA","stateName":"Bahia","countryId":31,"countryCode":"BR","countryName":"Brazil","latitude":"-12.38975000","longitude":"-38.75153000","wikiDataId":"Q2004241"},{"id":10224,"name":"América Dourada","stateId":2002,"stateCode":"BA","stateName":"Bahia","countryId":31,"countryCode":"BR","countryName":"Brazil","latitude":"-11.46940000","longitude":"-41.47335000","wikiDataId":"Q1762100"},{"id":10228,"name":"Anagé","stateId":2002,"stateCode":"BA","stateName":"Bahia","countryId":31,"countryCode":"BR","countryName":"Brazil","latitude":"-14.66168000","longitude":"-41.14703000","wikiDataId":"Q1772546"},{"id":10242,"name":"Andaraí","stateId":2002,"stateCode":"BA","stateName":"Bahia","countryId":31,"countryCode":"BR","countryName":"Brazil","latitude":"-12.84167000","longitude":"-41.27679000","wikiDataId":"Q1935710"},{"id":10244,"name":"Andorinha","stateId":2002,"stateCode":"BA","stateName":"Bahia","countryId":31,"countryCode":"BR","countryName":"Brazil","latitude":"-10.22216000","longitude":"-39.86387000","wikiDataId":"Q1935710"},{"id":10253,"name":"Angical","stateId":2002,"stateCode":"BA","stateName":"Bahia","countryId":31,"countryCode":"BR","countryName":"Brazil","latitude":"-11.96280000","longitude":"-44.74980000","wikiDataId":"Q1756210"},{"id":10258,"name":"Anguera","stateId":2002,"stateCode":"BA","stateName":"Bahia","countryId":31,"countryCode":"BR","countryName":"Brazil","latitude":"-12.18221000","longitude":"-39.21384000","wikiDataId":"Q1761950"},{"id":10268,"name":"Antas","stateId":2002,"stateCode":"BA","stateName":"Bahia","countryId":31,"countryCode":"BR","countryName":"Brazil","latitude":"-10.42138000","longitude":"-38.30341000","wikiDataId":"Q22063195"},{"id":10272,"name":"Antônio Cardoso","stateId":2002,"stateCode":"BA","stateName":"Bahia","countryId":31,"countryCode":"BR","countryName":"Brazil","latitude":"-12.38641000","longitude":"-39.14549000","wikiDataId":"Q599068"},{"id":10276,"name":"Antônio Gonçalves","stateId":2002,"stateCode":"BA","stateName":"Bahia","countryId":31,"countryCode":"BR","countryName":"Brazil","latitude":"-10.62282000","longitude":"-40.40933000","wikiDataId":"Q611911"},{"id":10298,"name":"Aporá","stateId":2002,"stateCode":"BA","stateName":"Bahia","countryId":31,"countryCode":"BR","countryName":"Brazil","latitude":"-11.75439000","longitude":"-38.22784000","wikiDataId":"Q2008084"},{"id":10300,"name":"Apuarema","stateId":2002,"stateCode":"BA","stateName":"Bahia","countryId":31,"countryCode":"BR","countryName":"Brazil","latitude":"-13.83005000","longitude":"-39.73444000","wikiDataId":"Q1772630"},{"id":10374,"name":"Araçás","stateId":2002,"stateCode":"BA","stateName":"Bahia","countryId":31,"countryCode":"BR","countryName":"Brazil","latitude":"-12.14681000","longitude":"-38.17233000","wikiDataId":"Q1749750"},{"id":10310,"name":"Aracatu","stateId":2002,"stateCode":"BA","stateName":"Bahia","countryId":31,"countryCode":"BR","countryName":"Brazil","latitude":"-14.39011000","longitude":"-41.36331000","wikiDataId":"Q1762365"},{"id":10311,"name":"Araci","stateId":2002,"stateCode":"BA","stateName":"Bahia","countryId":31,"countryCode":"BR","countryName":"Brazil","latitude":"-11.13564000","longitude":"-39.07003000","wikiDataId":"Q22063188"},{"id":10330,"name":"Aramari","stateId":2002,"stateCode":"BA","stateName":"Bahia","countryId":31,"countryCode":"BR","countryName":"Brazil","latitude":"-12.04618000","longitude":"-38.55762000","wikiDataId":"Q22067428"},{"id":10359,"name":"Arataca","stateId":2002,"stateCode":"BA","stateName":"Bahia","countryId":31,"countryCode":"BR","countryName":"Brazil","latitude":"-15.24607000","longitude":"-39.42481000","wikiDataId":"Q2065337"},{"id":10362,"name":"Aratuípe","stateId":2002,"stateCode":"BA","stateName":"Bahia","countryId":31,"countryCode":"BR","countryName":"Brazil","latitude":"-13.09363000","longitude":"-39.08259000","wikiDataId":"Q2065337"},{"id":10447,"name":"Aurelino Leal","stateId":2002,"stateCode":"BA","stateName":"Bahia","countryId":31,"countryCode":"BR","countryName":"Brazil","latitude":"-14.36310000","longitude":"-39.47961000","wikiDataId":"Q1804338"},{"id":10475,"name":"Baianópolis","stateId":2002,"stateCode":"BA","stateName":"Bahia","countryId":31,"countryCode":"BR","countryName":"Brazil","latitude":"-12.48331000","longitude":"-44.53105000","wikiDataId":"Q119140"},{"id":10476,"name":"Baixa Grande","stateId":2002,"stateCode":"BA","stateName":"Bahia","countryId":31,"countryCode":"BR","countryName":"Brazil","latitude":"-11.97735000","longitude":"-40.17993000","wikiDataId":"Q1762467"},{"id":10504,"name":"Banzaê","stateId":2002,"stateCode":"BA","stateName":"Bahia","countryId":31,"countryCode":"BR","countryName":"Brazil","latitude":"-10.61578000","longitude":"-38.62688000","wikiDataId":"Q2064780"},{"id":10515,"name":"Barra","stateId":2002,"stateCode":"BA","stateName":"Bahia","countryId":31,"countryCode":"BR","countryName":"Brazil","latitude":"-11.08944000","longitude":"-43.14167000","wikiDataId":"Q2013948"},{"id":10523,"name":"Barra da Estiva","stateId":2002,"stateCode":"BA","stateName":"Bahia","countryId":31,"countryCode":"BR","countryName":"Brazil","latitude":"-13.62611000","longitude":"-41.32694000","wikiDataId":"Q1795377"},{"id":10533,"name":"Barra do Choça","stateId":2002,"stateCode":"BA","stateName":"Bahia","countryId":31,"countryCode":"BR","countryName":"Brazil","latitude":"-15.01024000","longitude":"-40.66731000","wikiDataId":"Q1805676"},{"id":10538,"name":"Barra do Mendes","stateId":2002,"stateCode":"BA","stateName":"Bahia","countryId":31,"countryCode":"BR","countryName":"Brazil","latitude":"-12.16094000","longitude":"-42.03542000","wikiDataId":"Q577720"},{"id":10544,"name":"Barra do Rocha","stateId":2002,"stateCode":"BA","stateName":"Bahia","countryId":31,"countryCode":"BR","countryName":"Brazil","latitude":"-14.07510000","longitude":"-39.59068000","wikiDataId":"Q1750175"},{"id":10551,"name":"Barreiras","stateId":2002,"stateCode":"BA","stateName":"Bahia","countryId":31,"countryCode":"BR","countryName":"Brazil","latitude":"-12.15278000","longitude":"-44.99000000","wikiDataId":"Q31859686"},{"id":10560,"name":"Barro Alto","stateId":2002,"stateCode":"BA","stateName":"Bahia","countryId":31,"countryCode":"BR","countryName":"Brazil","latitude":"-11.76083000","longitude":"-41.91167000","wikiDataId":"Q22048272"},{"id":10563,"name":"Barro Preto","stateId":2002,"stateCode":"BA","stateName":"Bahia","countryId":31,"countryCode":"BR","countryName":"Brazil","latitude":"-14.75795000","longitude":"-39.40711000","wikiDataId":"Q2155729"},{"id":10564,"name":"Barrocas","stateId":2002,"stateCode":"BA","stateName":"Bahia","countryId":31,"countryCode":"BR","countryName":"Brazil","latitude":"-11.60190000","longitude":"-39.12267000","wikiDataId":"Q2155729"},{"id":10592,"name":"Beira Rio","stateId":2002,"stateCode":"BA","stateName":"Bahia","countryId":31,"countryCode":"BR","countryName":"Brazil","latitude":"-12.25438000","longitude":"-42.75529000","wikiDataId":"Q22074198"},{"id":10604,"name":"Belmonte","stateId":2002,"stateCode":"BA","stateName":"Bahia","countryId":31,"countryCode":"BR","countryName":"Brazil","latitude":"-15.86126000","longitude":"-38.87982000","wikiDataId":"Q816112"},{"id":10606,"name":"Belo Campo","stateId":2002,"stateCode":"BA","stateName":"Bahia","countryId":31,"countryCode":"BR","countryName":"Brazil","latitude":"-14.87419000","longitude":"-41.22671000","wikiDataId":"Q816112"},{"id":10654,"name":"Biritinga","stateId":2002,"stateCode":"BA","stateName":"Bahia","countryId":31,"countryCode":"BR","countryName":"Brazil","latitude":"-11.67075000","longitude":"-38.78931000","wikiDataId":"Q518845"},{"id":10663,"name":"Boa Nova","stateId":2002,"stateCode":"BA","stateName":"Bahia","countryId":31,"countryCode":"BR","countryName":"Brazil","latitude":"-14.36412000","longitude":"-40.22378000","wikiDataId":"Q268938"},{"id":10676,"name":"Boa Vista do Tupim","stateId":2002,"stateCode":"BA","stateName":"Bahia","countryId":31,"countryCode":"BR","countryName":"Brazil","latitude":"-12.87313000","longitude":"-40.62823000","wikiDataId":"Q1803204"},{"id":10703,"name":"Bom Jesus da Lapa","stateId":2002,"stateCode":"BA","stateName":"Bahia","countryId":31,"countryCode":"BR","countryName":"Brazil","latitude":"-13.25500000","longitude":"-43.41806000","wikiDataId":"Q891727"},{"id":10705,"name":"Bom Jesus da Serra","stateId":2002,"stateCode":"BA","stateName":"Bahia","countryId":31,"countryCode":"BR","countryName":"Brazil","latitude":"-14.38380000","longitude":"-40.53982000","wikiDataId":"Q891727"},{"id":10735,"name":"Boninal","stateId":2002,"stateCode":"BA","stateName":"Bahia","countryId":31,"countryCode":"BR","countryName":"Brazil","latitude":"-12.80363000","longitude":"-41.68338000","wikiDataId":"Q2089257"},{"id":10739,"name":"Bonito","stateId":2002,"stateCode":"BA","stateName":"Bahia","countryId":31,"countryCode":"BR","countryName":"Brazil","latitude":"-12.00488000","longitude":"-41.31779000","wikiDataId":"Q1808128"},{"id":10747,"name":"Boquira","stateId":2002,"stateCode":"BA","stateName":"Bahia","countryId":31,"countryCode":"BR","countryName":"Brazil","latitude":"-12.82306000","longitude":"-42.73056000","wikiDataId":"Q1772521"},{"id":10760,"name":"Botuporã","stateId":2002,"stateCode":"BA","stateName":"Bahia","countryId":31,"countryCode":"BR","countryName":"Brazil","latitude":"-13.29549000","longitude":"-42.52593000","wikiDataId":"Q1625598"},{"id":10800,"name":"Brejões","stateId":2002,"stateCode":"BA","stateName":"Bahia","countryId":31,"countryCode":"BR","countryName":"Brazil","latitude":"-13.07059000","longitude":"-39.82099000","wikiDataId":"Q1808002"},{"id":10798,"name":"Brejolândia","stateId":2002,"stateCode":"BA","stateName":"Bahia","countryId":31,"countryCode":"BR","countryName":"Brazil","latitude":"-12.41237000","longitude":"-43.92822000","wikiDataId":"Q1808002"},{"id":10808,"name":"Brotas de Macaúbas","stateId":2002,"stateCode":"BA","stateName":"Bahia","countryId":31,"countryCode":"BR","countryName":"Brazil","latitude":"-12.10605000","longitude":"-42.51108000","wikiDataId":"Q1648408"},{"id":10810,"name":"Brumado","stateId":2002,"stateCode":"BA","stateName":"Bahia","countryId":31,"countryCode":"BR","countryName":"Brazil","latitude":"-14.20361000","longitude":"-41.66528000","wikiDataId":"Q1808298"},{"id":10817,"name":"Buerarema","stateId":2002,"stateCode":"BA","stateName":"Bahia","countryId":31,"countryCode":"BR","countryName":"Brazil","latitude":"-14.95944000","longitude":"-39.29972000","wikiDataId":"Q1761955"},{"id":10832,"name":"Buritirama","stateId":2002,"stateCode":"BA","stateName":"Bahia","countryId":31,"countryCode":"BR","countryName":"Brazil","latitude":"-10.57081000","longitude":"-43.68863000","wikiDataId":"Q2064004"},{"id":10844,"name":"Caatiba","stateId":2002,"stateCode":"BA","stateName":"Bahia","countryId":31,"countryCode":"BR","countryName":"Brazil","latitude":"-14.97610000","longitude":"-40.39048000","wikiDataId":"Q279492"},{"id":10846,"name":"Cabaceiras do Paraguaçu","stateId":2002,"stateCode":"BA","stateName":"Bahia","countryId":31,"countryCode":"BR","countryName":"Brazil","latitude":"-12.55423000","longitude":"-39.19596000","wikiDataId":"Q279492"},{"id":10861,"name":"Cachoeira","stateId":2002,"stateCode":"BA","stateName":"Bahia","countryId":31,"countryCode":"BR","countryName":"Brazil","latitude":"-12.60139000","longitude":"-38.96576000","wikiDataId":"Q985576"},{"id":10887,"name":"Caculé","stateId":2002,"stateCode":"BA","stateName":"Bahia","countryId":31,"countryCode":"BR","countryName":"Brazil","latitude":"-14.38829000","longitude":"-42.41516000","wikiDataId":"Q1795313"},{"id":11225,"name":"Caém","stateId":2002,"stateCode":"BA","stateName":"Bahia","countryId":31,"countryCode":"BR","countryName":"Brazil","latitude":"-11.14182000","longitude":"-40.29142000","wikiDataId":"Q1946795"},{"id":10888,"name":"Caetanos","stateId":2002,"stateCode":"BA","stateName":"Bahia","countryId":31,"countryCode":"BR","countryName":"Brazil","latitude":"-14.29234000","longitude":"-41.01004000","wikiDataId":"Q1795313"},{"id":10890,"name":"Caetité","stateId":2002,"stateCode":"BA","stateName":"Bahia","countryId":31,"countryCode":"BR","countryName":"Brazil","latitude":"-13.97883000","longitude":"-42.49334000","wikiDataId":"Q1795371"},{"id":10893,"name":"Cafarnaum","stateId":2002,"stateCode":"BA","stateName":"Bahia","countryId":31,"countryCode":"BR","countryName":"Brazil","latitude":"-11.69361000","longitude":"-41.46833000","wikiDataId":"Q1808307"},{"id":10905,"name":"Cairu","stateId":2002,"stateCode":"BA","stateName":"Bahia","countryId":31,"countryCode":"BR","countryName":"Brazil","latitude":"-13.52662000","longitude":"-38.94814000","wikiDataId":"Q22046952"},{"id":10927,"name":"Caldeirão Grande","stateId":2002,"stateCode":"BA","stateName":"Bahia","countryId":31,"countryCode":"BR","countryName":"Brazil","latitude":"-11.04347000","longitude":"-40.29515000","wikiDataId":"Q283971"},{"id":10934,"name":"Camacan","stateId":2002,"stateCode":"BA","stateName":"Bahia","countryId":31,"countryCode":"BR","countryName":"Brazil","latitude":"-15.42769000","longitude":"-39.50818000","wikiDataId":"Q2088907"},{"id":10943,"name":"Camaçari","stateId":2002,"stateCode":"BA","stateName":"Bahia","countryId":31,"countryCode":"BR","countryName":"Brazil","latitude":"-12.69750000","longitude":"-38.32417000","wikiDataId":"Q1136204"},{"id":10937,"name":"Camamu","stateId":2002,"stateCode":"BA","stateName":"Bahia","countryId":31,"countryCode":"BR","countryName":"Brazil","latitude":"-13.94472000","longitude":"-39.10389000","wikiDataId":"Q1795776"},{"id":10979,"name":"Campo Alegre de Lourdes","stateId":2002,"stateCode":"BA","stateName":"Bahia","countryId":31,"countryCode":"BR","countryName":"Brazil","latitude":"-9.50097000","longitude":"-42.98275000","wikiDataId":"Q2028275"},{"id":10988,"name":"Campo Formoso","stateId":2002,"stateCode":"BA","stateName":"Bahia","countryId":31,"countryCode":"BR","countryName":"Brazil","latitude":"-10.50750000","longitude":"-40.32139000","wikiDataId":"Q1808046"},{"id":11060,"name":"Canápolis","stateId":2002,"stateCode":"BA","stateName":"Bahia","countryId":31,"countryCode":"BR","countryName":"Brazil","latitude":"-13.12516000","longitude":"-44.25095000","wikiDataId":"Q1807050"},{"id":11025,"name":"Canarana","stateId":2002,"stateCode":"BA","stateName":"Bahia","countryId":31,"countryCode":"BR","countryName":"Brazil","latitude":"-11.68472000","longitude":"-41.76889000","wikiDataId":"Q674476"},{"id":11029,"name":"Canavieiras","stateId":2002,"stateCode":"BA","stateName":"Bahia","countryId":31,"countryCode":"BR","countryName":"Brazil","latitude":"-15.67500000","longitude":"-38.94722000","wikiDataId":"Q1772515"},{"id":11032,"name":"Candeal","stateId":2002,"stateCode":"BA","stateName":"Bahia","countryId":31,"countryCode":"BR","countryName":"Brazil","latitude":"-11.89504000","longitude":"-39.20390000","wikiDataId":"Q610966"},{"id":11033,"name":"Candeias","stateId":2002,"stateCode":"BA","stateName":"Bahia","countryId":31,"countryCode":"BR","countryName":"Brazil","latitude":"-12.65569000","longitude":"-38.48700000","wikiDataId":"Q1762379"},{"id":11037,"name":"Candiba","stateId":2002,"stateCode":"BA","stateName":"Bahia","countryId":31,"countryCode":"BR","countryName":"Brazil","latitude":"-14.46972000","longitude":"-42.87386000","wikiDataId":"Q1786799"},{"id":11549,"name":"Cândido Sales","stateId":2002,"stateCode":"BA","stateName":"Bahia","countryId":31,"countryCode":"BR","countryName":"Brazil","latitude":"-15.46082000","longitude":"-41.16353000","wikiDataId":"Q1761075"},{"id":11051,"name":"Cansanção","stateId":2002,"stateCode":"BA","stateName":"Bahia","countryId":31,"countryCode":"BR","countryName":"Brazil","latitude":"-10.73105000","longitude":"-39.47418000","wikiDataId":"Q1799304"},{"id":11057,"name":"Canudos","stateId":2002,"stateCode":"BA","stateName":"Bahia","countryId":31,"countryCode":"BR","countryName":"Brazil","latitude":"-9.87981000","longitude":"-39.14723000","wikiDataId":"Q653656"},{"id":11070,"name":"Capela do Alto Alegre","stateId":2002,"stateCode":"BA","stateName":"Bahia","countryId":31,"countryCode":"BR","countryName":"Brazil","latitude":"-11.61838000","longitude":"-39.83227000","wikiDataId":"Q610390"},{"id":11075,"name":"Capim Grosso","stateId":2002,"stateCode":"BA","stateName":"Bahia","countryId":31,"countryCode":"BR","countryName":"Brazil","latitude":"-11.38111000","longitude":"-40.01278000","wikiDataId":"Q1795362"},{"id":11116,"name":"Caraíbas","stateId":2002,"stateCode":"BA","stateName":"Bahia","countryId":31,"countryCode":"BR","countryName":"Brazil","latitude":"-14.60631000","longitude":"-41.25763000","wikiDataId":"Q1800637"},{"id":11112,"name":"Caravelas","stateId":2002,"stateCode":"BA","stateName":"Bahia","countryId":31,"countryCode":"BR","countryName":"Brazil","latitude":"-17.65842000","longitude":"-39.35989000","wikiDataId":"Q1794236"},{"id":11121,"name":"Cardeal da Silva","stateId":2002,"stateCode":"BA","stateName":"Bahia","countryId":31,"countryCode":"BR","countryName":"Brazil","latitude":"-11.99798000","longitude":"-37.92468000","wikiDataId":"Q2078721"},{"id":11131,"name":"Carinhanha","stateId":2002,"stateCode":"BA","stateName":"Bahia","countryId":31,"countryCode":"BR","countryName":"Brazil","latitude":"-14.30472000","longitude":"-43.76500000","wikiDataId":"Q985608"},{"id":11173,"name":"Casa Nova","stateId":2002,"stateCode":"BA","stateName":"Bahia","countryId":31,"countryCode":"BR","countryName":"Brazil","latitude":"-9.10439000","longitude":"-41.15736000","wikiDataId":"Q1074537"},{"id":11192,"name":"Castro Alves","stateId":2002,"stateCode":"BA","stateName":"Bahia","countryId":31,"countryCode":"BR","countryName":"Brazil","latitude":"-12.74937000","longitude":"-39.37691000","wikiDataId":"Q1764155"},{"id":11204,"name":"Catolândia","stateId":2002,"stateCode":"BA","stateName":"Bahia","countryId":31,"countryCode":"BR","countryName":"Brazil","latitude":"-12.29613000","longitude":"-44.67528000","wikiDataId":"Q2011032"},{"id":11206,"name":"Catu","stateId":2002,"stateCode":"BA","stateName":"Bahia","countryId":31,"countryCode":"BR","countryName":"Brazil","latitude":"-12.35306000","longitude":"-38.37889000","wikiDataId":"Q1762371"},{"id":11209,"name":"Caturama","stateId":2002,"stateCode":"BA","stateName":"Bahia","countryId":31,"countryCode":"BR","countryName":"Brazil","latitude":"-13.18601000","longitude":"-42.30250000","wikiDataId":"Q22059575"},{"id":11238,"name":"Central","stateId":2002,"stateCode":"BA","stateName":"Bahia","countryId":31,"countryCode":"BR","countryName":"Brazil","latitude":"-11.15424000","longitude":"-42.08146000","wikiDataId":"Q2021433"},{"id":11280,"name":"Chorrochó","stateId":2002,"stateCode":"BA","stateName":"Bahia","countryId":31,"countryCode":"BR","countryName":"Brazil","latitude":"-9.30550000","longitude":"-39.15652000","wikiDataId":"Q22059571"},{"id":11552,"name":"Cícero Dantas","stateId":2002,"stateCode":"BA","stateName":"Bahia","countryId":31,"countryCode":"BR","countryName":"Brazil","latitude":"-10.60000000","longitude":"-38.38333000","wikiDataId":"Q1761858"},{"id":11295,"name":"Cipó","stateId":2002,"stateCode":"BA","stateName":"Bahia","countryId":31,"countryCode":"BR","countryName":"Brazil","latitude":"-11.09972000","longitude":"-38.51361000","wikiDataId":"Q1762353"},{"id":11303,"name":"Coaraci","stateId":2002,"stateCode":"BA","stateName":"Bahia","countryId":31,"countryCode":"BR","countryName":"Brazil","latitude":"-14.64083000","longitude":"-39.55111000","wikiDataId":"Q264690"},{"id":11312,"name":"Cocos","stateId":2002,"stateCode":"BA","stateName":"Bahia","countryId":31,"countryCode":"BR","countryName":"Brazil","latitude":"-14.59438000","longitude":"-45.27960000","wikiDataId":"Q511764"},{"id":11348,"name":"Conceição da Feira","stateId":2002,"stateCode":"BA","stateName":"Bahia","countryId":31,"countryCode":"BR","countryName":"Brazil","latitude":"-12.50583000","longitude":"-38.99861000","wikiDataId":"Q1762474"},{"id":11353,"name":"Conceição do Almeida","stateId":2002,"stateCode":"BA","stateName":"Bahia","countryId":31,"countryCode":"BR","countryName":"Brazil","latitude":"-12.77944000","longitude":"-39.17000000","wikiDataId":"Q1772585"},{"id":11357,"name":"Conceição do Coité","stateId":2002,"stateCode":"BA","stateName":"Bahia","countryId":31,"countryCode":"BR","countryName":"Brazil","latitude":"-11.56389000","longitude":"-39.28278000","wikiDataId":"Q1772525"},{"id":11358,"name":"Conceição do Jacuípe","stateId":2002,"stateCode":"BA","stateName":"Bahia","countryId":31,"countryCode":"BR","countryName":"Brazil","latitude":"-12.31667000","longitude":"-38.76667000","wikiDataId":"Q988781"},{"id":11372,"name":"Conde","stateId":2002,"stateCode":"BA","stateName":"Bahia","countryId":31,"countryCode":"BR","countryName":"Brazil","latitude":"-11.81361000","longitude":"-37.61056000","wikiDataId":"Q1003399"},{"id":11373,"name":"Condeúba","stateId":2002,"stateCode":"BA","stateName":"Bahia","countryId":31,"countryCode":"BR","countryName":"Brazil","latitude":"-14.93275000","longitude":"-42.00693000","wikiDataId":"Q1003399"},{"id":11391,"name":"Contendas do Sincorá","stateId":2002,"stateCode":"BA","stateName":"Bahia","countryId":31,"countryCode":"BR","countryName":"Brazil","latitude":"-13.79599000","longitude":"-41.05002000","wikiDataId":"Q271333"},{"id":11397,"name":"Coração de Maria","stateId":2002,"stateCode":"BA","stateName":"Bahia","countryId":31,"countryCode":"BR","countryName":"Brazil","latitude":"-12.23333000","longitude":"-38.75000000","wikiDataId":"Q1762086"},{"id":11400,"name":"Cordeiros","stateId":2002,"stateCode":"BA","stateName":"Bahia","countryId":31,"countryCode":"BR","countryName":"Brazil","latitude":"-14.99846000","longitude":"-41.89749000","wikiDataId":"Q534937"},{"id":11408,"name":"Coribe","stateId":2002,"stateCode":"BA","stateName":"Bahia","countryId":31,"countryCode":"BR","countryName":"Brazil","latitude":"-13.72337000","longitude":"-44.43538000","wikiDataId":"Q2012367"},{"id":11423,"name":"Coronel João Sá","stateId":2002,"stateCode":"BA","stateName":"Bahia","countryId":31,"countryCode":"BR","countryName":"Brazil","latitude":"-10.38878000","longitude":"-37.94281000","wikiDataId":"Q80004"},{"id":11436,"name":"Correntina","stateId":2002,"stateCode":"BA","stateName":"Bahia","countryId":31,"countryCode":"BR","countryName":"Brazil","latitude":"-13.34333000","longitude":"-44.63667000","wikiDataId":"Q1061205"},{"id":11451,"name":"Cotegipe","stateId":2002,"stateCode":"BA","stateName":"Bahia","countryId":31,"countryCode":"BR","countryName":"Brazil","latitude":"-11.58844000","longitude":"-44.17000000","wikiDataId":"Q1024894"},{"id":11463,"name":"Cravolândia","stateId":2002,"stateCode":"BA","stateName":"Bahia","countryId":31,"countryCode":"BR","countryName":"Brazil","latitude":"-13.47018000","longitude":"-39.75493000","wikiDataId":"Q1798797"},{"id":11482,"name":"Crisópolis","stateId":2002,"stateCode":"BA","stateName":"Bahia","countryId":31,"countryCode":"BR","countryName":"Brazil","latitude":"-11.45532000","longitude":"-38.13933000","wikiDataId":"Q1761896"},{"id":11480,"name":"Cristópolis","stateId":2002,"stateCode":"BA","stateName":"Bahia","countryId":31,"countryCode":"BR","countryName":"Brazil","latitude":"-12.21789000","longitude":"-44.24987000","wikiDataId":"Q1761896"},{"id":11491,"name":"Cruz das Almas","stateId":2002,"stateCode":"BA","stateName":"Bahia","countryId":31,"countryCode":"BR","countryName":"Brazil","latitude":"-12.67000000","longitude":"-39.10194000","wikiDataId":"Q1648067"},{"id":11521,"name":"Curaçá","stateId":2002,"stateCode":"BA","stateName":"Bahia","countryId":31,"countryCode":"BR","countryName":"Brazil","latitude":"-8.99028000","longitude":"-39.90944000","wikiDataId":"Q677518"},{"id":11671,"name":"Dário Meira","stateId":2002,"stateCode":"BA","stateName":"Bahia","countryId":31,"countryCode":"BR","countryName":"Brazil","latitude":"-14.42340000","longitude":"-39.95935000","wikiDataId":"Q1756936"},{"id":11591,"name":"Dias d'Ávila","stateId":2002,"stateCode":"BA","stateName":"Bahia","countryId":31,"countryCode":"BR","countryName":"Brazil","latitude":"-12.60625000","longitude":"-38.33717000","wikiDataId":"Q1761912"},{"id":11623,"name":"Dom Basílio","stateId":2002,"stateCode":"BA","stateName":"Bahia","countryId":31,"countryCode":"BR","countryName":"Brazil","latitude":"-13.79717000","longitude":"-41.70877000","wikiDataId":"Q1803648"},{"id":11631,"name":"Dom Macedo Costa","stateId":2002,"stateCode":"BA","stateName":"Bahia","countryId":31,"countryCode":"BR","countryName":"Brazil","latitude":"-12.93379000","longitude":"-39.14621000","wikiDataId":"Q1755986"},{"id":11685,"name":"Elísio Medrado","stateId":2002,"stateCode":"BA","stateName":"Bahia","countryId":31,"countryCode":"BR","countryName":"Brazil","latitude":"-12.95431000","longitude":"-39.50579000","wikiDataId":"Q1750262"},{"id":11696,"name":"Encruzilhada","stateId":2002,"stateCode":"BA","stateName":"Bahia","countryId":31,"countryCode":"BR","countryName":"Brazil","latitude":"-15.56839000","longitude":"-40.90789000","wikiDataId":"Q1795353"},{"id":11705,"name":"Entre Rios","stateId":2002,"stateCode":"BA","stateName":"Bahia","countryId":31,"countryCode":"BR","countryName":"Brazil","latitude":"-11.94194000","longitude":"-38.08444000","wikiDataId":"Q1806968"},{"id":15682,"name":"Érico Cardoso","stateId":2002,"stateCode":"BA","stateName":"Bahia","countryId":31,"countryCode":"BR","countryName":"Brazil","latitude":"-13.43695000","longitude":"-42.10325000","wikiDataId":"Q1793641"},{"id":11737,"name":"Esplanada","stateId":2002,"stateCode":"BA","stateName":"Bahia","countryId":31,"countryCode":"BR","countryName":"Brazil","latitude":"-11.79611000","longitude":"-37.94500000","wikiDataId":"Q1772504"},{"id":11759,"name":"Euclides da Cunha","stateId":2002,"stateCode":"BA","stateName":"Bahia","countryId":31,"countryCode":"BR","countryName":"Brazil","latitude":"-10.50750000","longitude":"-39.01583000","wikiDataId":"Q2013802"},{"id":11763,"name":"Eunápolis","stateId":2002,"stateCode":"BA","stateName":"Bahia","countryId":31,"countryCode":"BR","countryName":"Brazil","latitude":"-16.37750000","longitude":"-39.58028000","wikiDataId":"Q1796277"},{"id":11907,"name":"Fátima","stateId":2002,"stateCode":"BA","stateName":"Bahia","countryId":31,"countryCode":"BR","countryName":"Brazil","latitude":"-10.54600000","longitude":"-38.22367000","wikiDataId":"Q593133"},{"id":11793,"name":"Feira da Mata","stateId":2002,"stateCode":"BA","stateName":"Bahia","countryId":31,"countryCode":"BR","countryName":"Brazil","latitude":"-14.13203000","longitude":"-44.25281000","wikiDataId":"Q1869240"},{"id":11794,"name":"Feira de Santana","stateId":2002,"stateCode":"BA","stateName":"Bahia","countryId":31,"countryCode":"BR","countryName":"Brazil","latitude":"-12.26667000","longitude":"-38.96667000","wikiDataId":"Q194343"},{"id":11821,"name":"Filadélfia","stateId":2002,"stateCode":"BA","stateName":"Bahia","countryId":31,"countryCode":"BR","countryName":"Brazil","latitude":"-10.76635000","longitude":"-40.20555000","wikiDataId":"Q2019006"},{"id":11822,"name":"Firmino Alves","stateId":2002,"stateCode":"BA","stateName":"Bahia","countryId":31,"countryCode":"BR","countryName":"Brazil","latitude":"-14.91360000","longitude":"-39.91192000","wikiDataId":"Q2019006"},{"id":11836,"name":"Floresta Azul","stateId":2002,"stateCode":"BA","stateName":"Bahia","countryId":31,"countryCode":"BR","countryName":"Brazil","latitude":"-14.84450000","longitude":"-39.75503000","wikiDataId":"Q2464842"},{"id":11855,"name":"Formosa do Rio Preto","stateId":2002,"stateCode":"BA","stateName":"Bahia","countryId":31,"countryCode":"BR","countryName":"Brazil","latitude":"-11.04833000","longitude":"-45.19306000","wikiDataId":"Q1762128"},{"id":11918,"name":"Gandu","stateId":2002,"stateCode":"BA","stateName":"Bahia","countryId":31,"countryCode":"BR","countryName":"Brazil","latitude":"-13.74389000","longitude":"-39.48667000","wikiDataId":"Q727944"},{"id":11930,"name":"Gavião","stateId":2002,"stateCode":"BA","stateName":"Bahia","countryId":31,"countryCode":"BR","countryName":"Brazil","latitude":"-11.48891000","longitude":"-39.77412000","wikiDataId":"Q856583"},{"id":11941,"name":"Gentio do Ouro","stateId":2002,"stateCode":"BA","stateName":"Bahia","countryId":31,"countryCode":"BR","countryName":"Brazil","latitude":"-11.36279000","longitude":"-42.54827000","wikiDataId":"Q1649675"},{"id":11950,"name":"Glória","stateId":2002,"stateCode":"BA","stateName":"Bahia","countryId":31,"countryCode":"BR","countryName":"Brazil","latitude":"-9.11097000","longitude":"-38.40655000","wikiDataId":"Q1785990"},{"id":11972,"name":"Gongogi","stateId":2002,"stateCode":"BA","stateName":"Bahia","countryId":31,"countryCode":"BR","countryName":"Brazil","latitude":"-14.29995000","longitude":"-39.60138000","wikiDataId":"Q83189"},{"id":11987,"name":"Governador Mangabeira","stateId":2002,"stateCode":"BA","stateName":"Bahia","countryId":31,"countryCode":"BR","countryName":"Brazil","latitude":"-12.57719000","longitude":"-39.03115000","wikiDataId":"Q1985082"},{"id":12021,"name":"Guajeru","stateId":2002,"stateCode":"BA","stateName":"Bahia","countryId":31,"countryCode":"BR","countryName":"Brazil","latitude":"-14.57881000","longitude":"-42.03986000","wikiDataId":"Q983810"},{"id":12024,"name":"Guanambi","stateId":2002,"stateCode":"BA","stateName":"Bahia","countryId":31,"countryCode":"BR","countryName":"Brazil","latitude":"-14.22333000","longitude":"-42.78139000","wikiDataId":"Q786924"},{"id":12057,"name":"Guaratinga","stateId":2002,"stateCode":"BA","stateName":"Bahia","countryId":31,"countryCode":"BR","countryName":"Brazil","latitude":"-16.58564000","longitude":"-39.78189000","wikiDataId":"Q22042268"},{"id":12095,"name":"Heliópolis","stateId":2002,"stateCode":"BA","stateName":"Bahia","countryId":31,"countryCode":"BR","countryName":"Brazil","latitude":"-10.72863000","longitude":"-38.25490000","wikiDataId":"Q2019055"},{"id":12119,"name":"Iaçu","stateId":2002,"stateCode":"BA","stateName":"Bahia","countryId":31,"countryCode":"BR","countryName":"Brazil","latitude":"-12.76722000","longitude":"-40.21167000","wikiDataId":"Q1762080"},{"id":12131,"name":"Ibiassucê","stateId":2002,"stateCode":"BA","stateName":"Bahia","countryId":31,"countryCode":"BR","countryName":"Brazil","latitude":"-14.20285000","longitude":"-42.30214000","wikiDataId":"Q2028027"},{"id":12134,"name":"Ibicaraí","stateId":2002,"stateCode":"BA","stateName":"Bahia","countryId":31,"countryCode":"BR","countryName":"Brazil","latitude":"-14.86500000","longitude":"-39.58750000","wikiDataId":"Q741470"},{"id":12136,"name":"Ibicoara","stateId":2002,"stateCode":"BA","stateName":"Bahia","countryId":31,"countryCode":"BR","countryName":"Brazil","latitude":"-13.37664000","longitude":"-41.34081000","wikiDataId":"Q741470"},{"id":12138,"name":"Ibicuí","stateId":2002,"stateCode":"BA","stateName":"Bahia","countryId":31,"countryCode":"BR","countryName":"Brazil","latitude":"-14.84167000","longitude":"-39.98667000","wikiDataId":"Q1795367"},{"id":12140,"name":"Ibipeba","stateId":2002,"stateCode":"BA","stateName":"Bahia","countryId":31,"countryCode":"BR","countryName":"Brazil","latitude":"-11.64083000","longitude":"-42.01111000","wikiDataId":"Q1798809"},{"id":12141,"name":"Ibipitanga","stateId":2002,"stateCode":"BA","stateName":"Bahia","countryId":31,"countryCode":"BR","countryName":"Brazil","latitude":"-12.88655000","longitude":"-42.37115000","wikiDataId":"Q1798809"},{"id":12143,"name":"Ibiquera","stateId":2002,"stateCode":"BA","stateName":"Bahia","countryId":31,"countryCode":"BR","countryName":"Brazil","latitude":"-12.57265000","longitude":"-40.84158000","wikiDataId":"Q2006392"},{"id":12149,"name":"Ibirapitanga","stateId":2002,"stateCode":"BA","stateName":"Bahia","countryId":31,"countryCode":"BR","countryName":"Brazil","latitude":"-14.16417000","longitude":"-39.37361000","wikiDataId":"Q1647812"},{"id":12151,"name":"Ibirapuã","stateId":2002,"stateCode":"BA","stateName":"Bahia","countryId":31,"countryCode":"BR","countryName":"Brazil","latitude":"-17.75567000","longitude":"-39.97365000","wikiDataId":"Q1647812"},{"id":12153,"name":"Ibirataia","stateId":2002,"stateCode":"BA","stateName":"Bahia","countryId":31,"countryCode":"BR","countryName":"Brazil","latitude":"-14.06694000","longitude":"-39.64056000","wikiDataId":"Q1772538"},{"id":12158,"name":"Ibitiara","stateId":2002,"stateCode":"BA","stateName":"Bahia","countryId":31,"countryCode":"BR","countryName":"Brazil","latitude":"-12.56582000","longitude":"-42.38990000","wikiDataId":"Q194423"},{"id":12161,"name":"Ibititá","stateId":2002,"stateCode":"BA","stateName":"Bahia","countryId":31,"countryCode":"BR","countryName":"Brazil","latitude":"-11.69354000","longitude":"-41.84148000","wikiDataId":"Q1807726"},{"id":12166,"name":"Ibotirama","stateId":2002,"stateCode":"BA","stateName":"Bahia","countryId":31,"countryCode":"BR","countryName":"Brazil","latitude":"-12.18528000","longitude":"-43.22056000","wikiDataId":"Q1761863"},{"id":12171,"name":"Ichu","stateId":2002,"stateCode":"BA","stateName":"Bahia","countryId":31,"countryCode":"BR","countryName":"Brazil","latitude":"-11.70344000","longitude":"-39.18722000","wikiDataId":"Q2068290"},{"id":12178,"name":"Igaporã","stateId":2002,"stateCode":"BA","stateName":"Bahia","countryId":31,"countryCode":"BR","countryName":"Brazil","latitude":"-13.89064000","longitude":"-42.76046000","wikiDataId":"Q1808097"},{"id":12192,"name":"Igrapiúna","stateId":2002,"stateCode":"BA","stateName":"Bahia","countryId":31,"countryCode":"BR","countryName":"Brazil","latitude":"-13.85607000","longitude":"-39.19363000","wikiDataId":"Q1120318"},{"id":12203,"name":"Iguaí","stateId":2002,"stateCode":"BA","stateName":"Bahia","countryId":31,"countryCode":"BR","countryName":"Brazil","latitude":"-14.75639000","longitude":"-40.08917000","wikiDataId":"Q1762385"},{"id":12214,"name":"Ilhéus","stateId":2002,"stateCode":"BA","stateName":"Bahia","countryId":31,"countryCode":"BR","countryName":"Brazil","latitude":"-14.79364000","longitude":"-39.03949000","wikiDataId":"Q373705"},{"id":12247,"name":"Inhambupe","stateId":2002,"stateCode":"BA","stateName":"Bahia","countryId":31,"countryCode":"BR","countryName":"Brazil","latitude":"-11.78444000","longitude":"-38.35306000","wikiDataId":"Q589992"},{"id":12268,"name":"Ipecaetá","stateId":2002,"stateCode":"BA","stateName":"Bahia","countryId":31,"countryCode":"BR","countryName":"Brazil","latitude":"-12.33777000","longitude":"-39.32835000","wikiDataId":"Q1648200"},{"id":12272,"name":"Ipiaú","stateId":2002,"stateCode":"BA","stateName":"Bahia","countryId":31,"countryCode":"BR","countryName":"Brazil","latitude":"-14.13449000","longitude":"-39.73948000","wikiDataId":"Q1625857"},{"id":12280,"name":"Ipirá","stateId":2002,"stateCode":"BA","stateName":"Bahia","countryId":31,"countryCode":"BR","countryName":"Brazil","latitude":"-12.15833000","longitude":"-39.73722000","wikiDataId":"Q2026825"},{"id":12297,"name":"Ipupiara","stateId":2002,"stateCode":"BA","stateName":"Bahia","countryId":31,"countryCode":"BR","countryName":"Brazil","latitude":"-11.76946000","longitude":"-42.43301000","wikiDataId":"Q946408"},{"id":12304,"name":"Irajuba","stateId":2002,"stateCode":"BA","stateName":"Bahia","countryId":31,"countryCode":"BR","countryName":"Brazil","latitude":"-13.17999000","longitude":"-39.99530000","wikiDataId":"Q733787"},{"id":12305,"name":"Iramaia","stateId":2002,"stateCode":"BA","stateName":"Bahia","countryId":31,"countryCode":"BR","countryName":"Brazil","latitude":"-13.54627000","longitude":"-40.82834000","wikiDataId":"Q733787"},{"id":12310,"name":"Iraquara","stateId":2002,"stateCode":"BA","stateName":"Bahia","countryId":31,"countryCode":"BR","countryName":"Brazil","latitude":"-12.28624000","longitude":"-41.59153000","wikiDataId":"Q1795271"},{"id":12311,"name":"Irará","stateId":2002,"stateCode":"BA","stateName":"Bahia","countryId":31,"countryCode":"BR","countryName":"Brazil","latitude":"-12.05000000","longitude":"-38.76667000","wikiDataId":"Q1648734"},{"id":12317,"name":"Irecê","stateId":2002,"stateCode":"BA","stateName":"Bahia","countryId":31,"countryCode":"BR","countryName":"Brazil","latitude":"-11.30417000","longitude":"-41.85583000","wikiDataId":"Q1762180"},{"id":12328,"name":"Itabela","stateId":2002,"stateCode":"BA","stateName":"Bahia","countryId":31,"countryCode":"BR","countryName":"Brazil","latitude":"-16.71635000","longitude":"-39.57325000","wikiDataId":"Q1802007"},{"id":12329,"name":"Itaberaba","stateId":2002,"stateCode":"BA","stateName":"Bahia","countryId":31,"countryCode":"BR","countryName":"Brazil","latitude":"-12.52750000","longitude":"-40.30694000","wikiDataId":"Q1800730"},{"id":12337,"name":"Itabuna","stateId":2002,"stateCode":"BA","stateName":"Bahia","countryId":31,"countryCode":"BR","countryName":"Brazil","latitude":"-14.78556000","longitude":"-39.28028000","wikiDataId":"Q460750"},{"id":12341,"name":"Itacaré","stateId":2002,"stateCode":"BA","stateName":"Bahia","countryId":31,"countryCode":"BR","countryName":"Brazil","latitude":"-14.27890000","longitude":"-38.99584000","wikiDataId":"Q985513"},{"id":12346,"name":"Itaeté","stateId":2002,"stateCode":"BA","stateName":"Bahia","countryId":31,"countryCode":"BR","countryName":"Brazil","latitude":"-13.08598000","longitude":"-41.02566000","wikiDataId":"Q1757590"},{"id":12347,"name":"Itagi","stateId":2002,"stateCode":"BA","stateName":"Bahia","countryId":31,"countryCode":"BR","countryName":"Brazil","latitude":"-14.16278000","longitude":"-40.00611000","wikiDataId":"Q1795795"},{"id":12348,"name":"Itagibá","stateId":2002,"stateCode":"BA","stateName":"Bahia","countryId":31,"countryCode":"BR","countryName":"Brazil","latitude":"-14.28361000","longitude":"-39.84278000","wikiDataId":"Q782196"},{"id":12349,"name":"Itagimirim","stateId":2002,"stateCode":"BA","stateName":"Bahia","countryId":31,"countryCode":"BR","countryName":"Brazil","latitude":"-16.13473000","longitude":"-39.81646000","wikiDataId":"Q782196"},{"id":12356,"name":"Itaguaçu da Bahia","stateId":2002,"stateCode":"BA","stateName":"Bahia","countryId":31,"countryCode":"BR","countryName":"Brazil","latitude":"-10.64259000","longitude":"-42.21083000","wikiDataId":"Q1793795"},{"id":12369,"name":"Itaju do Colônia","stateId":2002,"stateCode":"BA","stateName":"Bahia","countryId":31,"countryCode":"BR","countryName":"Brazil","latitude":"-15.15505000","longitude":"-39.71598000","wikiDataId":"Q1759769"},{"id":12371,"name":"Itajuípe","stateId":2002,"stateCode":"BA","stateName":"Bahia","countryId":31,"countryCode":"BR","countryName":"Brazil","latitude":"-14.67806000","longitude":"-39.37500000","wikiDataId":"Q1772508"},{"id":12376,"name":"Itamaraju","stateId":2002,"stateCode":"BA","stateName":"Bahia","countryId":31,"countryCode":"BR","countryName":"Brazil","latitude":"-17.03917000","longitude":"-39.53111000","wikiDataId":"Q943536"},{"id":12380,"name":"Itamari","stateId":2002,"stateCode":"BA","stateName":"Bahia","countryId":31,"countryCode":"BR","countryName":"Brazil","latitude":"-13.78590000","longitude":"-39.68416000","wikiDataId":"Q1756622"},{"id":12383,"name":"Itambé","stateId":2002,"stateCode":"BA","stateName":"Bahia","countryId":31,"countryCode":"BR","countryName":"Brazil","latitude":"-15.24500000","longitude":"-40.62444000","wikiDataId":"Q686304"},{"id":12389,"name":"Itanagra","stateId":2002,"stateCode":"BA","stateName":"Bahia","countryId":31,"countryCode":"BR","countryName":"Brazil","latitude":"-12.30982000","longitude":"-38.11328000","wikiDataId":"Q2283708"},{"id":12394,"name":"Itanhém","stateId":2002,"stateCode":"BA","stateName":"Bahia","countryId":31,"countryCode":"BR","countryName":"Brazil","latitude":"-17.16639000","longitude":"-40.33000000","wikiDataId":"Q1795733"},{"id":12402,"name":"Itaparica","stateId":2002,"stateCode":"BA","stateName":"Bahia","countryId":31,"countryCode":"BR","countryName":"Brazil","latitude":"-12.90598000","longitude":"-38.66383000","wikiDataId":"Q1772662"},{"id":12441,"name":"Itapé","stateId":2002,"stateCode":"BA","stateName":"Bahia","countryId":31,"countryCode":"BR","countryName":"Brazil","latitude":"-14.91851000","longitude":"-39.48637000","wikiDataId":"Q1759716"},{"id":12403,"name":"Itapebi","stateId":2002,"stateCode":"BA","stateName":"Bahia","countryId":31,"countryCode":"BR","countryName":"Brazil","latitude":"-15.88751000","longitude":"-39.68792000","wikiDataId":"Q1772662"},{"id":12413,"name":"Itapetinga","stateId":2002,"stateCode":"BA","stateName":"Bahia","countryId":31,"countryCode":"BR","countryName":"Brazil","latitude":"-15.24889000","longitude":"-40.24778000","wikiDataId":"Q921827"},{"id":12418,"name":"Itapicuru","stateId":2002,"stateCode":"BA","stateName":"Bahia","countryId":31,"countryCode":"BR","countryName":"Brazil","latitude":"-11.31667000","longitude":"-38.23333000","wikiDataId":"Q1795161"},{"id":12427,"name":"Itapitanga","stateId":2002,"stateCode":"BA","stateName":"Bahia","countryId":31,"countryCode":"BR","countryName":"Brazil","latitude":"-14.46369000","longitude":"-39.62565000","wikiDataId":"Q1804093"},{"id":12443,"name":"Itaquara","stateId":2002,"stateCode":"BA","stateName":"Bahia","countryId":31,"countryCode":"BR","countryName":"Brazil","latitude":"-13.44720000","longitude":"-39.91030000","wikiDataId":"Q330202"},{"id":12448,"name":"Itarantim","stateId":2002,"stateCode":"BA","stateName":"Bahia","countryId":31,"countryCode":"BR","countryName":"Brazil","latitude":"-15.65972000","longitude":"-40.06556000","wikiDataId":"Q1795784"},{"id":12458,"name":"Itatim","stateId":2002,"stateCode":"BA","stateName":"Bahia","countryId":31,"countryCode":"BR","countryName":"Brazil","latitude":"-12.62835000","longitude":"-39.68234000","wikiDataId":"Q773065"},{"id":12478,"name":"Itiruçu","stateId":2002,"stateCode":"BA","stateName":"Bahia","countryId":31,"countryCode":"BR","countryName":"Brazil","latitude":"-13.53167000","longitude":"-40.15028000","wikiDataId":"Q609737"},{"id":12479,"name":"Itiúba","stateId":2002,"stateCode":"BA","stateName":"Bahia","countryId":31,"countryCode":"BR","countryName":"Brazil","latitude":"-10.79357000","longitude":"-39.80381000","wikiDataId":"Q609737"},{"id":12481,"name":"Itororó","stateId":2002,"stateCode":"BA","stateName":"Bahia","countryId":31,"countryCode":"BR","countryName":"Brazil","latitude":"-15.11694000","longitude":"-40.07028000","wikiDataId":"Q1798854"},{"id":12483,"name":"Ituaçu","stateId":2002,"stateCode":"BA","stateName":"Bahia","countryId":31,"countryCode":"BR","countryName":"Brazil","latitude":"-13.81333000","longitude":"-41.29667000","wikiDataId":"Q1795113"},{"id":12484,"name":"Ituberá","stateId":2002,"stateCode":"BA","stateName":"Bahia","countryId":31,"countryCode":"BR","countryName":"Brazil","latitude":"-13.73538000","longitude":"-39.14785000","wikiDataId":"Q1795108"},{"id":12497,"name":"Iuiu","stateId":2002,"stateCode":"BA","stateName":"Bahia","countryId":31,"countryCode":"BR","countryName":"Brazil","latitude":"-14.65015000","longitude":"-43.64870000","wikiDataId":"Q745307"},{"id":12510,"name":"Jaborandi","stateId":2002,"stateCode":"BA","stateName":"Bahia","countryId":31,"countryCode":"BR","countryName":"Brazil","latitude":"-14.03850000","longitude":"-45.18408000","wikiDataId":"Q271393"},{"id":12517,"name":"Jacaraci","stateId":2002,"stateCode":"BA","stateName":"Bahia","countryId":31,"countryCode":"BR","countryName":"Brazil","latitude":"-14.83523000","longitude":"-42.40112000","wikiDataId":"Q938162"},{"id":12527,"name":"Jacobina","stateId":2002,"stateCode":"BA","stateName":"Bahia","countryId":31,"countryCode":"BR","countryName":"Brazil","latitude":"-11.18143000","longitude":"-40.51372000","wikiDataId":"Q1798719"},{"id":12537,"name":"Jaguaquara","stateId":2002,"stateCode":"BA","stateName":"Bahia","countryId":31,"countryCode":"BR","countryName":"Brazil","latitude":"-13.53056000","longitude":"-39.97083000","wikiDataId":"Q733973"},{"id":12538,"name":"Jaguarari","stateId":2002,"stateCode":"BA","stateName":"Bahia","countryId":31,"countryCode":"BR","countryName":"Brazil","latitude":"-10.26389000","longitude":"-40.19583000","wikiDataId":"Q1070926"},{"id":12545,"name":"Jaguaripe","stateId":2002,"stateCode":"BA","stateName":"Bahia","countryId":31,"countryCode":"BR","countryName":"Brazil","latitude":"-13.12834000","longitude":"-39.01339000","wikiDataId":"Q653619"},{"id":12559,"name":"Jandaíra","stateId":2002,"stateCode":"BA","stateName":"Bahia","countryId":31,"countryCode":"BR","countryName":"Brazil","latitude":"-11.61099000","longitude":"-37.61845000","wikiDataId":"Q1779910"},{"id":12619,"name":"Jequié","stateId":2002,"stateCode":"BA","stateName":"Bahia","countryId":31,"countryCode":"BR","countryName":"Brazil","latitude":"-13.85875000","longitude":"-40.08512000","wikiDataId":"Q630203"},{"id":12620,"name":"Jeremoabo","stateId":2002,"stateCode":"BA","stateName":"Bahia","countryId":31,"countryCode":"BR","countryName":"Brazil","latitude":"-9.92088000","longitude":"-38.72629000","wikiDataId":"Q1761820"},{"id":12632,"name":"Jiquiriçá","stateId":2002,"stateCode":"BA","stateName":"Bahia","countryId":31,"countryCode":"BR","countryName":"Brazil","latitude":"-13.31081000","longitude":"-39.58091000","wikiDataId":"Q983815"},{"id":12633,"name":"Jitaúna","stateId":2002,"stateCode":"BA","stateName":"Bahia","countryId":31,"countryCode":"BR","countryName":"Brazil","latitude":"-14.01274000","longitude":"-39.89833000","wikiDataId":"Q1798820"},{"id":12661,"name":"João Dourado","stateId":2002,"stateCode":"BA","stateName":"Bahia","countryId":31,"countryCode":"BR","countryName":"Brazil","latitude":"-11.14883000","longitude":"-41.40438000","wikiDataId":"Q507247"},{"id":12673,"name":"Juazeiro","stateId":2002,"stateCode":"BA","stateName":"Bahia","countryId":31,"countryCode":"BR","countryName":"Brazil","latitude":"-9.39679000","longitude":"-40.23381000","wikiDataId":"Q1790670"},{"id":12678,"name":"Jucuruçu","stateId":2002,"stateCode":"BA","stateName":"Bahia","countryId":31,"countryCode":"BR","countryName":"Brazil","latitude":"-16.84832000","longitude":"-40.08414000","wikiDataId":"Q1787030"},{"id":12705,"name":"Jussara","stateId":2002,"stateCode":"BA","stateName":"Bahia","countryId":31,"countryCode":"BR","countryName":"Brazil","latitude":"-10.96408000","longitude":"-41.85572000","wikiDataId":"Q1008242"},{"id":12708,"name":"Jussari","stateId":2002,"stateCode":"BA","stateName":"Bahia","countryId":31,"countryCode":"BR","countryName":"Brazil","latitude":"-15.15451000","longitude":"-39.51559000","wikiDataId":"Q338795"},{"id":12709,"name":"Jussiape","stateId":2002,"stateCode":"BA","stateName":"Bahia","countryId":31,"countryCode":"BR","countryName":"Brazil","latitude":"-13.48810000","longitude":"-41.62335000","wikiDataId":"Q935612"},{"id":12724,"name":"Lafaiete Coutinho","stateId":2002,"stateCode":"BA","stateName":"Bahia","countryId":31,"countryCode":"BR","countryName":"Brazil","latitude":"-13.62029000","longitude":"-40.20444000","wikiDataId":"Q1798712"},{"id":12742,"name":"Lagoa Real","stateId":2002,"stateCode":"BA","stateName":"Bahia","countryId":31,"countryCode":"BR","countryName":"Brazil","latitude":"-14.10985000","longitude":"-42.21697000","wikiDataId":"Q526249"},{"id":12773,"name":"Laje","stateId":2002,"stateCode":"BA","stateName":"Bahia","countryId":31,"countryCode":"BR","countryName":"Brazil","latitude":"-10.18708000","longitude":"-40.97076000","wikiDataId":"Q22040135"},{"id":12783,"name":"Lajedão","stateId":2002,"stateCode":"BA","stateName":"Bahia","countryId":31,"countryCode":"BR","countryName":"Brazil","latitude":"-17.57112000","longitude":"-40.31123000","wikiDataId":"Q2078213"},{"id":12780,"name":"Lajedinho","stateId":2002,"stateCode":"BA","stateName":"Bahia","countryId":31,"countryCode":"BR","countryName":"Brazil","latitude":"-12.42698000","longitude":"-41.15097000","wikiDataId":"Q1012550"},{"id":12782,"name":"Lajedo do Tabocal","stateId":2002,"stateCode":"BA","stateName":"Bahia","countryId":31,"countryCode":"BR","countryName":"Brazil","latitude":"-13.37125000","longitude":"-40.23004000","wikiDataId":"Q2078213"},{"id":12787,"name":"Lamarão","stateId":2002,"stateCode":"BA","stateName":"Bahia","countryId":31,"countryCode":"BR","countryName":"Brazil","latitude":"-11.77625000","longitude":"-38.90341000","wikiDataId":"Q641281"},{"id":12793,"name":"Lapão","stateId":2002,"stateCode":"BA","stateName":"Bahia","countryId":31,"countryCode":"BR","countryName":"Brazil","latitude":"-11.38333000","longitude":"-41.83194000","wikiDataId":"Q1761847"},{"id":12806,"name":"Lauro de Freitas","stateId":2002,"stateCode":"BA","stateName":"Bahia","countryId":31,"countryCode":"BR","countryName":"Brazil","latitude":"-12.89444000","longitude":"-38.32722000","wikiDataId":"Q905164"},{"id":12817,"name":"Lençóis","stateId":2002,"stateCode":"BA","stateName":"Bahia","countryId":31,"countryCode":"BR","countryName":"Brazil","latitude":"-12.47259000","longitude":"-41.30815000","wikiDataId":"Q582880"},{"id":12825,"name":"Licínio de Almeida","stateId":2002,"stateCode":"BA","stateName":"Bahia","countryId":31,"countryCode":"BR","countryName":"Brazil","latitude":"-14.70644000","longitude":"-42.50442000","wikiDataId":"Q22062417"},{"id":12843,"name":"Livramento de Nossa Senhora","stateId":2002,"stateCode":"BA","stateName":"Bahia","countryId":31,"countryCode":"BR","countryName":"Brazil","latitude":"-13.80680000","longitude":"-41.99709000","wikiDataId":"Q1793460"},{"id":12844,"name":"Livramento do Brumado","stateId":2002,"stateCode":"BA","stateName":"Bahia","countryId":31,"countryCode":"BR","countryName":"Brazil","latitude":"-13.65145000","longitude":"-41.84564000","wikiDataId":"Q22040445"},{"id":12881,"name":"Luís Eduardo Magalhães","stateId":2002,"stateCode":"BA","stateName":"Bahia","countryId":31,"countryCode":"BR","countryName":"Brazil","latitude":"-12.23208000","longitude":"-46.11460000","wikiDataId":"Q1808537"},{"id":12884,"name":"Macajuba","stateId":2002,"stateCode":"BA","stateName":"Bahia","countryId":31,"countryCode":"BR","countryName":"Brazil","latitude":"-12.14371000","longitude":"-40.30199000","wikiDataId":"Q386631"},{"id":12888,"name":"Macarani","stateId":2002,"stateCode":"BA","stateName":"Bahia","countryId":31,"countryCode":"BR","countryName":"Brazil","latitude":"-15.55700000","longitude":"-40.39049000","wikiDataId":"Q1794428"},{"id":12894,"name":"Macaúbas","stateId":2002,"stateCode":"BA","stateName":"Bahia","countryId":31,"countryCode":"BR","countryName":"Brazil","latitude":"-13.01944000","longitude":"-42.69861000","wikiDataId":"Q776627"},{"id":12904,"name":"Macururé","stateId":2002,"stateCode":"BA","stateName":"Bahia","countryId":31,"countryCode":"BR","countryName":"Brazil","latitude":"-9.28091000","longitude":"-38.91463000","wikiDataId":"Q1815712"},{"id":12907,"name":"Madre de Deus","stateId":2002,"stateCode":"BA","stateName":"Bahia","countryId":31,"countryCode":"BR","countryName":"Brazil","latitude":"-12.74083000","longitude":"-38.62083000","wikiDataId":"Q985510"},{"id":12909,"name":"Maetinga","stateId":2002,"stateCode":"BA","stateName":"Bahia","countryId":31,"countryCode":"BR","countryName":"Brazil","latitude":"-14.66530000","longitude":"-41.49055000","wikiDataId":"Q985510"},{"id":12915,"name":"Maiquinique","stateId":2002,"stateCode":"BA","stateName":"Bahia","countryId":31,"countryCode":"BR","countryName":"Brazil","latitude":"-15.69897000","longitude":"-40.26411000","wikiDataId":"Q2008546"},{"id":12916,"name":"Mairi","stateId":2002,"stateCode":"BA","stateName":"Bahia","countryId":31,"countryCode":"BR","countryName":"Brazil","latitude":"-11.71139000","longitude":"-40.14889000","wikiDataId":"Q1795253"},{"id":12925,"name":"Malhada","stateId":2002,"stateCode":"BA","stateName":"Bahia","countryId":31,"countryCode":"BR","countryName":"Brazil","latitude":"-14.19145000","longitude":"-43.63151000","wikiDataId":"Q1755703"},{"id":12926,"name":"Malhada de Pedras","stateId":2002,"stateCode":"BA","stateName":"Bahia","countryId":31,"countryCode":"BR","countryName":"Brazil","latitude":"-14.27766000","longitude":"-41.89207000","wikiDataId":"Q1755703"},{"id":12956,"name":"Manoel Vitorino","stateId":2002,"stateCode":"BA","stateName":"Bahia","countryId":31,"countryCode":"BR","countryName":"Brazil","latitude":"-14.00487000","longitude":"-40.48008000","wikiDataId":"Q1750110"},{"id":12957,"name":"Mansidão","stateId":2002,"stateCode":"BA","stateName":"Bahia","countryId":31,"countryCode":"BR","countryName":"Brazil","latitude":"-11.20780000","longitude":"-44.14109000","wikiDataId":"Q1750110"},{"id":12972,"name":"Maracás","stateId":2002,"stateCode":"BA","stateName":"Bahia","countryId":31,"countryCode":"BR","countryName":"Brazil","latitude":"-13.44111000","longitude":"-40.43083000","wikiDataId":"Q1795100"},{"id":12974,"name":"Maragogipe","stateId":2002,"stateCode":"BA","stateName":"Bahia","countryId":31,"countryCode":"BR","countryName":"Brazil","latitude":"-12.77778000","longitude":"-38.91944000","wikiDataId":"Q1761467"},{"id":12989,"name":"Maraú","stateId":2002,"stateCode":"BA","stateName":"Bahia","countryId":31,"countryCode":"BR","countryName":"Brazil","latitude":"-14.10395000","longitude":"-39.01490000","wikiDataId":"Q2028783"},{"id":12994,"name":"Marcionílio Souza","stateId":2002,"stateCode":"BA","stateName":"Bahia","countryId":31,"countryCode":"BR","countryName":"Brazil","latitude":"-13.11581000","longitude":"-40.62915000","wikiDataId":"Q2012355"},{"id":13040,"name":"Mascote","stateId":2002,"stateCode":"BA","stateName":"Bahia","countryId":31,"countryCode":"BR","countryName":"Brazil","latitude":"-15.56306000","longitude":"-39.30250000","wikiDataId":"Q956401"},{"id":13049,"name":"Mata de São João","stateId":2002,"stateCode":"BA","stateName":"Bahia","countryId":31,"countryCode":"BR","countryName":"Brazil","latitude":"-12.53028000","longitude":"-38.29917000","wikiDataId":"Q648152"},{"id":13059,"name":"Matina","stateId":2002,"stateCode":"BA","stateName":"Bahia","countryId":31,"countryCode":"BR","countryName":"Brazil","latitude":"-13.89342000","longitude":"-42.98279000","wikiDataId":"Q1894372"},{"id":13091,"name":"Medeiros Neto","stateId":2002,"stateCode":"BA","stateName":"Bahia","countryId":31,"countryCode":"BR","countryName":"Brazil","latitude":"-17.37389000","longitude":"-40.22056000","wikiDataId":"Q1794359"},{"id":13110,"name":"Miguel Calmon","stateId":2002,"stateCode":"BA","stateName":"Bahia","countryId":31,"countryCode":"BR","countryName":"Brazil","latitude":"-11.42889000","longitude":"-40.59500000","wikiDataId":"Q1793651"},{"id":13115,"name":"Milagres","stateId":2002,"stateCode":"BA","stateName":"Bahia","countryId":31,"countryCode":"BR","countryName":"Brazil","latitude":"-12.95591000","longitude":"-39.81783000","wikiDataId":"Q2092809"},{"id":13143,"name":"Mirangaba","stateId":2002,"stateCode":"BA","stateName":"Bahia","countryId":31,"countryCode":"BR","countryName":"Brazil","latitude":"-10.80362000","longitude":"-40.67056000","wikiDataId":"Q1645072"},{"id":13145,"name":"Mirante","stateId":2002,"stateCode":"BA","stateName":"Bahia","countryId":31,"countryCode":"BR","countryName":"Brazil","latitude":"-14.18613000","longitude":"-40.78310000","wikiDataId":"Q1794459"},{"id":13208,"name":"Monte Santo","stateId":2002,"stateCode":"BA","stateName":"Bahia","countryId":31,"countryCode":"BR","countryName":"Brazil","latitude":"-10.43778000","longitude":"-39.33278000","wikiDataId":"Q1808562"},{"id":13234,"name":"Morpará","stateId":2002,"stateCode":"BA","stateName":"Bahia","countryId":31,"countryCode":"BR","countryName":"Brazil","latitude":"-11.75265000","longitude":"-43.09133000","wikiDataId":"Q1757400"},{"id":13248,"name":"Morro do Chapéu","stateId":2002,"stateCode":"BA","stateName":"Bahia","countryId":31,"countryCode":"BR","countryName":"Brazil","latitude":"-11.54852000","longitude":"-41.15804000","wikiDataId":"Q1807821"},{"id":13252,"name":"Mortugaba","stateId":2002,"stateCode":"BA","stateName":"Bahia","countryId":31,"countryCode":"BR","countryName":"Brazil","latitude":"-14.98480000","longitude":"-42.40555000","wikiDataId":"Q301700"},{"id":13261,"name":"Mucugê","stateId":2002,"stateCode":"BA","stateName":"Bahia","countryId":31,"countryCode":"BR","countryName":"Brazil","latitude":"-13.14869000","longitude":"-41.51742000","wikiDataId":"Q2027361"},{"id":13262,"name":"Mucuri","stateId":2002,"stateCode":"BA","stateName":"Bahia","countryId":31,"countryCode":"BR","countryName":"Brazil","latitude":"-18.08639000","longitude":"-39.55083000","wikiDataId":"Q1761474"},{"id":13268,"name":"Mulungu do Morro","stateId":2002,"stateCode":"BA","stateName":"Bahia","countryId":31,"countryCode":"BR","countryName":"Brazil","latitude":"-12.00797000","longitude":"-41.42582000","wikiDataId":"Q22059542"},{"id":13269,"name":"Mundo Novo","stateId":2002,"stateCode":"BA","stateName":"Bahia","countryId":31,"countryCode":"BR","countryName":"Brazil","latitude":"-11.85889000","longitude":"-40.47250000","wikiDataId":"Q1984590"},{"id":13274,"name":"Muniz Ferreira","stateId":2002,"stateCode":"BA","stateName":"Bahia","countryId":31,"countryCode":"BR","countryName":"Brazil","latitude":"-13.00146000","longitude":"-39.10601000","wikiDataId":"Q1793732"},{"id":13277,"name":"Muquém do São Francisco","stateId":2002,"stateCode":"BA","stateName":"Bahia","countryId":31,"countryCode":"BR","countryName":"Brazil","latitude":"-12.19886000","longitude":"-43.51311000","wikiDataId":"Q1797483"},{"id":13283,"name":"Muritiba","stateId":2002,"stateCode":"BA","stateName":"Bahia","countryId":31,"countryCode":"BR","countryName":"Brazil","latitude":"-12.91667000","longitude":"-39.25000000","wikiDataId":"Q22038377"},{"id":13287,"name":"Mutuípe","stateId":2002,"stateCode":"BA","stateName":"Bahia","countryId":31,"countryCode":"BR","countryName":"Brazil","latitude":"-13.22861000","longitude":"-39.50472000","wikiDataId":"Q975660"},{"id":13311,"name":"Nazaré","stateId":2002,"stateCode":"BA","stateName":"Bahia","countryId":31,"countryCode":"BR","countryName":"Brazil","latitude":"-12.95002000","longitude":"-38.97869000","wikiDataId":"Q1808393"},{"id":13324,"name":"Nilo Peçanha","stateId":2002,"stateCode":"BA","stateName":"Bahia","countryId":31,"countryCode":"BR","countryName":"Brazil","latitude":"-13.64812000","longitude":"-39.23876000","wikiDataId":"Q1649650"},{"id":13334,"name":"Nordestina","stateId":2002,"stateCode":"BA","stateName":"Bahia","countryId":31,"countryCode":"BR","countryName":"Brazil","latitude":"-10.89685000","longitude":"-39.45141000","wikiDataId":"Q941207"},{"id":13363,"name":"Nova Canaã","stateId":2002,"stateCode":"BA","stateName":"Bahia","countryId":31,"countryCode":"BR","countryName":"Brazil","latitude":"-14.84621000","longitude":"-40.17826000","wikiDataId":"Q2014329"},{"id":13381,"name":"Nova Fátima","stateId":2002,"stateCode":"BA","stateName":"Bahia","countryId":31,"countryCode":"BR","countryName":"Brazil","latitude":"-11.56608000","longitude":"-39.58609000","wikiDataId":"Q468563"},{"id":13388,"name":"Nova Ibiá","stateId":2002,"stateCode":"BA","stateName":"Bahia","countryId":31,"countryCode":"BR","countryName":"Brazil","latitude":"-13.86230000","longitude":"-39.58877000","wikiDataId":"Q1648342"},{"id":13395,"name":"Nova Itarana","stateId":2002,"stateCode":"BA","stateName":"Bahia","countryId":31,"countryCode":"BR","countryName":"Brazil","latitude":"-13.04028000","longitude":"-40.00784000","wikiDataId":"Q188897"},{"id":13425,"name":"Nova Redenção","stateId":2002,"stateCode":"BA","stateName":"Bahia","countryId":31,"countryCode":"BR","countryName":"Brazil","latitude":"-12.87403000","longitude":"-41.12335000","wikiDataId":"Q1758146"},{"id":13437,"name":"Nova Soure","stateId":2002,"stateCode":"BA","stateName":"Bahia","countryId":31,"countryCode":"BR","countryName":"Brazil","latitude":"-11.23333000","longitude":"-38.48333000","wikiDataId":"Q1772518"},{"id":13447,"name":"Nova Viçosa","stateId":2002,"stateCode":"BA","stateName":"Bahia","countryId":31,"countryCode":"BR","countryName":"Brazil","latitude":"-17.89194000","longitude":"-39.37194000","wikiDataId":"Q1794050"},{"id":13461,"name":"Novo Horizonte","stateId":2002,"stateCode":"BA","stateName":"Bahia","countryId":31,"countryCode":"BR","countryName":"Brazil","latitude":"-12.87886000","longitude":"-42.13834000","wikiDataId":"Q1815907"},{"id":13481,"name":"Novo Triunfo","stateId":2002,"stateCode":"BA","stateName":"Bahia","countryId":31,"countryCode":"BR","countryName":"Brazil","latitude":"-10.34787000","longitude":"-38.40211000","wikiDataId":"Q2011959"},{"id":13504,"name":"Olindina","stateId":2002,"stateCode":"BA","stateName":"Bahia","countryId":31,"countryCode":"BR","countryName":"Brazil","latitude":"-11.36667000","longitude":"-38.33333000","wikiDataId":"Q1648508"},{"id":13509,"name":"Oliveira dos Brejinhos","stateId":2002,"stateCode":"BA","stateName":"Bahia","countryId":31,"countryCode":"BR","countryName":"Brazil","latitude":"-12.31694000","longitude":"-42.89611000","wikiDataId":"Q1795068"},{"id":13536,"name":"Ouriçangas","stateId":2002,"stateCode":"BA","stateName":"Bahia","countryId":31,"countryCode":"BR","countryName":"Brazil","latitude":"-12.00343000","longitude":"-38.65208000","wikiDataId":"Q985605"},{"id":13551,"name":"Ourolândia","stateId":2002,"stateCode":"BA","stateName":"Bahia","countryId":31,"countryCode":"BR","countryName":"Brazil","latitude":"-10.83804000","longitude":"-41.02839000","wikiDataId":"Q1803223"},{"id":13588,"name":"Palmas de Monte Alto","stateId":2002,"stateCode":"BA","stateName":"Bahia","countryId":31,"countryCode":"BR","countryName":"Brazil","latitude":"-14.26722000","longitude":"-43.16194000","wikiDataId":"Q1793599"},{"id":13597,"name":"Palmeiras","stateId":2002,"stateCode":"BA","stateName":"Bahia","countryId":31,"countryCode":"BR","countryName":"Brazil","latitude":"-12.51485000","longitude":"-41.57707000","wikiDataId":"Q2064013"},{"id":13634,"name":"Paramirim","stateId":2002,"stateCode":"BA","stateName":"Bahia","countryId":31,"countryCode":"BR","countryName":"Brazil","latitude":"-13.44250000","longitude":"-42.23889000","wikiDataId":"Q1793379"},{"id":13653,"name":"Paratinga","stateId":2002,"stateCode":"BA","stateName":"Bahia","countryId":31,"countryCode":"BR","countryName":"Brazil","latitude":"-12.69056000","longitude":"-43.18417000","wikiDataId":"Q1793885"},{"id":13673,"name":"Paripiranga","stateId":2002,"stateCode":"BA","stateName":"Bahia","countryId":31,"countryCode":"BR","countryName":"Brazil","latitude":"-10.68750000","longitude":"-37.86167000","wikiDataId":"Q1761881"},{"id":13714,"name":"Pau Brasil","stateId":2002,"stateCode":"BA","stateName":"Bahia","countryId":31,"countryCode":"BR","countryName":"Brazil","latitude":"-15.46417000","longitude":"-39.65111000","wikiDataId":"Q1772557"},{"id":13731,"name":"Paulo Afonso","stateId":2002,"stateCode":"BA","stateName":"Bahia","countryId":31,"countryCode":"BR","countryName":"Brazil","latitude":"-9.55234000","longitude":"-38.16905000","wikiDataId":"Q956008"},{"id":14120,"name":"Pé de Serra","stateId":2002,"stateCode":"BA","stateName":"Bahia","countryId":31,"countryCode":"BR","countryName":"Brazil","latitude":"-11.88974000","longitude":"-39.61937000","wikiDataId":"Q2027100"},{"id":13786,"name":"Pedrão","stateId":2002,"stateCode":"BA","stateName":"Bahia","countryId":31,"countryCode":"BR","countryName":"Brazil","latitude":"-12.13311000","longitude":"-38.60621000","wikiDataId":"Q1786891"},{"id":13773,"name":"Pedro Alexandre","stateId":2002,"stateCode":"BA","stateName":"Bahia","countryId":31,"countryCode":"BR","countryName":"Brazil","latitude":"-9.97693000","longitude":"-37.91489000","wikiDataId":"Q1957216"},{"id":13825,"name":"Piatã","stateId":2002,"stateCode":"BA","stateName":"Bahia","countryId":31,"countryCode":"BR","countryName":"Brazil","latitude":"-13.12099000","longitude":"-41.89093000","wikiDataId":"Q2009920"},{"id":13840,"name":"Pilão Arcado","stateId":2002,"stateCode":"BA","stateName":"Bahia","countryId":31,"countryCode":"BR","countryName":"Brazil","latitude":"-10.00201000","longitude":"-43.39371000","wikiDataId":"Q1800635"},{"id":13851,"name":"Pindaí","stateId":2002,"stateCode":"BA","stateName":"Bahia","countryId":31,"countryCode":"BR","countryName":"Brazil","latitude":"-14.52319000","longitude":"-42.67822000","wikiDataId":"Q2065093"},{"id":13853,"name":"Pindobaçu","stateId":2002,"stateCode":"BA","stateName":"Bahia","countryId":31,"countryCode":"BR","countryName":"Brazil","latitude":"-10.74167000","longitude":"-40.36083000","wikiDataId":"Q1794448"},{"id":13875,"name":"Pintadas","stateId":2002,"stateCode":"BA","stateName":"Bahia","countryId":31,"countryCode":"BR","countryName":"Brazil","latitude":"-11.92312000","longitude":"-39.97782000","wikiDataId":"Q2171696"},{"id":13911,"name":"Piraí do Norte","stateId":2002,"stateCode":"BA","stateName":"Bahia","countryId":31,"countryCode":"BR","countryName":"Brazil","latitude":"-13.84971000","longitude":"-39.39208000","wikiDataId":"Q1015780"},{"id":13918,"name":"Piripá","stateId":2002,"stateCode":"BA","stateName":"Bahia","countryId":31,"countryCode":"BR","countryName":"Brazil","latitude":"-14.92617000","longitude":"-41.75304000","wikiDataId":"Q996763"},{"id":13919,"name":"Piritiba","stateId":2002,"stateCode":"BA","stateName":"Bahia","countryId":31,"countryCode":"BR","countryName":"Brazil","latitude":"-11.73028000","longitude":"-40.55528000","wikiDataId":"Q1807706"},{"id":13936,"name":"Planaltino","stateId":2002,"stateCode":"BA","stateName":"Bahia","countryId":31,"countryCode":"BR","countryName":"Brazil","latitude":"-13.27349000","longitude":"-40.22316000","wikiDataId":"Q1004078"},{"id":13937,"name":"Planalto","stateId":2002,"stateCode":"BA","stateName":"Bahia","countryId":31,"countryCode":"BR","countryName":"Brazil","latitude":"-14.72862000","longitude":"-40.38025000","wikiDataId":"Q1004078"},{"id":14056,"name":"Poções","stateId":2002,"stateCode":"BA","stateName":"Bahia","countryId":31,"countryCode":"BR","countryName":"Brazil","latitude":"-14.52972000","longitude":"-40.36528000","wikiDataId":"Q1793430"},{"id":13949,"name":"Pojuca","stateId":2002,"stateCode":"BA","stateName":"Bahia","countryId":31,"countryCode":"BR","countryName":"Brazil","latitude":"-12.36588000","longitude":"-38.24332000","wikiDataId":"Q166445"},{"id":13977,"name":"Ponto Novo","stateId":2002,"stateCode":"BA","stateName":"Bahia","countryId":31,"countryCode":"BR","countryName":"Brazil","latitude":"-10.86278000","longitude":"-40.13361000","wikiDataId":"Q1935495"},{"id":14017,"name":"Porto Seguro","stateId":2002,"stateCode":"BA","stateName":"Bahia","countryId":31,"countryCode":"BR","countryName":"Brazil","latitude":"-16.44972000","longitude":"-39.06472000","wikiDataId":"Q499922"},{"id":14031,"name":"Posto da Mata","stateId":2002,"stateCode":"BA","stateName":"Bahia","countryId":31,"countryCode":"BR","countryName":"Brazil","latitude":"-17.88828000","longitude":"-39.85593000","wikiDataId":"Q2021419"},{"id":14034,"name":"Potiraguá","stateId":2002,"stateCode":"BA","stateName":"Bahia","countryId":31,"countryCode":"BR","countryName":"Brazil","latitude":"-15.70117000","longitude":"-39.76689000","wikiDataId":"Q2021419"},{"id":14059,"name":"Prado","stateId":2002,"stateCode":"BA","stateName":"Bahia","countryId":31,"countryCode":"BR","countryName":"Brazil","latitude":"-17.31655000","longitude":"-39.23355000","wikiDataId":"Q1807887"},{"id":14080,"name":"Presidente Dutra","stateId":2002,"stateCode":"BA","stateName":"Bahia","countryId":31,"countryCode":"BR","countryName":"Brazil","latitude":"-11.29503000","longitude":"-41.98563000","wikiDataId":"Q637452"},{"id":14086,"name":"Presidente Jânio Quadros","stateId":2002,"stateCode":"BA","stateName":"Bahia","countryId":31,"countryCode":"BR","countryName":"Brazil","latitude":"-14.82942000","longitude":"-41.78616000","wikiDataId":"Q948550"},{"id":14097,"name":"Presidente Tancredo Neves","stateId":2002,"stateCode":"BA","stateName":"Bahia","countryId":31,"countryCode":"BR","countryName":"Brazil","latitude":"-13.46145000","longitude":"-39.42126000","wikiDataId":"Q1796453"},{"id":14139,"name":"Queimadas","stateId":2002,"stateCode":"BA","stateName":"Bahia","countryId":31,"countryCode":"BR","countryName":"Brazil","latitude":"-10.97833000","longitude":"-39.62639000","wikiDataId":"Q1808402"},{"id":14148,"name":"Quijingue","stateId":2002,"stateCode":"BA","stateName":"Bahia","countryId":31,"countryCode":"BR","countryName":"Brazil","latitude":"-10.75250000","longitude":"-39.20917000","wikiDataId":"Q1793720"},{"id":14160,"name":"Quixabeira","stateId":2002,"stateCode":"BA","stateName":"Bahia","countryId":31,"countryCode":"BR","countryName":"Brazil","latitude":"-11.41345000","longitude":"-40.13302000","wikiDataId":"Q1811500"},{"id":14167,"name":"Rafael Jambeiro","stateId":2002,"stateCode":"BA","stateName":"Bahia","countryId":31,"countryCode":"BR","countryName":"Brazil","latitude":"-12.50087000","longitude":"-39.50915000","wikiDataId":"Q1802391"},{"id":14193,"name":"Remanso","stateId":2002,"stateCode":"BA","stateName":"Bahia","countryId":31,"countryCode":"BR","countryName":"Brazil","latitude":"-9.54115000","longitude":"-42.36956000","wikiDataId":"Q1798084"},{"id":14207,"name":"Retirolândia","stateId":2002,"stateCode":"BA","stateName":"Bahia","countryId":31,"countryCode":"BR","countryName":"Brazil","latitude":"-11.47733000","longitude":"-39.40649000","wikiDataId":"Q986252"},{"id":14222,"name":"Riachão das Neves","stateId":2002,"stateCode":"BA","stateName":"Bahia","countryId":31,"countryCode":"BR","countryName":"Brazil","latitude":"-11.74611000","longitude":"-44.91000000","wikiDataId":"Q1762348"},{"id":14225,"name":"Riachão do Jacuípe","stateId":2002,"stateCode":"BA","stateName":"Bahia","countryId":31,"countryCode":"BR","countryName":"Brazil","latitude":"-11.80694000","longitude":"-39.38556000","wikiDataId":"Q1794367"},{"id":14213,"name":"Riacho de Santana","stateId":2002,"stateCode":"BA","stateName":"Bahia","countryId":31,"countryCode":"BR","countryName":"Brazil","latitude":"-13.60917000","longitude":"-42.93889000","wikiDataId":"Q2013792"},{"id":14232,"name":"Ribeira do Amparo","stateId":2002,"stateCode":"BA","stateName":"Bahia","countryId":31,"countryCode":"BR","countryName":"Brazil","latitude":"-11.00558000","longitude":"-38.38732000","wikiDataId":"Q691658"},{"id":14234,"name":"Ribeira do Pombal","stateId":2002,"stateCode":"BA","stateName":"Bahia","countryId":31,"countryCode":"BR","countryName":"Brazil","latitude":"-10.83444000","longitude":"-38.53583000","wikiDataId":"Q1793776"},{"id":14248,"name":"Ribeirão do Largo","stateId":2002,"stateCode":"BA","stateName":"Bahia","countryId":31,"countryCode":"BR","countryName":"Brazil","latitude":"-15.38558000","longitude":"-40.65886000","wikiDataId":"Q737689"},{"id":14308,"name":"Rio de Contas","stateId":2002,"stateCode":"BA","stateName":"Bahia","countryId":31,"countryCode":"BR","countryName":"Brazil","latitude":"-13.62169000","longitude":"-41.68702000","wikiDataId":"Q1760134"},{"id":14310,"name":"Rio do Antônio","stateId":2002,"stateCode":"BA","stateName":"Bahia","countryId":31,"countryCode":"BR","countryName":"Brazil","latitude":"-14.22674000","longitude":"-42.16613000","wikiDataId":"Q2345752"},{"id":14314,"name":"Rio do Pires","stateId":2002,"stateCode":"BA","stateName":"Bahia","countryId":31,"countryCode":"BR","countryName":"Brazil","latitude":"-13.11134000","longitude":"-42.17747000","wikiDataId":"Q775857"},{"id":14295,"name":"Rio Real","stateId":2002,"stateCode":"BA","stateName":"Bahia","countryId":31,"countryCode":"BR","countryName":"Brazil","latitude":"-11.48472000","longitude":"-37.93278000","wikiDataId":"Q965807"},{"id":14331,"name":"Rodelas","stateId":2002,"stateCode":"BA","stateName":"Bahia","countryId":31,"countryCode":"BR","countryName":"Brazil","latitude":"-9.21767000","longitude":"-38.64607000","wikiDataId":"Q2012010"},{"id":14364,"name":"Ruy Barbosa","stateId":2002,"stateCode":"BA","stateName":"Bahia","countryId":31,"countryCode":"BR","countryName":"Brazil","latitude":"-12.28389000","longitude":"-40.49389000","wikiDataId":"Q1807858"},{"id":14388,"name":"Salinas da Margarida","stateId":2002,"stateCode":"BA","stateName":"Bahia","countryId":31,"countryCode":"BR","countryName":"Brazil","latitude":"-12.90667000","longitude":"-38.78043000","wikiDataId":"Q22065209"},{"id":14404,"name":"Salvador","stateId":2002,"stateCode":"BA","stateName":"Bahia","countryId":31,"countryCode":"BR","countryName":"Brazil","latitude":"-12.97111000","longitude":"-38.51083000","wikiDataId":"Q36947"},{"id":14422,"name":"Santa Bárbara","stateId":2002,"stateCode":"BA","stateName":"Bahia","countryId":31,"countryCode":"BR","countryName":"Brazil","latitude":"-11.91770000","longitude":"-38.99206000","wikiDataId":"Q1759617"},{"id":14421,"name":"Santa Brígida","stateId":2002,"stateCode":"BA","stateName":"Bahia","countryId":31,"countryCode":"BR","countryName":"Brazil","latitude":"-9.67904000","longitude":"-38.11371000","wikiDataId":"Q1759617"},{"id":14441,"name":"Santa Cruz Cabrália","stateId":2002,"stateCode":"BA","stateName":"Bahia","countryId":31,"countryCode":"BR","countryName":"Brazil","latitude":"-16.27806000","longitude":"-39.02472000","wikiDataId":"Q993466"},{"id":14445,"name":"Santa Cruz da Vitória","stateId":2002,"stateCode":"BA","stateName":"Bahia","countryId":31,"countryCode":"BR","countryName":"Brazil","latitude":"-14.90311000","longitude":"-39.79148000","wikiDataId":"Q993466"},{"id":14476,"name":"Santa Inês","stateId":2002,"stateCode":"BA","stateName":"Bahia","countryId":31,"countryCode":"BR","countryName":"Brazil","latitude":"-13.29222000","longitude":"-39.81889000","wikiDataId":"Q512109"},{"id":14492,"name":"Santa Luzia","stateId":2002,"stateCode":"BA","stateName":"Bahia","countryId":31,"countryCode":"BR","countryName":"Brazil","latitude":"-15.46388000","longitude":"-39.27671000","wikiDataId":"Q1977528"},{"id":14507,"name":"Santa Maria da Vitória","stateId":2002,"stateCode":"BA","stateName":"Bahia","countryId":31,"countryCode":"BR","countryName":"Brazil","latitude":"-13.38814000","longitude":"-44.19868000","wikiDataId":"Q1761852"},{"id":14528,"name":"Santa Rita de Cássia","stateId":2002,"stateCode":"BA","stateName":"Bahia","countryId":31,"countryCode":"BR","countryName":"Brazil","latitude":"-11.02715000","longitude":"-44.59582000","wikiDataId":"Q1755160"},{"id":14557,"name":"Santa Terezinha","stateId":2002,"stateCode":"BA","stateName":"Bahia","countryId":31,"countryCode":"BR","countryName":"Brazil","latitude":"-12.67120000","longitude":"-39.55082000","wikiDataId":"Q1795259"},{"id":14567,"name":"Santaluz","stateId":2002,"stateCode":"BA","stateName":"Bahia","countryId":31,"countryCode":"BR","countryName":"Brazil","latitude":"-11.25583000","longitude":"-39.37472000","wikiDataId":"Q1793861"},{"id":14569,"name":"Santana","stateId":2002,"stateCode":"BA","stateName":"Bahia","countryId":31,"countryCode":"BR","countryName":"Brazil","latitude":"-14.46667000","longitude":"-41.80000000","wikiDataId":"Q22034774"},{"id":14597,"name":"Santanópolis","stateId":2002,"stateCode":"BA","stateName":"Bahia","countryId":31,"countryCode":"BR","countryName":"Brazil","latitude":"-12.02416000","longitude":"-38.88007000","wikiDataId":"Q929590"},{"id":14603,"name":"Santo Amaro","stateId":2002,"stateCode":"BA","stateName":"Bahia","countryId":31,"countryCode":"BR","countryName":"Brazil","latitude":"-12.54667000","longitude":"-38.71194000","wikiDataId":"Q739789"},{"id":14617,"name":"Santo Antônio de Jesus","stateId":2002,"stateCode":"BA","stateName":"Bahia","countryId":31,"countryCode":"BR","countryName":"Brazil","latitude":"-12.96889000","longitude":"-39.26139000","wikiDataId":"Q1764163"},{"id":14646,"name":"Santo Estêvão","stateId":2002,"stateCode":"BA","stateName":"Bahia","countryId":31,"countryCode":"BR","countryName":"Brazil","latitude":"-12.43028000","longitude":"-39.25139000","wikiDataId":"Q1794190"},{"id":14860,"name":"São Desidério","stateId":2002,"stateCode":"BA","stateName":"Bahia","countryId":31,"countryCode":"BR","countryName":"Brazil","latitude":"-12.36333000","longitude":"-44.97333000","wikiDataId":"Q1761582"},{"id":14863,"name":"São Domingos","stateId":2002,"stateCode":"BA","stateName":"Bahia","countryId":31,"countryCode":"BR","countryName":"Brazil","latitude":"-11.48464000","longitude":"-39.59916000","wikiDataId":"Q2019014"},{"id":14875,"name":"São Felipe","stateId":2002,"stateCode":"BA","stateName":"Bahia","countryId":31,"countryCode":"BR","countryName":"Brazil","latitude":"-14.83860000","longitude":"-41.39174000","wikiDataId":"Q22035103"},{"id":14899,"name":"São Félix","stateId":2002,"stateCode":"BA","stateName":"Bahia","countryId":31,"countryCode":"BR","countryName":"Brazil","latitude":"-12.67807000","longitude":"-38.99979000","wikiDataId":"Q986536"},{"id":14903,"name":"São Félix do Coribe","stateId":2002,"stateCode":"BA","stateName":"Bahia","countryId":31,"countryCode":"BR","countryName":"Brazil","latitude":"-13.41471000","longitude":"-43.98138000","wikiDataId":"Q1788630"},{"id":14891,"name":"São Francisco do Conde","stateId":2002,"stateCode":"BA","stateName":"Bahia","countryId":31,"countryCode":"BR","countryName":"Brazil","latitude":"-12.64556000","longitude":"-38.63335000","wikiDataId":"Q1648073"},{"id":14907,"name":"São Gabriel","stateId":2002,"stateCode":"BA","stateName":"Bahia","countryId":31,"countryCode":"BR","countryName":"Brazil","latitude":"-10.95576000","longitude":"-41.55411000","wikiDataId":"Q1807317"},{"id":14926,"name":"São Gonçalo dos Campos","stateId":2002,"stateCode":"BA","stateName":"Bahia","countryId":31,"countryCode":"BR","countryName":"Brazil","latitude":"-12.43333000","longitude":"-38.96667000","wikiDataId":"Q1793783"},{"id":14949,"name":"São José da Vitória","stateId":2002,"stateCode":"BA","stateName":"Bahia","countryId":31,"countryCode":"BR","countryName":"Brazil","latitude":"-15.07185000","longitude":"-39.35016000","wikiDataId":"Q1808190"},{"id":14976,"name":"São José do Jacuípe","stateId":2002,"stateCode":"BA","stateName":"Bahia","countryId":31,"countryCode":"BR","countryName":"Brazil","latitude":"-11.46833000","longitude":"-39.90377000","wikiDataId":"Q1807737"},{"id":15082,"name":"São Miguel das Matas","stateId":2002,"stateCode":"BA","stateName":"Bahia","countryId":31,"countryCode":"BR","countryName":"Brazil","latitude":"-13.04308000","longitude":"-39.43403000","wikiDataId":"Q22013968"},{"id":15149,"name":"São Sebastião do Passé","stateId":2002,"stateCode":"BA","stateName":"Bahia","countryId":31,"countryCode":"BR","countryName":"Brazil","latitude":"-12.51250000","longitude":"-38.49528000","wikiDataId":"Q1793748"},{"id":14656,"name":"Sapeaçu","stateId":2002,"stateCode":"BA","stateName":"Bahia","countryId":31,"countryCode":"BR","countryName":"Brazil","latitude":"-12.77200000","longitude":"-39.23848000","wikiDataId":"Q1754760"},{"id":14830,"name":"Sátiro Dias","stateId":2002,"stateCode":"BA","stateName":"Bahia","countryId":31,"countryCode":"BR","countryName":"Brazil","latitude":"-11.63166000","longitude":"-38.48886000","wikiDataId":"Q737670"},{"id":14675,"name":"Saubara","stateId":2002,"stateCode":"BA","stateName":"Bahia","countryId":31,"countryCode":"BR","countryName":"Brazil","latitude":"-12.73750000","longitude":"-38.76861000","wikiDataId":"Q1793933"},{"id":14678,"name":"Saúde","stateId":2002,"stateCode":"BA","stateName":"Bahia","countryId":31,"countryCode":"BR","countryName":"Brazil","latitude":"-10.84463000","longitude":"-40.37510000","wikiDataId":"Q2247752"},{"id":14680,"name":"Seabra","stateId":2002,"stateCode":"BA","stateName":"Bahia","countryId":31,"countryCode":"BR","countryName":"Brazil","latitude":"-12.41713000","longitude":"-41.77049000","wikiDataId":"Q1794971"},{"id":14684,"name":"Sebastião Laranjeiras","stateId":2002,"stateCode":"BA","stateName":"Bahia","countryId":31,"countryCode":"BR","countryName":"Brazil","latitude":"-14.56848000","longitude":"-43.13729000","wikiDataId":"Q1794971"},{"id":14710,"name":"Senhor do Bonfim","stateId":2002,"stateCode":"BA","stateName":"Bahia","countryId":31,"countryCode":"BR","countryName":"Brazil","latitude":"-10.46139000","longitude":"-40.18944000","wikiDataId":"Q1808316"},{"id":14715,"name":"Sento Sé","stateId":2002,"stateCode":"BA","stateName":"Bahia","countryId":31,"countryCode":"BR","countryName":"Brazil","latitude":"-10.21251000","longitude":"-41.57947000","wikiDataId":"Q1788604"},{"id":14740,"name":"Serra do Ramalho","stateId":2002,"stateCode":"BA","stateName":"Bahia","countryId":31,"countryCode":"BR","countryName":"Brazil","latitude":"-13.41101000","longitude":"-43.77849000","wikiDataId":"Q600869"},{"id":14727,"name":"Serra Dourada","stateId":2002,"stateCode":"BA","stateName":"Bahia","countryId":31,"countryCode":"BR","countryName":"Brazil","latitude":"-12.91499000","longitude":"-43.79600000","wikiDataId":"Q2298053"},{"id":14732,"name":"Serra Preta","stateId":2002,"stateCode":"BA","stateName":"Bahia","countryId":31,"countryCode":"BR","countryName":"Brazil","latitude":"-12.06913000","longitude":"-39.30050000","wikiDataId":"Q2065364"},{"id":14751,"name":"Serrinha","stateId":2002,"stateCode":"BA","stateName":"Bahia","countryId":31,"countryCode":"BR","countryName":"Brazil","latitude":"-11.66417000","longitude":"-39.00750000","wikiDataId":"Q1008215"},{"id":14756,"name":"Serrolândia","stateId":2002,"stateCode":"BA","stateName":"Bahia","countryId":31,"countryCode":"BR","countryName":"Brazil","latitude":"-11.54018000","longitude":"-40.24783000","wikiDataId":"Q919904"},{"id":14789,"name":"Simões Filho","stateId":2002,"stateCode":"BA","stateName":"Bahia","countryId":31,"countryCode":"BR","countryName":"Brazil","latitude":"-12.78444000","longitude":"-38.40389000","wikiDataId":"Q1645080"},{"id":15180,"name":"Sítio do Mato","stateId":2002,"stateCode":"BA","stateName":"Bahia","countryId":31,"countryCode":"BR","countryName":"Brazil","latitude":"-13.00385000","longitude":"-43.54537000","wikiDataId":"Q1806986"},{"id":15181,"name":"Sítio do Quinto","stateId":2002,"stateCode":"BA","stateName":"Bahia","countryId":31,"countryCode":"BR","countryName":"Brazil","latitude":"-10.34321000","longitude":"-38.07346000","wikiDataId":"Q1806986"},{"id":14795,"name":"Sobradinho","stateId":2002,"stateCode":"BA","stateName":"Bahia","countryId":31,"countryCode":"BR","countryName":"Brazil","latitude":"-12.83333000","longitude":"-39.10000000","wikiDataId":"Q22032938"},{"id":14816,"name":"Souto Soares","stateId":2002,"stateCode":"BA","stateName":"Bahia","countryId":31,"countryCode":"BR","countryName":"Brazil","latitude":"-11.94603000","longitude":"-41.94815000","wikiDataId":"Q2011653"},{"id":15188,"name":"Tabocas do Brejo Velho","stateId":2002,"stateCode":"BA","stateName":"Bahia","countryId":31,"countryCode":"BR","countryName":"Brazil","latitude":"-12.36943000","longitude":"-44.08362000","wikiDataId":"Q2078322"},{"id":15219,"name":"Tanhaçu","stateId":2002,"stateCode":"BA","stateName":"Bahia","countryId":31,"countryCode":"BR","countryName":"Brazil","latitude":"-14.07010000","longitude":"-41.13506000","wikiDataId":"Q22062867"},{"id":15220,"name":"Tanque Novo","stateId":2002,"stateCode":"BA","stateName":"Bahia","countryId":31,"countryCode":"BR","countryName":"Brazil","latitude":"-13.58365000","longitude":"-42.54311000","wikiDataId":"Q22062867"},{"id":15223,"name":"Tanquinho","stateId":2002,"stateCode":"BA","stateName":"Bahia","countryId":31,"countryCode":"BR","countryName":"Brazil","latitude":"-11.95674000","longitude":"-39.09608000","wikiDataId":"Q1772722"},{"id":15231,"name":"Taperoá","stateId":2002,"stateCode":"BA","stateName":"Bahia","countryId":31,"countryCode":"BR","countryName":"Brazil","latitude":"-13.56959000","longitude":"-39.22020000","wikiDataId":"Q22062864"},{"id":15235,"name":"Tapiramutá","stateId":2002,"stateCode":"BA","stateName":"Bahia","countryId":31,"countryCode":"BR","countryName":"Brazil","latitude":"-11.84722000","longitude":"-40.79139000","wikiDataId":"Q22062863"},{"id":15267,"name":"Teixeira de Freitas","stateId":2002,"stateCode":"BA","stateName":"Bahia","countryId":31,"countryCode":"BR","countryName":"Brazil","latitude":"-17.42402000","longitude":"-39.78697000","wikiDataId":"Q282335"},{"id":15278,"name":"Teodoro Sampaio","stateId":2002,"stateCode":"BA","stateName":"Bahia","countryId":31,"countryCode":"BR","countryName":"Brazil","latitude":"-12.26547000","longitude":"-38.61211000","wikiDataId":"Q22062859"},{"id":15280,"name":"Teofilândia","stateId":2002,"stateCode":"BA","stateName":"Bahia","countryId":31,"countryCode":"BR","countryName":"Brazil","latitude":"-11.53412000","longitude":"-38.94519000","wikiDataId":"Q13109202"},{"id":15281,"name":"Teolândia","stateId":2002,"stateCode":"BA","stateName":"Bahia","countryId":31,"countryCode":"BR","countryName":"Brazil","latitude":"-13.57031000","longitude":"-39.46492000","wikiDataId":"Q13109202"},{"id":15292,"name":"Terra Nova","stateId":2002,"stateCode":"BA","stateName":"Bahia","countryId":31,"countryCode":"BR","countryName":"Brazil","latitude":"-12.38537000","longitude":"-38.61874000","wikiDataId":"Q22062856"},{"id":15353,"name":"Tremedal","stateId":2002,"stateCode":"BA","stateName":"Bahia","countryId":31,"countryCode":"BR","countryName":"Brazil","latitude":"-14.90080000","longitude":"-41.32339000","wikiDataId":"Q22060578"},{"id":15386,"name":"Tucano","stateId":2002,"stateCode":"BA","stateName":"Bahia","countryId":31,"countryCode":"BR","countryName":"Brazil","latitude":"-10.99427000","longitude":"-38.86249000","wikiDataId":"Q22062855"},{"id":15424,"name":"Uauá","stateId":2002,"stateCode":"BA","stateName":"Bahia","countryId":31,"countryCode":"BR","countryName":"Brazil","latitude":"-9.84143000","longitude":"-39.23025000","wikiDataId":"Q22062854"},{"id":15432,"name":"Ubaíra","stateId":2002,"stateCode":"BA","stateName":"Bahia","countryId":31,"countryCode":"BR","countryName":"Brazil","latitude":"-13.28700000","longitude":"-39.69347000","wikiDataId":"Q22062853"},{"id":15425,"name":"Ubaitaba","stateId":2002,"stateCode":"BA","stateName":"Bahia","countryId":31,"countryCode":"BR","countryName":"Brazil","latitude":"-14.31250000","longitude":"-39.32333000","wikiDataId":"Q1762068"},{"id":15430,"name":"Ubatã","stateId":2002,"stateCode":"BA","stateName":"Bahia","countryId":31,"countryCode":"BR","countryName":"Brazil","latitude":"-14.05629000","longitude":"-39.52278000","wikiDataId":"Q22062851"},{"id":15440,"name":"Uibaí","stateId":2002,"stateCode":"BA","stateName":"Bahia","countryId":31,"countryCode":"BR","countryName":"Brazil","latitude":"-11.39060000","longitude":"-42.15615000","wikiDataId":"Q1658522"},{"id":15447,"name":"Umburanas","stateId":2002,"stateCode":"BA","stateName":"Bahia","countryId":31,"countryCode":"BR","countryName":"Brazil","latitude":"-10.50860000","longitude":"-41.17419000","wikiDataId":"Q22063214"},{"id":15452,"name":"Una","stateId":2002,"stateCode":"BA","stateName":"Bahia","countryId":31,"countryCode":"BR","countryName":"Brazil","latitude":"-15.16451000","longitude":"-39.20568000","wikiDataId":"Q22060576"},{"id":15465,"name":"Urandi","stateId":2002,"stateCode":"BA","stateName":"Bahia","countryId":31,"countryCode":"BR","countryName":"Brazil","latitude":"-14.73400000","longitude":"-42.66544000","wikiDataId":"Q1786764"},{"id":15486,"name":"Uruçuca","stateId":2002,"stateCode":"BA","stateName":"Bahia","countryId":31,"countryCode":"BR","countryName":"Brazil","latitude":"-14.59306000","longitude":"-39.28444000","wikiDataId":"Q22030758"},{"id":15489,"name":"Utinga","stateId":2002,"stateCode":"BA","stateName":"Bahia","countryId":31,"countryCode":"BR","countryName":"Brazil","latitude":"-12.04274000","longitude":"-41.19475000","wikiDataId":"Q22062847"},{"id":15499,"name":"Valença","stateId":2002,"stateCode":"BA","stateName":"Bahia","countryId":31,"countryCode":"BR","countryName":"Brazil","latitude":"-13.37213000","longitude":"-39.24002000","wikiDataId":"Q1010498"},{"id":15497,"name":"Valente","stateId":2002,"stateCode":"BA","stateName":"Bahia","countryId":31,"countryCode":"BR","countryName":"Brazil","latitude":"-11.43393000","longitude":"-39.48472000","wikiDataId":"Q22062845"},{"id":15622,"name":"Várzea da Roça","stateId":2002,"stateCode":"BA","stateName":"Bahia","countryId":31,"countryCode":"BR","countryName":"Brazil","latitude":"-11.53905000","longitude":"-40.07647000","wikiDataId":"Q1787088"},{"id":15623,"name":"Várzea do Poço","stateId":2002,"stateCode":"BA","stateName":"Bahia","countryId":31,"countryCode":"BR","countryName":"Brazil","latitude":"-11.53021000","longitude":"-40.30918000","wikiDataId":"Q1787088"},{"id":15619,"name":"Várzea Nova","stateId":2002,"stateCode":"BA","stateName":"Bahia","countryId":31,"countryCode":"BR","countryName":"Brazil","latitude":"-11.05523000","longitude":"-41.23230000","wikiDataId":"Q983884"},{"id":15522,"name":"Varzedo","stateId":2002,"stateCode":"BA","stateName":"Bahia","countryId":31,"countryCode":"BR","countryName":"Brazil","latitude":"-12.99662000","longitude":"-39.37091000","wikiDataId":"Q1803142"},{"id":15533,"name":"Vera Cruz","stateId":2002,"stateCode":"BA","stateName":"Bahia","countryId":31,"countryCode":"BR","countryName":"Brazil","latitude":"-13.02550000","longitude":"-38.70906000","wikiDataId":"Q22062840"},{"id":15541,"name":"Vereda","stateId":2002,"stateCode":"BA","stateName":"Bahia","countryId":31,"countryCode":"BR","countryName":"Brazil","latitude":"-17.14998000","longitude":"-40.04873000","wikiDataId":"Q631107"},{"id":15599,"name":"Vitória da Conquista","stateId":2002,"stateCode":"BA","stateName":"Bahia","countryId":31,"countryCode":"BR","countryName":"Brazil","latitude":"-15.27953000","longitude":"-40.96575000","wikiDataId":"Q22062839"},{"id":15624,"name":"Wagner","stateId":2002,"stateCode":"BA","stateName":"Bahia","countryId":31,"countryCode":"BR","countryName":"Brazil","latitude":"-12.25930000","longitude":"-41.22095000","wikiDataId":"Q22062838"},{"id":15626,"name":"Wanderley","stateId":2002,"stateCode":"BA","stateName":"Bahia","countryId":31,"countryCode":"BR","countryName":"Brazil","latitude":"-11.76500000","longitude":"-43.99378000","wikiDataId":"Q22062838"},{"id":15630,"name":"Wenceslau Guimarães","stateId":2002,"stateCode":"BA","stateName":"Bahia","countryId":31,"countryCode":"BR","countryName":"Brazil","latitude":"-13.61819000","longitude":"-39.58092000","wikiDataId":"Q2006930"},{"id":15642,"name":"Xique Xique","stateId":2002,"stateCode":"BA","stateName":"Bahia","countryId":31,"countryCode":"BR","countryName":"Brazil","latitude":"-10.82294000","longitude":"-42.72815000","wikiDataId":"Q22031142"},{"id":15643,"name":"Xique-Xique","stateId":2002,"stateCode":"BA","stateName":"Bahia","countryId":31,"countryCode":"BR","countryName":"Brazil","latitude":"-10.83393000","longitude":"-42.56320000","wikiDataId":"Q1762114"}]