[{"id":79781,"name":"Cambridge","stateId":4061,"stateCode":"WKO","stateName":"Waikato Region","countryId":158,"countryCode":"NZ","countryName":"New Zealand","latitude":"-37.87822000","longitude":"175.44020000","wikiDataId":"Q1028261"},{"id":79786,"name":"Coromandel","stateId":4061,"stateCode":"WKO","stateName":"Waikato Region","countryId":158,"countryCode":"NZ","countryName":"New Zealand","latitude":"-36.76110000","longitude":"175.49634000","wikiDataId":"Q1134464"},{"id":79799,"name":"Hamilton","stateId":4061,"stateCode":"WKO","stateName":"Waikato Region","countryId":158,"countryCode":"NZ","countryName":"New Zealand","latitude":"-37.78333000","longitude":"175.28333000","wikiDataId":"Q200028"},{"id":79827,"name":"Matamata","stateId":4061,"stateCode":"WKO","stateName":"Waikato Region","countryId":158,"countryCode":"NZ","countryName":"New Zealand","latitude":"-37.81060000","longitude":"175.76237000","wikiDataId":"Q691739"},{"id":79840,"name":"Ngaruawahia","stateId":4061,"stateCode":"WKO","stateName":"Waikato Region","countryId":158,"countryCode":"NZ","countryName":"New Zealand","latitude":"-37.66738000","longitude":"175.15554000","wikiDataId":"Q771298"},{"id":79841,"name":"Ngatea","stateId":4061,"stateCode":"WKO","stateName":"Waikato Region","countryId":158,"countryCode":"NZ","countryName":"New Zealand","latitude":"-37.28333000","longitude":"175.50000000","wikiDataId":"Q513626"},{"id":79848,"name":"Otorohanga","stateId":4061,"stateCode":"WKO","stateName":"Waikato Region","countryId":158,"countryCode":"NZ","countryName":"New Zealand","latitude":"-38.18333000","longitude":"175.20000000","wikiDataId":"Q1936464"},{"id":79850,"name":"Paeroa","stateId":4061,"stateCode":"WKO","stateName":"Waikato Region","countryId":158,"countryCode":"NZ","countryName":"New Zealand","latitude":"-37.36667000","longitude":"175.66667000","wikiDataId":"Q834005"},{"id":79867,"name":"Raglan","stateId":4061,"stateCode":"WKO","stateName":"Waikato Region","countryId":158,"countryCode":"NZ","countryName":"New Zealand","latitude":"-37.80000000","longitude":"174.88333000","wikiDataId":"Q984803"},{"id":79879,"name":"South Waikato District","stateId":4061,"stateCode":"WKO","stateName":"Waikato Region","countryId":158,"countryCode":"NZ","countryName":"New Zealand","latitude":"-38.16797000","longitude":"175.88624000","wikiDataId":"Q1760808"},{"id":79883,"name":"Tairua","stateId":4061,"stateCode":"WKO","stateName":"Waikato Region","countryId":158,"countryCode":"NZ","countryName":"New Zealand","latitude":"-37.01667000","longitude":"175.85000000","wikiDataId":"Q2388791"},{"id":79888,"name":"Taupo","stateId":4061,"stateCode":"WKO","stateName":"Waikato Region","countryId":158,"countryCode":"NZ","countryName":"New Zealand","latitude":"-38.68333000","longitude":"176.08333000","wikiDataId":"Q2397257"},{"id":79891,"name":"Te Kauwhata","stateId":4061,"stateCode":"WKO","stateName":"Waikato Region","countryId":158,"countryCode":"NZ","countryName":"New Zealand","latitude":"-37.40000000","longitude":"175.15000000","wikiDataId":"Q1526617"},{"id":79892,"name":"Thames","stateId":4061,"stateCode":"WKO","stateName":"Waikato Region","countryId":158,"countryCode":"NZ","countryName":"New Zealand","latitude":"-37.13832000","longitude":"175.54011000","wikiDataId":"Q1691479"},{"id":79897,"name":"Tokoroa","stateId":4061,"stateCode":"WKO","stateName":"Waikato Region","countryId":158,"countryCode":"NZ","countryName":"New Zealand","latitude":"-38.23333000","longitude":"175.86667000","wikiDataId":"Q112685"},{"id":79898,"name":"Turangi","stateId":4061,"stateCode":"WKO","stateName":"Waikato Region","countryId":158,"countryCode":"NZ","countryName":"New Zealand","latitude":"-38.99037000","longitude":"175.80837000","wikiDataId":"Q1026386"},{"id":79900,"name":"Waihi","stateId":4061,"stateCode":"WKO","stateName":"Waikato Region","countryId":158,"countryCode":"NZ","countryName":"New Zealand","latitude":"-37.38333000","longitude":"175.83333000","wikiDataId":"Q498833"},{"id":79920,"name":"Whangamata","stateId":4061,"stateCode":"WKO","stateName":"Waikato Region","countryId":158,"countryCode":"NZ","countryName":"New Zealand","latitude":"-37.20000000","longitude":"175.86667000","wikiDataId":"Q917136"},{"id":79922,"name":"Whitianga","stateId":4061,"stateCode":"WKO","stateName":"Waikato Region","countryId":158,"countryCode":"NZ","countryName":"New Zealand","latitude":"-36.83333000","longitude":"175.70000000","wikiDataId":"Q1375183"}]